time(millisecond),datetime(utc),latitude,longitude,height_above_takeoff(feet),height_above_ground_at_drone_location(feet),ground_elevation_at_drone_location(feet),altitude_above_seaLevel(feet),height_sonar(feet),speed(mph),distance(feet),mileage(feet),satellites,gpslevel,voltage(v),max_altitude(feet),max_ascent(feet),max_speed(mph),max_distance(feet), xSpeed(mph), ySpeed(mph), zSpeed(mph), compass_heading(degrees), pitch(degrees), roll(degrees),isPhoto,isVideo,rc_elevator,rc_aileron,rc_throttle,rc_rudder,rc_elevator(percent),rc_aileron(percent),rc_throttle(percent),rc_rudder(percent),gimbal_heading(degrees),gimbal_pitch(degrees),gimbal_roll(degrees),battery_percent,voltageCell1,voltageCell2,voltageCell3,voltageCell4,voltageCell5,voltageCell6,current(A),battery_temperature(f),altitude(feet),ascent(feet),flycStateRaw,flycState,message
0,2022-12-08 00:26:53,-34.9246321778997,-56.1688999859726,0,0,31.69955646058,31.69955646058,0,0,0,0,25,5,0,31.69955646058,0,0,0,-0.223694,1.342164,0,167.3, -8.6, 0.3,0,0,364,364,364,1684,-100,-100,-100,100,185.1,-20.4,0,100,4.336,4.335,0,0,0,0,0,81.86,31.69955646058,0,41,Motors_Started,"Aeronave en Zona de altitud restringida (150). Vuela con precaución (Code: 190001). Error de calibración del estabilizador. Reinicia la aeronave o contacta con la Asistencia DJI (Code: 40011)"
100,2022-12-08 00:26:53,-34.92463233997,-56.1688996198739,0,0,31.69955646058,31.69955646058,0,1.1408394,0.124459321568,0.124459321568,25,5,0,31.69955646058,0,1.1408394,0.124459321568,-0.223694,1.11847,0,164.1, -10.3, -0.5,0,0,364,364,364,1684,-100,-100,-100,100,183.8,-20.4,0,100,4.336,4.335,0,0,0,0,0,81.86,31.69955646058,0,41,Motors_Started,"Setting new Return-To-Home altitude to 100m (328 ft). Data Recorder File Index is 79. Setting new Maximum Flight Altitude to 120m (394 ft)"
200,2022-12-08 00:26:53,-34.9246325299302,-56.1688993216522,0,-0.032808399999999,31.73236486058,31.69955646058,0,1.3645334,0.236618773976,0.237428485288,25,5,0,31.69955646058,0,1.3645334,0.236618773976,-0.223694,1.342164,0,164.9, -9.3, -0.7,0,0,364,364,364,1684,-100,-100,-100,100,182.5,-20.4,0.1,100,4.336,4.335,0,0,0,0,0,81.86,31.69955646058,0,41,Motors_Started,
300,2022-12-08 00:26:53,-34.9246327454821,-56.1688989270395,0,-0.032808399999999,31.73236486058,31.69955646058,0.328084,1.1408394,0.37845473652,0.37927166568,25,5,0,31.69955646058,0,1.3645334,0.37845473652,-0.223694,1.11847,0,165.8, -9.3, -2.6,0,0,364,364,364,1684,-100,-100,-100,100,182.7,-20.4,0.1,100,4.336,4.335,0,0,0,0,0,81.86,31.69955646058,0,41,Motors_Started,
400,2022-12-08 00:26:53,-34.9246322411359,-56.1689009177798,0,0.032808399999999,31.66674806058,31.69955646058,0.328084,1.1408394,0.279695875092,1.00256892972,25,5,0,31.69955646058,0,1.3645334,0.37845473652,-0.223694,1.11847,0,165, -9.7, -2.8,0,0,364,364,364,1684,-100,-100,-100,100,181.8,-20.4,0.1,100,4.336,4.335,0,0,0,0,0,81.86,31.69955646058,0,41,Motors_Started,
500,2022-12-08 00:26:53,-34.9246322591635,-56.1689006673709,0,0.032808399999999,31.66674806058,31.69955646058,0.328084,0.9171454,0.205979993468,1.07776250168,24,5,0,31.69955646058,0,1.3645334,0.37845473652,-0.223694,0.894776,0,163.7, -10, -1.9,0,0,364,364,364,1684,-100,-100,-100,100,180.7,-20.4,0,100,4.336,4.335,0,0,0,0,0,81.86,31.69955646058,0,41,Motors_Started,
600,2022-12-08 00:26:53,-34.924632243296,-56.168900503063,-0.328084,-0.2952756,31.66674806058,31.37147246058,0.328084,0.9171454,0.156512800284,1.12725397308,24,5,0,31.69955646058,0,1.3645334,0.37845473652,-0.223694,0.894776,0,162.6, -8.6, -0.5,0,0,727,442,364,1630,-45,-88,-100,92,179.3,-20.4,0,100,4.336,4.335,0,0,0,0,0,81.86,31.37147246058,-0.328084,41,Motors_Started,
700,2022-12-08 00:26:53,-34.9246322517248,-56.1689002724323,-0.328084,-0.328084,31.69955646058,31.37147246058,0.328084,0.7158208,0.089825462192,1.19631565508,24,5,0,31.69955646058,0,1.3645334,0.37845473652,-0.223694,0.671082,0,160.9, -7, 1.5,0,0,1034,792,693,1174,2,-35,-50,23,178,-20.4,0,100,4.336,4.335,0,0,0,0,0,81.86,31.37147246058,-0.328084,41,Motors_Started,
800,2022-12-08 00:26:54,-34.9246315803682,-56.1689016532529,-0.328084,-0.2624672,31.63393966058,31.37147246058,0.328084,0.4921268,0.54431760272,1.6765420484,24,5,0,31.69955646058,0,1.3645334,0.54431760272,-0.223694,0.447388,0,160.4, -6.6, 2.7,0,0,1024,1024,1030,1024,0,0,1,0,176.8,-20.4,0,100,4.336,4.335,0,0,0,0,0,81.86,31.37147246058,-0.328084,41,Motors_Started,
900,2022-12-08 00:26:54,-34.9246315396164,-56.1689015113217,-0.328084,-0.2624672,31.63393966058,31.37147246058,0.328084,0.447388,0.5122867618,1.72152564564,24,5,0,31.69955646058,0,1.3645334,0.54431760272,0,0.447388,0,161, -6.4, 2.5,0,0,1024,1024,1030,1024,0,0,1,0,177.2,-20.4,0,100,4.336,4.335,0,0,0,0,0,81.86,31.37147246058,-0.328084,41,Motors_Started,
1000,2022-12-08 00:26:54,-34.924631476195,-56.1689014582832,-0.328084,-0.328084,31.69955646058,31.37147246058,0.328084,0.447388,0.50943571184,1.74958338932,24,5,0,31.69955646058,0,1.3645334,0.54431760272,0,0.447388,0,161.8, -4.7, 1.9,0,0,1024,1024,1473,1024,0,0,68,0,177.8,-20.4,0,100,4.336,4.335,0,0,0,0,0,81.86,31.37147246058,-0.328084,41,Motors_Started,
1100,2022-12-08 00:26:54,-34.9246314319624,-56.1689013729227,-0.328084,-0.328084,31.69955646058,31.37147246058,0.328084,0.3131716,0.49619096076,1.7797900832,24,5,0,31.69955646058,0,1.3645334,0.54431760272,-0.223694,0.223694,0,162.4, -5.5, 1.1,0,0,1024,1024,1684,1024,0,0,100,0,178.4,-20.4,0,100,4.336,4.335,0,0,0,0,0,81.86,31.37147246058,-0.328084,10,Assisted_Takeoff,
1200,2022-12-08 00:26:54,-34.9246310233976,-56.1689023566138,-0.328084,-0.2624672,31.63393966058,31.37147246058,0.328084,0.223694,0.82482286104,2.10965557932,24,5,8.681,31.69955646058,0,1.3645334,0.82482286104,0,0.223694,0,162.5, -5, 1.4,0,0,1024,1024,1684,1024,0,0,100,0,178.5,-20.4,0,100,4.336,4.335,0,0,0,0,1.029,81.86,31.37147246058,-0.328084,10,Assisted_Takeoff,
1300,2022-12-08 00:26:54,-34.9246309899567,-56.1689022966641,-0.328084,-0.2624672,31.63393966058,31.37147246058,0.328084,0.223694,0.81586944868,2.13134521256,24,5,8.681,31.69955646058,0,1.3645334,0.82482286104,0,0.223694,0,162.6, -3, 0.4,0,0,1024,1024,1684,1024,0,0,100,0,178.5,-20.4,0,100,4.336,4.335,0,0,0,0,1.029,81.86,31.37147246058,-0.328084,10,Assisted_Takeoff,
1400,2022-12-08 00:26:54,-34.9246308536324,-56.1689021818147,-0.328084,-0.2624672,31.63393966058,31.37147246058,0.328084,0.223694,0.81542653528,2.19179468956,24,5,8.681,31.69955646058,0,1.3645334,0.82482286104,0,0.223694,0,162.7, -3.5, -0.4,0,0,1024,1024,1684,1024,0,0,100,0,178.6,-20.4,0,100,4.336,4.335,0,0,0,0,1.029,81.86,31.37147246058,-0.328084,10,Assisted_Takeoff,
1500,2022-12-08 00:26:54,-34.9246307283297,-56.16890201825,-0.328084,-0.2624672,31.63393966058,31.37147246058,0.328084,0.223694,0.8057907082,2.2587599148,24,5,8.681,31.69955646058,0,1.3645334,0.82482286104,0,0.223694,0,162.8, -4, -0.9,0,0,1024,1024,1443,1024,0,0,63,0,178.6,-20.4,0,100,4.336,4.335,0,0,0,0,1.029,81.86,31.37147246058,-0.328084,10,Assisted_Takeoff,
1600,2022-12-08 00:26:54,-34.9246306253062,-56.1689018951271,-0.328084,-0.2624672,31.63393966058,31.37147246058,0.328084,0.223694,0.80438978952,2.3113845884,24,5,8.681,31.69955646058,0,1.3645334,0.82482286104,0,0.223694,0,162.6, -3.9, -1.4,0,0,1024,1024,1260,1024,0,0,36,0,178.3,-20.4,0,100,4.336,4.335,0,0,0,0,1.029,81.86,31.37147246058,-0.328084,10,Assisted_Takeoff,
1700,2022-12-08 00:26:55,-34.9246301078555,-56.1689023138098,-0.328084,-0.2952756,31.66674806058,31.37147246058,0.328084,0.223694,1.02728677828,2.5379429946,24,5,8.681,31.69955646058,0,1.3645334,1.02728677828,0,0.223694,-0.223694,160.6, -3.6, -1.2,0,0,1024,1024,1194,1024,0,0,26,0,176.5,-20.4,0,100,4.336,4.335,0,0,0,0,1.029,81.86,31.37147246058,-0.328084,10,Assisted_Takeoff,
1800,2022-12-08 00:26:55,-34.9246299967919,-56.1689021283654,-0.328084,-0.2952756,31.66674806058,31.37147246058,0.328084,0.4921268,1.02175528204,2.60664050336,24,5,8.681,31.69955646058,0,1.3645334,1.02728677828,-0.223694,0.447388,-0.447388,159.2, -3.6, -1.7,0,0,1024,1024,1194,1024,0,0,26,0,175.2,-20.4,0,100,4.336,4.335,0,0,0,0,1.029,81.86,31.37147246058,-0.328084,10,Assisted_Takeoff,"Error de calibración del estabilizador. Reinicia la aeronave o contacta con la Asistencia DJI (Code: 40011)"
1900,2022-12-08 00:26:55,-34.9246299220618,-56.1689018631213,-0.328084,-0.2952756,31.66674806058,31.37147246058,0.656168,0.4921268,0.99635173792,2.69054142468,24,5,8.681,31.69955646058,0,1.3645334,1.02728677828,-0.223694,0.447388,-0.894776,159.2, 0.2, 0.2,0,0,1024,1024,1024,1024,0,0,0,0,175.1,-20.4,0,100,4.336,4.335,0,0,0,0,1.029,81.86,31.37147246058,-0.328084,6,P-GPS,
2000,2022-12-08 00:26:55,-34.9246298905844,-56.1689016517444,0,0.032808399999999,31.66674806058,31.69955646058,0.656168,0.4921268,0.97197509672,2.7548065186,24,5,8.681,31.69955646058,0,1.3645334,1.02728677828,-0.223694,0.447388,-1.342164,159.1, 2.3, 2.1,0,0,1024,1024,1024,1024,0,0,0,0,175.1,-20.4,0,100,4.336,4.335,0,0,0,0,1.029,81.86,31.69955646058,0,6,P-GPS,
2100,2022-12-08 00:26:55,-34.9246296154893,-56.1689018560122,0,0.032808399999999,31.66674806058,31.69955646058,0.984252,0.223694,1.08947838132,2.87231308404,24,5,8.681,31.69955646058,0,1.3645334,1.08947838132,0,0.223694,-1.565858,159, 2.6, 2.1,0,0,1024,1024,1024,1024,0,0,0,0,175.1,-20.4,0,100,4.336,4.335,0,0,0,0,1.029,81.86,31.69955646058,0,6,P-GPS,"Error de calibración del estabilizador. Reinicia la aeronave o contacta con la Asistencia DJI (Code: 40011)"
2200,2022-12-08 00:26:55,-34.9246295519422,-56.168901812725,0,0.032808399999999,31.66674806058,31.69955646058,1.312336,0.223694,1.10296591456,2.898868203,24,5,8.681,31.69955646058,0,1.3645334,1.10296591456,0,0.223694,-1.565858,158.8, 2.3, 3.4,0,0,1024,1024,1024,1024,0,0,0,0,175.1,-20.4,0,100,4.336,4.335,0,0,0,0,1.029,81.86,31.69955646058,0,6,P-GPS,"Error de calibración del estabilizador. Reinicia la aeronave o contacta con la Asistencia DJI (Code: 40011)"
2300,2022-12-08 00:26:55,-34.9246294698747,-56.1689018295795,0.328084,0.328084,31.69955646058,32.02764046058,1.64042,0,1.13151906508,2.9292323772,24,5,8.632,32.02764046058,0.328084,1.3645334,1.13151906508,0,0,-1.342164,158.6, 2.4, 2.4,0,0,1024,1024,1024,1024,0,0,0,0,175.1,-20.4,0,100,4.251,4.241,0,0,0,0,2.013,81.86,32.02764046058,0.328084,6,P-GPS,
2400,2022-12-08 00:26:55,-34.9246293361921,-56.1689018507238,0.328084,0.328084,31.69955646058,32.02764046058,1.968504,0,1.17733271484,2.97841544964,24,5,8.632,32.02764046058,0.328084,1.3645334,1.17733271484,0,0,-0.894776,158.5, 2.1, 1.4,0,0,1024,1024,1024,1024,0,0,0,0,175.1,-20.4,0,100,4.251,4.241,0,0,0,0,2.013,81.86,32.02764046058,0.328084,6,P-GPS,
2500,2022-12-08 00:26:55,-34.9246290823018,-56.1689022652956,0.328084,0.328084,31.69955646058,32.02764046058,2.296588,0,1.31928481912,3.13320548084,25,5,8.632,32.02764046058,0.328084,1.3645334,1.31928481912,0,0,-0.671082,158.5, 2, 1.1,0,0,1024,1024,1024,1024,0,0,0,0,175.1,-20.4,0,100,4.251,4.241,0,0,0,0,2.013,81.86,32.02764046058,0.328084,6,P-GPS,
2600,2022-12-08 00:26:55,-34.9246289720805,-56.1689023952591,0.328084,0.328084,31.69955646058,32.02764046058,2.296588,0,1.37386159252,3.189140522,25,5,8.632,32.02764046058,0.328084,1.3645334,1.37386159252,0,0,-0.223694,158.6, 1.6, 1.4,0,0,1024,1024,1024,1024,0,0,0,0,175.1,-20.4,0,100,4.251,4.241,0,0,0,0,2.013,81.86,32.02764046058,0.328084,6,P-GPS,
2700,2022-12-08 00:26:56,-34.9246288480391,-56.1689025522255,0.328084,0.3608924,31.66674806058,32.02764046058,2.296588,0,1.43711618772,3.25435705952,22,5,8.632,32.02764046058,0.328084,1.3645334,1.43711618772,0,0,0,158.6, 0.9, 1.1,0,0,1024,1024,1024,1024,0,0,0,0,175.1,-20.4,0,100,4.251,4.241,0,0,0,0,2.013,81.86,32.02764046058,0.328084,6,P-GPS,
2800,2022-12-08 00:26:56,-34.9246287396271,-56.1689028055254,0.328084,0.3608924,31.66674806058,32.02764046058,2.296588,0,1.51164046832,3.3398295032,22,5,8.632,32.02764046058,0.328084,1.3645334,1.51164046832,0,0,0,158.4, -0.2, 0.6,0,0,1024,1024,1024,1024,0,0,0,0,175.1,-20.4,0,100,4.251,4.241,0,0,0,0,2.013,81.86,32.02764046058,0.328084,6,P-GPS,
2900,2022-12-08 00:26:56,-34.9246286928052,-56.1689035319911,0.328084,0.4265092,31.60113126058,32.02764046058,2.296588,0.223694,1.6559055648,3.5578085128,22,5,8.632,32.02764046058,0.328084,1.3645334,1.6559055648,0,-0.223694,0,158.4, -0.7, 0,0,0,1024,1024,1024,1024,0,0,0,0,175.1,-20.4,0,100,4.251,4.241,0,0,0,0,2.013,81.86,32.02764046058,0.328084,6,P-GPS,
3000,2022-12-08 00:26:56,-34.924628535246,-56.1689037341222,0.328084,0.4265092,31.60113126058,32.02764046058,2.296588,0.223694,1.73880582992,3.641240274,22,5,8.632,32.02764046058,0.328084,1.3645334,1.73880582992,0,-0.223694,0,158.3, -2, -0.8,0,0,1024,1024,1024,1024,0,0,0,0,175.1,-20.4,0,100,4.251,4.241,0,0,0,0,2.013,81.86,32.02764046058,0.328084,6,P-GPS,
3100,2022-12-08 00:26:56,-34.9246283881909,-56.1689039147314,0.328084,0.3937008,31.63393966058,32.02764046058,2.296588,0.223694,1.8146654124,3.7173885704,23,5,8.632,32.02764046058,0.328084,1.3645334,1.8146654124,0,0,0,158.4, -1.8, -0.5,0,0,1024,1024,1024,1024,0,0,0,0,175.1,-20.4,0,100,4.251,4.241,0,0,0,0,2.013,81.86,32.02764046058,0.328084,6,P-GPS,
3200,2022-12-08 00:26:56,-34.9246283241019,-56.1689040742629,0,0.065616799999999,31.63393966058,31.69955646058,1.968504,0,1.86351055832,3.7705381784,23,5,8.632,32.02764046058,0.328084,1.3645334,1.86351055832,0,0,0,158.7, -1.7, -0.6,0,0,1223,1024,1024,1024,30,0,0,0,175.1,-20.4,0,100,4.251,4.241,0,0,0,0,2.013,81.86,31.69955646058,0,6,P-GPS,
3300,2022-12-08 00:26:56,-34.9246282810019,-56.1689042230832,0,0.065616799999999,31.63393966058,31.69955646058,1.968504,0,1.90473431292,3.817749466,22,5,8.562,32.02764046058,0.328084,1.3645334,1.90473431292,0,0,0,158.7, -3.8, -0.5,0,0,1395,1024,1024,1024,56,0,0,0,175.1,-20.4,0,100,4.273,4.267,0,0,0,0,3.951,81.86,31.69955646058,0,6,P-GPS,
3400,2022-12-08 00:26:56,-34.9246284672006,-56.1689045944657,0,0.098425199999998,31.60113126058,31.69955646058,1.968504,0,1.93220806708,3.9479660056,22,5,8.562,32.02764046058,0.328084,1.3645334,1.93220806708,0,0,0,158.7, -5.2, -0.9,0,0,1431,1024,1024,1024,62,0,0,0,175.1,-20.4,0,100,4.273,4.267,0,0,0,0,3.951,81.86,31.69955646058,0,6,P-GPS,
3500,2022-12-08 00:26:56,-34.9246286267425,-56.1689047332969,0,0.1312336,31.56832286058,31.69955646058,1.968504,0.223694,1.92234914288,4.0194883176,22,5,8.562,32.02764046058,0.328084,1.3645334,1.93220806708,-0.223694,0,0,158.7, -9, -1.2,0,0,1254,1024,1024,1024,35,0,0,0,175.1,-20.4,0,100,4.273,4.267,0,0,0,0,3.951,81.86,31.69955646058,0,6,P-GPS,
3600,2022-12-08 00:26:56,-34.9246288439989,-56.1689047750188,0,0.1312336,31.56832286058,31.69955646058,1.968504,0.671082,1.87934061132,4.0997048556,22,5,8.562,32.02764046058,0.328084,1.3645334,1.93220806708,-0.671082,0,0,158.7, -10.2, -0.4,0,0,1146,1024,1024,1024,18,0,0,0,175.1,-20.4,0,100,4.273,4.267,0,0,0,0,3.951,81.86,31.69955646058,0,6,P-GPS,
3700,2022-12-08 00:26:56,-34.9246291934341,-56.168904748607,0,0.1312336,31.56832286058,31.69955646058,1.968504,0.894776,1.79316606788,4.2274607652,24,5,8.562,32.02764046058,0.328084,1.3645334,1.93220806708,-0.894776,0,0,158.6, -6.2, -0.3,0,0,1160,1024,1281,1024,21,0,39,0,175.1,-20.4,0,100,4.273,4.267,0,0,0,0,3.951,81.86,31.69955646058,0,6,P-GPS,
3800,2022-12-08 00:26:57,-34.9246298277257,-56.1689047827574,0,0.164042,31.53551446058,31.69955646058,1.968504,1.1408394,1.67159782252,4.4590880692,24,5,8.562,32.02764046058,0.328084,1.3645334,1.93220806708,-1.11847,0.223694,0,158.3, -2.3, -1.2,0,0,1160,1024,1281,1024,21,0,39,0,175.1,-20.4,0,100,4.273,4.267,0,0,0,0,3.951,81.86,31.69955646058,0,6,P-GPS,
3900,2022-12-08 00:26:57,-34.9246303840469,-56.1689047102875,0,0.164042,31.53551446058,31.69955646058,1.968504,1.1408394,1.55743443304,4.663221934,24,5,8.562,32.02764046058,0.328084,1.3645334,1.93220806708,-1.11847,0.223694,0,158, -1.5, -1.8,0,0,1200,1024,1676,1024,27,0,99,0,175.1,-20.4,0,100,4.273,4.267,0,0,0,0,3.951,81.86,31.69955646058,0,6,P-GPS,
4000,2022-12-08 00:26:57,-34.9246308183928,-56.1689046208175,0,0.1968504,31.50270606058,31.69955646058,1.968504,1.1408394,1.47253285552,4.8239502856,24,5,8.562,32.02764046058,0.328084,1.3645334,1.93220806708,-1.11847,0.223694,-0.671082,157.9, -2.3, -2,0,0,1236,1024,1684,1024,32,0,100,0,175.1,-20.4,0,100,4.273,4.267,0,0,0,0,3.951,81.86,31.69955646058,0,6,P-GPS,
4100,2022-12-08 00:26:57,-34.9246312729119,-56.1689044735985,0.328084,0.4593176,31.56832286058,32.02764046058,1.968504,1.1408394,1.3824475508,4.9955054092,24,5,8.562,32.02764046058,0.328084,1.3645334,1.93220806708,-1.11847,0.223694,-1.342164,158.1, -3.7, -1.2,0,0,1204,1024,1684,1024,27,0,100,0,175.1,-20.4,0,100,4.273,4.267,0,0,0,0,3.951,81.86,32.02764046058,0.328084,6,P-GPS,
4200,2022-12-08 00:26:57,-34.9246317152103,-56.1689043119524,0.656168,0.82021,31.53551446058,32.35572446058,2.296588,1.1408394,1.30504597352,5.1639765432,24,5,8.562,32.35572446058,0.656168,1.3645334,1.93220806708,-1.11847,0.223694,-2.23694,158.5, -4.5, -0.5,0,0,1154,1024,1684,1024,20,0,100,0,175.1,-20.4,0,100,4.273,4.267,0,0,0,0,3.951,81.86,32.35572446058,0.656168,6,P-GPS,
4300,2022-12-08 00:26:57,-34.9246322983313,-56.1689040453356,0.984252,1.148294,31.53551446058,32.68380846058,2.624672,1.2079476,1.21512142996,5.3912075216,24,5,8.512,32.68380846058,0.984252,1.3645334,1.93220806708,-1.11847,0.447388,-2.908022,158.5, -3.7, 0.2,0,0,1204,1024,1684,1024,27,0,100,0,175.1,-20.4,0,100,4.261,4.259,0,0,0,0,4.252,81.86,32.68380846058,0.984252,6,P-GPS,
4400,2022-12-08 00:26:57,-34.9246328359167,-56.1689038430425,1.312336,1.5091864,31.50270606058,33.01189246058,3.28084,1.4092722,1.17852365976,5.596456872,24,5,8.512,33.01189246058,1.312336,1.4092722,1.93220806708,-1.342164,0.447388,-3.802798,158.3, -2.8, -0.8,0,0,1566,1024,1684,1024,82,0,100,0,175.1,-20.4,0,100,4.261,4.259,0,0,0,0,4.252,81.86,33.01189246058,1.312336,6,P-GPS,
4500,2022-12-08 00:26:57,-34.9246334247838,-56.168903607435,1.968504,2.1653544,31.50270606058,33.66806046058,3.937008,1.4092722,1.17497379088,5.8225723648,25,5,8.512,33.66806046058,1.968504,1.4092722,1.93220806708,-1.342164,0.447388,-4.47388,158.4, -5.3, -0.8,0,0,1684,1024,1614,1024,100,0,89,0,175.1,-20.4,0,100,4.261,4.259,0,0,0,0,4.252,81.86,33.66806046058,1.968504,6,P-GPS,
4600,2022-12-08 00:26:57,-34.9246339206753,-56.1689031867383,2.624672,2.788714,31.53551446058,34.32422846058,4.593176,1.7000744,1.14938323888,6.0429463876,25,5,8.512,34.32422846058,2.624672,1.7000744,1.93220806708,-1.565858,0.671082,-5.144962,158.5, -12.7, 0.8,0,0,1684,1024,1565,1024,100,0,82,0,175.1,-20.4,0,100,4.261,4.259,0,0,0,0,4.252,81.86,34.32422846058,2.624672,6,P-GPS,
4700,2022-12-08 00:26:57,-34.9246347748904,-56.1689027005142,3.608924,3.8057744,31.50270606058,35.30848046058,5.249344,2.4158952,1.247867494,6.3868768448,26,5,8.512,35.30848046058,3.608924,2.4158952,1.93220806708,-2.23694,0.894776,-5.59235,158.3, -18.5, 0.7,0,0,1684,1024,1565,1024,100,0,82,0,175.1,-20.4,0,100,4.261,4.259,0,0,0,0,4.252,81.86,35.30848046058,3.608924,6,P-GPS,
4800,2022-12-08 00:26:58,-34.9246358150127,-56.1689021539609,4.265092,4.429134,31.53551446058,35.96464846058,6.233596,3.0422384,1.47699807876,6.8000986428,26,5,8.512,35.96464846058,4.265092,3.0422384,1.93220806708,-2.908022,0.894776,-5.368656,158.5, -21.2, -0.5,0,0,1684,1024,1684,1024,100,0,100,0,175.1,-20.4,0,100,4.261,4.259,0,0,0,0,4.252,81.86,35.96464846058,4.265092,6,P-GPS,
4900,2022-12-08 00:26:58,-34.9246371880853,-56.1689014708576,5.249344,5.413386,31.53551446058,36.94890046058,6.889764,3.8251674,1.88115819668,7.3411419672,26,5,8.512,36.94890046058,5.249344,3.8251674,1.93220806708,-3.579104,1.342164,-5.368656,158.2, -20.4, -1.4,0,0,1684,1024,1684,1024,100,0,100,0,175.1,-20.4,0,100,4.261,4.259,0,0,0,0,4.252,81.86,36.94890046058,5.249344,6,P-GPS,
5000,2022-12-08 00:26:58,-34.9246388862377,-56.1689006701379,6.233596,6.4304464,31.50270606058,37.93315246058,7.874016,4.7423128,2.45607619408,8.0053808336,26,5,8.512,37.93315246058,6.233596,4.7423128,2.45607619408,-4.47388,1.565858,-5.816044,158.3, -18.3, -1,0,0,1684,1024,1684,1024,100,0,100,0,175.1,-20.4,0,100,4.261,4.259,0,0,0,0,4.252,81.86,37.93315246058,6.233596,6,P-GPS,
5100,2022-12-08 00:26:58,-34.9246409108206,-56.1688995730726,6.889764,7.0866144,31.50270606058,38.58932046058,8.530184,5.5252418,3.18859262172,8.8136813844,26,5,8.512,38.58932046058,6.889764,5.5252418,3.18859262172,-5.144962,2.013246,-6.039738,158.6, -17.6, -1,0,0,1684,1024,1684,1010,100,0,100,-2,175.1,-20.4,0,100,4.261,4.259,0,0,0,0,4.252,81.86,38.58932046058,6.889764,6,P-GPS,
5200,2022-12-08 00:26:58,-34.9246431067941,-56.1688983397466,7.874016,8.038058,31.53551446058,39.57357246058,9.514436,6.0173686,4.0176838556,9.6957352184,26,5,8.512,39.57357246058,7.874016,6.0173686,4.0176838556,-5.59235,2.23694,-6.263432,158.7, -17.1, -1.1,0,0,1684,1024,1684,1008,100,0,100,-2,175.1,-20.4,0,100,4.261,4.259,0,0,0,0,4.252,81.86,39.57357246058,7.874016,6,P-GPS,
5300,2022-12-08 00:26:58,-34.9246456491599,-56.1688969279823,9.186352,9.3832024,31.50270606058,40.88590846058,10.498688,6.7331894,4.9993768004,10.7149281644,25,5,8.398,40.88590846058,9.186352,6.7331894,4.9993768004,-6.263432,2.460634,-6.487126,158.4, -17.2, -1.1,0,0,1684,1024,1684,1010,100,0,100,-2,175.1,-20.4,0,100,4.201,4.161,0,0,0,0,5.85,81.86,40.88590846058,9.186352,6,P-GPS,
5400,2022-12-08 00:26:58,-34.9246483139603,-56.1688955804603,10.170604,10.3674544,31.50270606058,41.87016046058,11.48294,7.2253162,6.0329398256,11.7674544448,25,5,8.398,41.87016046058,10.170604,7.2253162,6.0329398256,-6.71082,2.684328,-6.487126,158.4, -17.1, -0.4,0,0,1684,1024,1684,1010,100,0,100,-2,175.1,-20.4,0,100,4.201,4.161,0,0,0,0,5.85,81.86,41.87016046058,10.170604,6,P-GPS,
5500,2022-12-08 00:26:58,-34.9246513557447,-56.1688938063033,11.154856,11.3517064,31.50270606058,42.85441246058,12.467192,7.6503348,7.2371065308,12.9976054028,26,5,8.398,42.85441246058,11.154856,7.6503348,7.2371065308,-7.158208,2.684328,-6.71082,158.2, -16.6, -0.7,0,0,1371,1024,1684,1002,53,0,100,-3,175.1,-20.4,0,100,4.201,4.161,0,0,0,0,5.85,81.86,42.85441246058,11.154856,6,P-GPS,
5600,2022-12-08 00:26:58,-34.9246544007819,-56.1688924258963,12.139108,12.30315,31.53551446058,43.83866446058,13.451444,8.0753534,8.417487146,14.1828416612,26,5,8.398,43.83866446058,12.139108,8.0753534,8.417487146,-7.605596,2.684328,-6.71082,158.4, -16.5, -2.1,0,0,1371,1024,1684,1002,53,0,100,-3,175.1,-20.4,0,100,4.201,4.161,0,0,0,0,5.85,81.86,43.83866446058,12.139108,6,P-GPS,
5700,2022-12-08 00:26:59,-34.9246577833532,-56.168890913152,13.12336,13.3530188,31.46989766058,44.82291646058,14.435696,8.5674802,9.7283795764,15.4973430156,26,5,8.398,44.82291646058,13.12336,8.5674802,9.7283795764,-8.052984,2.908022,-6.487126,158.5, -11.6, -3.1,0,0,1024,1024,1684,939,0,0,100,-13,175.1,-20.4,0,100,4.201,4.161,0,0,0,0,5.85,81.86,44.82291646058,13.12336,6,P-GPS,
5800,2022-12-08 00:26:59,-34.9246611252004,-56.1688893410032,14.107612,14.3044624,31.50270606058,45.80716846058,15.748032,8.5674802,11.0310370984,16.8041672044,26,5,8.398,45.80716846058,14.107612,8.5674802,11.0310370984,-8.052984,2.908022,-6.487126,157.8, 11, -2.1,0,0,1024,1024,1684,933,0,0,100,-14,174.9,-20.4,0,100,4.201,4.161,0,0,0,0,5.85,81.86,45.80716846058,14.107612,6,P-GPS,
5900,2022-12-08 00:26:59,-34.924664413843,-56.1688877615535,15.091864,15.3543312,31.43708926058,46.79142046058,16.732284,7.8516594,12.3166342524,18.0937013664,26,5,8.398,46.79142046058,15.091864,8.5674802,12.3166342524,-7.381902,2.684328,-6.71082,157.6, 19, -1.2,0,0,1024,1024,1684,912,0,0,100,-17,174.6,-20.4,0,100,4.201,4.161,0,0,0,0,5.85,81.86,46.79142046058,15.091864,6,P-GPS,
6000,2022-12-08 00:26:59,-34.9246672994556,-56.1688863794829,16.076116,16.3385832,31.43708926058,47.77567246058,18.04462,6.8674058,13.4449807452,19.2247709564,26,5,8.398,47.77567246058,16.076116,8.5674802,13.4449807452,-6.487126,2.23694,-6.71082,157.2, 19.9, -1.6,0,0,1024,1024,1684,900,0,0,100,-19,174.2,-20.4,0,100,4.201,4.161,0,0,0,0,5.85,81.86,47.77567246058,16.076116,6,P-GPS,
6100,2022-12-08 00:26:59,-34.9246699692569,-56.1688851541018,16.732284,17.060368,31.37147246058,48.43184046058,19.356956,5.6594582,14.484416474,20.2655518296,26,5,8.398,48.43184046058,16.732284,8.5674802,14.484416474,-5.368656,1.789552,-6.71082,156.9, 20, -2.2,0,0,1024,1024,1684,911,0,0,100,-17,173.8,-20.4,0,100,4.201,4.161,0,0,0,0,5.85,81.86,48.43184046058,16.732284,6,P-GPS,
6200,2022-12-08 00:26:59,-34.9246719781217,-56.1688842631206,17.716536,18.0774284,31.33866406058,49.41609246058,20.341208,4.6752046,15.2638128244,21.045440306,26,5,8.398,49.41609246058,17.716536,8.5674802,15.2638128244,-4.47388,1.342164,-6.71082,156.4, 19.7, -2.7,0,0,1024,1024,1684,912,0,0,100,-17,173.3,-20.4,0,100,4.201,4.161,0,0,0,0,5.85,81.86,49.41609246058,17.716536,6,P-GPS,
6300,2022-12-08 00:26:59,-34.9246735085367,-56.1688832686125,18.700788,19.0616804,31.33866406058,50.40034446058,21.653544,3.690951,15.8870739992,21.6781174916,27,5,8.417,50.40034446058,18.700788,8.5674802,15.8870739992,-3.579104,0.894776,-6.71082,155.7, 19.4, -3.6,0,0,1024,1024,1684,912,0,0,100,-17,172.8,-20.4,0,100,4.216,4.2,0,0,0,0,6.36,81.86,50.40034446058,18.700788,6,P-GPS,
6400,2022-12-08 00:26:59,-34.9246747562472,-56.1688826752763,19.68504,20.0787408,31.30585566058,51.38459646058,22.637796,2.7290668,16.3750333324,22.1667001844,27,5,8.417,51.38459646058,19.68504,8.5674802,16.3750333324,-2.684328,0.447388,-6.71082,154.8, 19, -5.9,0,0,1024,1024,1684,913,0,0,100,-17,172.3,-20.4,0,100,4.216,4.2,0,0,0,0,6.36,81.86,51.38459646058,19.68504,6,P-GPS,
6500,2022-12-08 00:26:59,-34.9246757279951,-56.168882183163,20.669292,21.0629928,31.30585566058,52.36884846058,23.622048,2.125093,16.7579729772,22.5505912728,27,5,8.417,52.36884846058,20.669292,8.5674802,16.7579729772,-2.013246,0.671082,-6.71082,153.9, 14.1, -5.8,0,0,1024,1024,1684,913,0,0,100,-17,171.9,-20.4,0,100,4.216,4.2,0,0,0,0,6.36,81.86,52.36884846058,20.669292,6,P-GPS,
6600,2022-12-08 00:26:59,-34.9246761612719,-56.1688818351217,21.653544,22.0472448,31.30585566058,53.35310046058,24.934384,1.4092722,16.9410110408,22.7398957408,27,5,8.417,53.35310046058,21.653544,8.5674802,16.9410110408,-1.342164,0.447388,-6.71082,153.9, 10.1, -4.5,0,0,1024,1024,1684,912,0,0,100,-17,171.4,-20.4,0,100,4.216,4.2,0,0,0,0,6.36,81.86,53.35310046058,21.653544,6,P-GPS,
6700,2022-12-08 00:26:59,-34.9246764237185,-56.1688815495397,22.637796,23.0314968,31.30585566058,54.33735246058,25.918636,1.4092722,17.0591540892,22.8682093932,27,5,8.417,54.33735246058,22.637796,8.5674802,17.0591540892,-1.342164,0.223694,-6.487126,154.6, 8.5, -4.4,0,0,1024,1024,1684,913,0,0,100,-17,170.9,-20.4,0,100,4.216,4.2,0,0,0,0,6.36,81.86,54.33735246058,22.637796,6,P-GPS,
6800,2022-12-08 00:27:00,-34.9246760833216,-56.1688810891077,23.622048,24.0157488,31.30585566058,55.32160446058,26.902888,1.3645334,16.9870084176,23.0536752784,27,5,8.417,55.32160446058,23.622048,8.5674802,17.0591540892,-1.342164,0.223694,-6.487126,154.4, 7.9, -4.1,0,0,1024,1024,1684,913,0,0,100,-17,170.5,-20.4,0,100,4.216,4.2,0,0,0,0,6.36,81.86,55.32160446058,23.622048,6,P-GPS,
6900,2022-12-08 00:27:00,-34.9246763825156,-56.1688810420452,24.6063,25.0000008,31.30585566058,56.30585646058,27.559056,1.3645334,17.094652778,23.1637474604,27,5,8.417,56.30585646058,24.6063,8.5674802,17.094652778,-1.11847,0.223694,-6.487126,153.4, 5.7, -4.2,0,0,1024,1024,1684,912,0,0,100,-17,170,-20.4,0,100,4.216,4.2,0,0,0,0,6.36,81.86,56.30585646058,24.6063,6,P-GPS,
7000,2022-12-08 00:27:00,-34.9246765066486,-56.1688809672256,25.590552,25.9842528,31.30585566058,57.29010846058,28.543308,0.9171454,17.1448168216,23.2142723964,27,5,8.417,57.29010846058,25.590552,8.5674802,17.1448168216,-0.894776,0.223694,-6.487126,152.9, 5.3, -2.9,0,0,1024,1024,1684,912,0,0,100,-17,169.6,-20.4,0,100,4.216,4.2,0,0,0,0,6.36,81.86,57.29010846058,25.590552,6,P-GPS,
7100,2022-12-08 00:27:00,-34.924676557785,-56.1688809086329,26.574804,26.9685048,31.30585566058,58.27436046058,29.52756,0.7158208,17.1682420192,23.2398629484,27,5,8.417,58.27436046058,26.574804,8.5674802,17.1682420192,-0.671082,0.223694,-6.487126,152.4, 4.5, -2.1,0,0,1024,1024,1684,912,0,0,100,-17,169.1,-20.4,0,100,4.216,4.2,0,0,0,0,6.36,81.86,58.27436046058,26.574804,6,P-GPS,
7200,2022-12-08 00:27:00,-34.9246763338512,-56.1688805078411,27.559056,27.9527568,31.30585566058,59.25861246058,30.183728,0.4921268,17.1315950364,23.3849416932,27,5,8.417,59.25861246058,27.559056,8.5674802,17.1682420192,-0.447388,0.223694,-6.71082,152, 3.9, -2.4,0,0,1024,1024,1684,912,0,0,100,-17,168.7,-20.4,0,100,4.216,4.2,0,0,0,0,6.36,81.86,59.25861246058,27.559056,6,P-GPS,
7300,2022-12-08 00:27:00,-34.9246763647558,-56.1688804304799,28.543308,28.9042004,31.33866406058,60.24286446058,31.16798,0.3131716,17.1500661656,23.4106962872,27,5,8.417,60.24286446058,28.543308,8.5674802,17.1682420192,-0.223694,0.223694,-6.71082,151.6, 3.7, -2.3,0,0,1024,1024,1684,911,0,0,100,-17,168.2,-20.4,0,100,4.216,4.2,0,0,0,0,6.36,81.86,60.24286446058,28.543308,6,P-GPS,
7400,2022-12-08 00:27:00,-34.9246763914069,-56.1688803088486,29.52756,29.8884524,31.33866406058,61.22711646058,32.152232,0.223694,17.1716540928,23.4483603304,27,5,8.44,61.22711646058,29.52756,8.5674802,17.1716540928,-0.223694,0,-6.71082,151.2, 3.5, -1.6,0,0,1024,1024,1684,911,0,0,100,-17,167.7,-20.4,0,99,4.218,4.212,0,0,0,0,5.624,82.04,61.22711646058,29.52756,6,P-GPS,
7500,2022-12-08 00:27:00,-34.9246763971716,-56.1688802102607,30.511812,30.8727044,31.33866406058,62.21136846058,32.8084,0.223694,17.1837603924,23.4779206988,27,5,8.44,62.21136846058,30.511812,8.5674802,17.1837603924,-0.223694,0,-6.71082,150.8, 2.8, -2.5,0,0,1152,1024,1684,904,19,0,100,-18,167.3,-20.4,0,99,4.218,4.212,0,0,0,0,5.624,82.04,62.21136846058,30.511812,6,P-GPS,
7600,2022-12-08 00:27:00,-34.9246763027186,-56.1688797954636,31.496064,31.8569564,31.33866406058,63.19562046058,33.792652,0,17.1946199728,23.6066936688,27,5,8.44,63.19562046058,31.496064,8.5674802,17.1946199728,0,0,-6.71082,150.3, 2.8, -2.9,0,0,1684,1024,1684,900,100,0,100,-19,166.8,-20.4,0,99,4.218,4.212,0,0,0,0,5.624,82.04,63.19562046058,31.496064,6,P-GPS,
7700,2022-12-08 00:27:00,-34.9246762324805,-56.1688797499867,32.152232,32.5131244,31.33866406058,63.85178846058,34.776904,0,17.1753942504,23.6356962944,27,5,8.44,63.85178846058,32.152232,8.5674802,17.1946199728,0,0,-6.487126,150.2, -6.9, -3,0,0,1684,1006,1684,900,100,-3,100,-19,166.3,-20.4,0,99,4.218,4.212,0,0,0,0,5.624,82.04,63.85178846058,32.152232,6,P-GPS,
7800,2022-12-08 00:27:01,-34.9246763385802,-56.1688796074723,33.136484,33.4973764,31.33866406058,64.83604046058,35.761156,0.4921268,17.2266737796,23.6932750364,27,5,8.44,64.83604046058,33.136484,8.5674802,17.2266737796,-0.447388,0.223694,-6.487126,150.3, -17.9, -2.1,0,0,1684,971,1684,900,100,-8,100,-19,165.8,-20.4,0,99,4.218,4.212,0,0,0,0,5.624,82.04,64.83604046058,33.136484,6,P-GPS,
7900,2022-12-08 00:27:01,-34.9246767003423,-56.16887929937,34.120736,34.4816284,31.33866406058,65.82029246058,36.745408,1.4987498,17.3827761468,23.8542658552,27,5,8.44,65.82029246058,34.120736,8.5674802,17.3827761468,-1.342164,0.671082,-6.487126,149.5, -20.2, -2.3,0,0,1684,1024,1684,900,100,0,100,-19,165.3,-20.4,0,99,4.218,4.212,0,0,0,0,5.624,82.04,65.82029246058,34.120736,6,P-GPS,
8000,2022-12-08 00:27:01,-34.9246775336692,-56.168878473446,35.104988,35.4658804,31.33866406058,66.80454446058,37.72966,2.3040482,17.7552827204,24.2460309596,27,5,8.44,66.80454446058,35.104988,8.5674802,17.7552827204,-2.013246,1.11847,-6.487126,148.9, -18.6, -3.1,0,0,1684,1024,1684,900,100,0,100,-19,164.7,-20.4,0,99,4.218,4.212,0,0,0,0,5.624,82.04,66.80454446058,35.104988,6,P-GPS,
8100,2022-12-08 00:27:01,-34.9246785013525,-56.1688777214024,36.08924,36.4829408,31.30585566058,67.78879646058,38.713912,3.1093466,18.1660766968,24.664698952,27,5,8.44,67.78879646058,36.08924,8.5674802,18.1660766968,-2.684328,1.565858,-6.487126,148.4, -18.1, -2.5,0,0,1684,1003,1684,900,100,-3,100,-19,164.2,-20.4,0,99,4.218,4.212,0,0,0,0,5.624,82.04,67.78879646058,36.08924,6,P-GPS,
8200,2022-12-08 00:27:01,-34.9246797595925,-56.1688767818325,37.073492,37.4671928,31.30585566058,68.77304846058,39.698164,3.914645,18.6964572912,25.2029535624,27,5,8.44,68.77304846058,37.073492,8.5674802,18.6964572912,-3.35541,2.013246,-6.487126,147.7, -16.8, -2.4,0,0,1684,1024,1684,900,100,0,100,-19,163.7,-20.4,0,99,4.218,4.212,0,0,0,0,5.624,82.04,68.77304846058,37.073492,6,P-GPS,
8300,2022-12-08 00:27:01,-34.9246813333436,-56.1688756265325,38.057744,38.4514448,31.30585566058,69.75730046058,40.682416,4.7199434,19.3582027192,25.8731307492,26,5,8.44,69.75730046058,38.057744,8.5674802,19.3582027192,-4.026492,2.460634,-6.487126,147.2, -16.6, -2.9,0,0,1684,1024,1684,900,100,0,100,-19,163.2,-20.4,0,99,4.218,4.212,0,0,0,0,5.624,82.04,69.75730046058,38.057744,6,P-GPS,
8400,2022-12-08 00:27:01,-34.9246831276837,-56.1688742367886,39.041996,39.4356968,31.30585566058,70.74155246058,41.666668,5.2120702,20.1216869956,26.6486229,26,5,8.439,70.74155246058,39.041996,8.5674802,20.1216869956,-4.47388,2.684328,-6.487126,146.7, -16.3, -3.3,0,0,1684,1024,1684,900,100,0,100,-19,162.7,-20.4,0,99,4.204,4.197,0,0,0,0,5.285,82.04,70.74155246058,39.041996,6,P-GPS,
8500,2022-12-08 00:27:01,-34.9246854340066,-56.1688719922182,39.698164,40.0918648,31.30585566058,71.39772046058,42.65092,5.8384134,21.1581699684,27.7251649292,26,5,8.439,71.39772046058,39.698164,8.5674802,21.1581699684,-4.921268,3.131716,-6.71082,146.4, -16.1, -2.6,0,0,1684,1024,1684,900,100,0,100,-19,162.1,-20.4,0,99,4.204,4.197,0,0,0,0,5.285,82.04,71.39772046058,39.698164,6,P-GPS,
8600,2022-12-08 00:27:01,-34.9246877060931,-56.1688702159999,40.682416,41.1089252,31.27304726058,72.38197246058,42.979004,6.3305402,22.1303156688,28.7097778216,26,5,8.439,72.38197246058,40.682416,8.5674802,22.1303156688,-5.368656,3.35541,-6.71082,146.1, -16.7, -3.1,0,0,1684,1024,1684,900,100,0,100,-19,161.6,-20.4,0,99,4.204,4.197,0,0,0,0,5.285,82.04,72.38197246058,40.682416,6,P-GPS,
8700,2022-12-08 00:27:01,-34.924690299895,-56.1688682012144,41.666668,42.0931772,31.27304726058,73.36622446058,42.979004,6.9568834,23.23983014,29.8317594848,26,5,8.439,73.36622446058,41.666668,8.5674802,23.23983014,-5.816044,3.802798,-6.487126,145.5, -17.9, -2.3,0,0,1684,1024,1684,900,100,0,100,-19,161.1,-20.4,0,99,4.204,4.197,0,0,0,0,5.285,82.04,73.36622446058,41.666668,6,P-GPS,
8800,2022-12-08 00:27:02,-34.9246929006047,-56.1688661568642,42.65092,43.0774292,31.27304726058,74.35047646058,42.979004,7.4490102,24.356464034,30.960630912,26,5,8.439,74.35047646058,42.65092,8.5674802,24.356464034,-6.263432,4.026492,-6.487126,144.9, -17.4, -2.4,0,0,1684,1024,1684,900,100,0,100,-19,160.6,-20.4,0,99,4.204,4.197,0,0,0,0,5.285,82.04,74.35047646058,42.65092,6,P-GPS,
8900,2022-12-08 00:27:02,-34.9246961689179,-56.1688634658827,43.635172,44.0616812,31.27304726058,75.33472846058,42.979004,7.941137,25.7766412448,32.3993448688,25,5,8.439,75.33472846058,43.635172,8.5674802,25.7766412448,-6.71082,4.250186,-6.487126,144.5, -17.6, -2.5,0,0,1684,1024,1684,900,100,0,100,-19,160.1,-20.4,0,99,4.204,4.197,0,0,0,0,5.285,82.04,75.33472846058,43.635172,6,P-GPS,
9000,2022-12-08 00:27:02,-34.9246991234494,-56.1688611445675,44.619424,45.0787416,31.24023886058,76.31898046058,42.979004,8.5674802,27.0478355112,33.681759608,25,5,8.439,76.31898046058,44.619424,8.5674802,27.0478355112,-7.158208,4.697574,-6.487126,144.1, -17.7, -3.2,0,0,1684,1024,1684,900,100,0,100,-19,159.5,-20.4,0,99,4.204,4.197,0,0,0,0,5.285,82.04,76.31898046058,44.619424,6,P-GPS,
9100,2022-12-08 00:27:02,-34.9247024095387,-56.1688585712859,45.603676,46.095802,31.20743046058,77.30323246058,42.979004,9.2385622,28.461779126,35.106300336,25,5,8.439,77.30323246058,45.603676,9.2385622,28.461779126,-7.82929,4.921268,-6.263432,143.5, -17.8, -4.3,0,0,1684,1024,1684,900,100,0,100,-19,159,-20.4,0,99,4.204,4.197,0,0,0,0,5.285,82.04,77.30323246058,45.603676,6,P-GPS,
9200,2022-12-08 00:27:02,-34.9247057104533,-56.1688559538191,46.587928,47.080054,31.20743046058,78.28748446058,42.979004,9.8649054,29.8874025312,36.542980172,25,5,8.439,78.28748446058,46.587928,9.8649054,29.8874025312,-8.276678,5.368656,-6.263432,142.7, -17, -4.1,0,0,1684,1024,1684,900,100,0,100,-19,158.5,-20.4,0,99,4.204,4.197,0,0,0,0,5.285,82.04,78.28748446058,46.587928,6,P-GPS,
9300,2022-12-08 00:27:02,-34.9247093916682,-56.1688527826652,47.900264,48.39239,31.20743046058,79.59982046058,42.979004,10.4912486,31.5121729244,38.18733718,25,5,8.439,79.59982046058,47.900264,10.4912486,31.5121729244,-8.724066,5.816044,-6.487126,142.7, -16.9, -3.9,0,0,1684,1024,1684,899,100,0,100,-19,158,-20.4,0,99,4.204,4.197,0,0,0,0,5.285,82.04,79.59982046058,47.900264,6,P-GPS,
9400,2022-12-08 00:27:02,-34.9247131739248,-56.1688497847725,48.884516,49.4094504,31.17462206058,80.58407246058,42.979004,10.9833754,33.148295024,39.833006524,25,5,8.429,80.58407246058,48.884516,10.9833754,33.148295024,-9.171454,6.039738,-6.487126,142.1, -16.4, -4.2,0,0,1684,1024,1684,899,100,0,100,-19,157.5,-20.4,0,99,4.19,4.18,0,0,0,0,5.546,81.86,80.58407246058,48.884516,6,P-GPS,
9500,2022-12-08 00:27:02,-34.9247173283004,-56.1688465142485,50.196852,50.7217864,31.17462206058,81.89640846058,42.979004,11.296547,34.943242588,41.63714044,25,5,8.429,81.89640846058,50.196852,11.296547,34.943242588,-9.395148,6.263432,-6.487126,141.4, -16.2, -6.7,0,0,1684,1024,1684,899,100,0,100,-19,156.9,-20.4,0,99,4.19,4.18,0,0,0,0,5.546,81.86,81.89640846058,50.196852,6,P-GPS,
9600,2022-12-08 00:27:02,-34.924721330449,-56.1688432875229,51.509188,52.0341224,31.17462206058,83.20874446058,42.979004,11.7886738,36.683728208,43.38746858,25,5,8.429,83.20874446058,51.509188,11.7886738,36.683728208,-9.842536,6.487126,-6.263432,140.8, -15.2, -5.9,0,0,1684,1024,1684,900,100,0,100,-19,156.4,-20.4,0,99,4.19,4.18,0,0,0,0,5.546,81.86,83.20874446058,51.509188,6,P-GPS,
9700,2022-12-08 00:27:03,-34.9247258918639,-56.1688394090462,52.49344,53.1824164,31.01058006058,84.19299646058,42.979004,12.1018454,38.696523548,45.416011952,25,5,8.429,84.19299646058,52.49344,12.1018454,38.696523548,-10.06623,6.71082,-6.487126,140.6, -14.8, -5.9,0,0,1684,1024,1684,900,100,0,100,-19,155.9,-20.4,0,99,4.19,4.18,0,0,0,0,5.546,81.86,84.19299646058,52.49344,6,P-GPS,
9800,2022-12-08 00:27:03,-34.9247299619904,-56.1688359979733,53.805776,54.6587944,30.84653806058,85.50533246058,42.979004,12.415017,40.48720602,47.21784928,25,5,8.429,85.50533246058,53.805776,12.415017,40.48720602,-10.289924,6.934514,-6.71082,140.6, -15.2, -5.5,0,0,1684,1024,1684,900,100,0,100,-19,155.4,-20.4,0,99,4.19,4.18,0,0,0,0,5.546,81.86,85.50533246058,53.805776,6,P-GPS,
9900,2022-12-08 00:27:03,-34.9247343113167,-56.1688323098101,54.790028,55.8070884,30.68249606058,86.48958446058,42.979004,12.8400356,42.407481672,49.150592124,26,5,8.429,86.48958446058,54.790028,12.8400356,42.407481672,-10.513618,7.381902,-6.934514,140.1, -15.8, -6.5,0,0,1684,1024,1684,900,100,0,100,-19,154.8,-20.4,0,99,4.19,4.18,0,0,0,0,5.546,81.86,86.48958446058,54.790028,6,P-GPS,
10000,2022-12-08 00:27:03,-34.9247386557318,-56.168828538527,55.446196,56.6929152,30.45283726058,87.14575246058,42.979004,13.1532072,44.339568348,51.096130244,26,5,8.429,87.14575246058,55.446196,13.1532072,44.339568348,-10.737312,7.605596,-6.934514,139.5, -16.4, -6,0,0,1684,1024,1684,900,100,0,100,-19,154.3,-20.4,0,99,4.19,4.18,0,0,0,0,5.546,81.86,87.14575246058,55.446196,6,P-GPS,
10100,2022-12-08 00:27:03,-34.9247433041512,-56.1688244493982,56.430448,57.8084008,30.32160366058,88.13000446058,42.979004,13.4663788,46.4156839,53.18733766,26,5,8.429,88.13000446058,56.430448,13.4663788,46.4156839,-10.961006,7.82929,-6.71082,139, -17, -5,0,0,1684,1024,1684,900,100,0,100,-19,153.8,-20.4,0,99,4.19,4.18,0,0,0,0,5.546,81.86,88.13000446058,56.430448,6,P-GPS,
10200,2022-12-08 00:27:03,-34.9247476528718,-56.1688204390112,57.4147,59.0223116,30.09194486058,89.11425646058,42.979004,13.6005952,48.386484488,55.176182868,26,5,8.429,89.11425646058,57.4147,13.6005952,48.386484488,-10.961006,8.052984,-6.487126,138.1, -17.7, -5.3,0,0,1684,1024,1684,900,100,0,100,-19,153.3,-20.4,0,99,4.19,4.18,0,0,0,0,5.546,81.86,89.11425646058,57.4147,6,P-GPS,
10300,2022-12-08 00:27:03,-34.9247523024181,-56.1688160873367,58.398952,60.1706056,29.92790286058,90.09850846058,42.979004,13.6005952,50.504594792,57.31463438,26,5,8.429,90.09850846058,58.398952,13.6005952,50.504594792,-11.408394,8.500372,-6.487126,137.4, -17.4, -4.8,0,0,1684,1024,1684,900,100,0,100,-19,152.8,-20.4,0,99,4.19,4.18,0,0,0,0,5.546,81.86,90.09850846058,58.398952,6,P-GPS,
10400,2022-12-08 00:27:03,-34.9247569102763,-56.1688117961447,59.383204,61.3845164,29.69824406058,91.08276046058,42.979004,14.54011,52.602363888,59.429791928,26,5,8.27,91.08276046058,59.383204,14.54011,52.602363888,-11.632088,8.724066,-6.487126,137.1, -16.3, -4.6,0,0,1684,1024,1684,900,100,0,100,-19,152.2,-20.4,0,99,4.168,4.159,0,0,0,0,6.841,81.86,91.08276046058,59.383204,6,P-GPS,
10500,2022-12-08 00:27:03,-34.9247618712984,-56.1688071624845,60.367456,62.5656188,29.50139366058,92.06701246058,42.979004,14.54011,54.864174984,61.709647644,26,5,8.27,92.06701246058,60.367456,14.54011,54.864174984,-11.855782,8.94776,-6.487126,136.5, -16.1, -5.3,0,0,1684,1024,1684,900,100,0,100,-19,151.7,-20.4,0,99,4.168,4.159,0,0,0,0,6.841,81.86,92.06701246058,60.367456,6,P-GPS,
10600,2022-12-08 00:27:03,-34.924766809431,-56.1688020251319,61.351708,63.7467212,29.30454326058,93.05126446058,42.979004,15.1664532,57.197180308,64.077757956,26,5,8.27,93.05126446058,61.351708,15.1664532,57.197180308,-12.079476,9.171454,-6.487126,136, -15.5, -5.5,0,0,1684,1024,1684,900,100,0,100,-19,151.2,-20.4,0,99,4.168,4.159,0,0,0,0,6.841,81.86,93.05126446058,61.351708,6,P-GPS,
10700,2022-12-08 00:27:03,-34.9247720204518,-56.1687970702197,62.33596,64.9278236,29.10769286058,94.03551646058,42.979004,15.4796248,59.590225004,66.488519188,26,5,8.27,94.03551646058,62.33596,15.4796248,59.590225004,-12.30317,9.395148,-6.934514,135.7, -15.1, -6.7,0,0,1684,1024,1684,900,100,0,100,-19,150.7,-20.4,0,99,4.168,4.159,0,0,0,0,6.841,81.86,94.03551646058,62.33596,6,P-GPS,
10800,2022-12-08 00:27:04,-34.9247768878839,-56.1687923394958,62.992128,65.8136504,28.87803406058,94.69168446058,42.979004,15.6138412,61.842521664,68.759188552,26,5,8.27,94.69168446058,62.992128,15.6138412,61.842521664,-12.30317,9.618842,-6.71082,135.2, -16.1, -7.8,0,0,1684,1024,1684,900,100,0,100,-19,150.2,-20.4,0,99,4.168,4.159,0,0,0,0,6.841,81.86,94.69168446058,62.992128,6,P-GPS,
10900,2022-12-08 00:27:04,-34.9247820313699,-56.168787288664,63.97638,66.9947528,28.68118366058,95.67593646058,42.979004,15.9270128,64.23228552,71.168637448,26,5,8.27,95.67593646058,63.97638,15.9270128,64.23228552,-12.526864,9.842536,-6.487126,134.8, -16.7, -7,0,0,1684,1024,1684,900,100,0,100,-19,149.6,-20.4,0,99,4.168,4.159,0,0,0,0,6.841,81.86,95.67593646058,63.97638,6,P-GPS,
11000,2022-12-08 00:27:04,-34.9247868422755,-56.1687820779246,64.960632,68.2086636,28.45152486058,96.66018846058,42.979004,15.9270128,66.545605804,73.516078468,26,5,8.27,96.66018846058,64.960632,15.9270128,66.545605804,-12.526864,9.842536,-6.487126,134.3, -16.9, -7.3,0,0,1684,1024,1684,900,100,0,100,-19,149.1,-20.4,0,99,4.168,4.159,0,0,0,0,6.841,81.86,96.66018846058,64.960632,6,P-GPS,
11100,2022-12-08 00:27:04,-34.9247921512635,-56.1687768287442,65.6168,69.061682,28.25467446058,97.31635646058,42.979004,16.2401844,69.020999584,76.009516868,26,5,8.27,97.31635646058,65.6168,16.2401844,69.020999584,-12.750558,10.06623,-6.263432,133.8, -16.8, -7.9,0,0,1684,1024,1684,900,100,0,100,-19,148.6,-20.4,0,99,4.168,4.159,0,0,0,0,6.841,81.86,97.31635646058,65.6168,6,P-GPS,
11200,2022-12-08 00:27:04,-34.9247972292339,-56.1687717427106,66.601052,70.2755928,28.02501566058,98.30060846058,42.979004,16.3744008,71.400592836,78.406826656,26,5,8.27,98.30060846058,66.601052,16.3744008,71.400592836,-12.750558,10.289924,-6.487126,132.9, -16.2, -7.9,0,0,1568,1024,1684,899,82,0,100,-19,148.1,-20.4,0,99,4.168,4.159,0,0,0,0,6.841,81.86,98.30060846058,66.601052,6,P-GPS,
11300,2022-12-08 00:27:04,-34.9248025677293,-56.1687662888079,67.585304,71.522312,27.76254846058,99.28486046058,42.979004,16.665203,73.92060604,80.947509152,27,5,8.27,99.28486046058,67.585304,16.665203,73.92060604,-12.750558,10.737312,-6.71082,132.1, -15.6, -7,0,0,1400,1024,1684,899,57,0,100,-19,147.6,-20.4,0,99,4.168,4.159,0,0,0,0,6.841,81.86,99.28486046058,67.585304,6,P-GPS,
11400,2022-12-08 00:27:04,-34.9248075609815,-56.1687607525586,68.241472,72.4081388,27.53288966058,99.94102846058,42.979004,16.8217888,76.349739976,83.409779572,27,5,8.301,99.94102846058,68.241472,16.8217888,76.349739976,-12.750558,10.961006,-6.934514,131.8, -14.1, -5.7,0,0,1024,1024,1684,896,0,0,100,-19,147,-20.4,0,99,4.144,4.132,0,0,0,0,7.188,82.04,99.94102846058,68.241472,6,P-GPS,
11500,2022-12-08 00:27:04,-34.9248128282031,-56.1687551092409,69.225724,73.5892412,27.33603926058,100.92528046058,42.979004,16.6428336,78.882220372,85.967522436,27,5,8.301,100.92528046058,69.225724,16.8217888,78.882220372,-12.526864,10.961006,-6.934514,130.7, -8.4, -5.6,0,0,1024,1024,1684,897,0,0,100,-19,146.5,-20.4,0,99,4.144,4.132,0,0,0,0,7.188,82.04,100.92528046058,69.225724,6,P-GPS,
11600,2022-12-08 00:27:04,-34.9248178981616,-56.1687495991134,69.881892,74.475068,27.10638046058,101.58144846058,42.979004,16.329662,81.333992104,88.445212804,27,5,8.301,101.58144846058,69.881892,16.8217888,81.333992104,-12.30317,10.737312,-6.934514,129.2, 5.5, -5.7,0,0,1024,1024,1684,897,0,0,100,-19,146,-20.4,0,99,4.144,4.132,0,0,0,0,7.188,82.04,101.58144846058,69.881892,6,P-GPS,
11700,2022-12-08 00:27:04,-34.9248230282162,-56.1687440456968,70.53806,75.3280864,26.90953006058,102.23761646058,42.979004,15.211192,83.812994808,90.947837556,27,5,8.301,102.23761646058,70.53806,16.8217888,83.812994808,-11.408394,10.06623,-6.934514,127.4, 22.3, -5.6,0,0,1024,1024,1684,896,0,0,100,-19,145.4,-20.4,0,99,4.144,4.132,0,0,0,0,7.188,82.04,102.23761646058,70.53806,6,P-GPS,
11800,2022-12-08 00:27:05,-34.92482729784,-56.1687392848283,71.194228,76.1482964,26.74548806058,102.89378446058,42.979004,13.9585056,85.9005933,93.058401928,27,5,8.301,102.89378446058,71.194228,16.8217888,85.9005933,-10.513618,9.171454,-6.934514,127.5, 20.6, -5.6,0,0,1024,1024,1684,895,0,0,100,-20,144.9,-20.4,0,99,4.144,4.132,0,0,0,0,7.188,82.04,102.89378446058,71.194228,6,P-GPS,
11900,2022-12-08 00:27:05,-34.9248313312613,-56.1687341726937,71.850396,76.9685064,26.58144606058,103.54995246058,42.979004,12.862405,87.977036936,95.180777324,27,5,8.301,103.54995246058,71.850396,16.8217888,87.977036936,-9.842536,8.276678,-6.487126,127.2, 20.7, -4.7,0,0,1024,1024,1684,893,0,0,100,-20,144.4,-20.4,0,99,4.144,4.132,0,0,0,0,7.188,82.04,103.54995246058,71.850396,6,P-GPS,
12000,2022-12-08 00:27:05,-34.9248350948429,-56.1687300626465,72.506564,77.8215248,26.38459566058,104.20612046058,42.979004,11.6097186,89.804464816,97.023953236,27,5,8.301,104.20612046058,72.506564,16.8217888,89.804464816,-8.94776,7.381902,-6.487126,126.6, 20, -5.1,0,0,1024,1024,1684,891,0,0,100,-20,143.8,-20.4,0,99,4.144,4.132,0,0,0,0,7.188,82.04,104.20612046058,72.506564,6,P-GPS,
12100,2022-12-08 00:27:05,-34.9248387733546,-56.1687261571963,73.162732,78.6745432,26.18774526058,104.86228846058,42.979004,10.513618,91.572509492,98.803152768,27,5,8.301,104.86228846058,73.162732,16.8217888,91.572509492,-8.276678,6.487126,-6.263432,126.3, 18.8, -5,0,0,1024,1024,1684,887,0,0,100,-21,143.2,-20.4,0,99,4.144,4.132,0,0,0,0,7.188,82.04,104.86228846058,73.162732,6,P-GPS,
12200,2022-12-08 00:27:05,-34.9248417946393,-56.1687231314577,73.8189,79.4619448,26.05651166058,105.51845646058,42.979004,9.5741032,92.99376938,100.229662,27,5,8.301,105.51845646058,73.8189,16.8217888,92.99376938,-7.605596,5.816044,-6.039738,125.9, 17.3, -4.7,0,0,1024,1024,1684,886,0,0,100,-21,142.7,-20.4,0,99,4.144,4.132,0,0,0,0,7.188,82.04,105.51845646058,73.8189,6,P-GPS,
12300,2022-12-08 00:27:05,-34.924844384699,-56.1687201606168,74.803152,80.5118136,25.99089486058,106.50270846058,42.979004,8.6345884,94.276905904,101.526906136,27,5,8.301,106.50270846058,74.803152,16.8217888,94.276905904,-6.934514,5.144962,-6.039738,125, 17.3, -5.8,0,0,1024,1024,1684,886,0,0,100,-21,142.1,-20.4,0,99,4.144,4.132,0,0,0,0,7.188,82.04,106.50270846058,74.803152,6,P-GPS,
12400,2022-12-08 00:27:05,-34.9248467594393,-56.1687178905527,75.45932,81.3320236,25.82685286058,107.15887646058,42.979004,7.6950736,95.375987304,102.627627956,27,5,8.301,107.15887646058,75.45932,16.8217888,95.375987304,-6.263432,4.47388,-6.263432,124.3, 16.9, -6.6,0,0,1024,1024,1684,886,0,0,100,-21,141.5,-20.4,0,99,4.144,4.132,0,0,0,0,7.188,82.04,107.15887646058,75.45932,6,P-GPS,
12500,2022-12-08 00:27:05,-34.9248489743446,-56.168715867915,76.115488,82.0866168,25.72842766058,107.81504446058,42.979004,6.7555588,96.384845604,103.637142424,27,5,8.374,107.81504446058,76.115488,16.8217888,96.384845604,-5.59235,3.802798,-6.263432,123.5, 16.7, -7.8,0,0,1024,1024,1684,886,0,0,100,-21,140.9,-20.4,0,99,4.222,4.211,0,0,0,0,6.348,82.22,107.81504446058,76.115488,6,P-GPS,
12600,2022-12-08 00:27:05,-34.9248508079595,-56.1687142149436,77.09974,83.169294,25.63000246058,108.79929646058,42.979004,5.8384134,97.21621046,104.469163448,27,5,8.374,108.79929646058,77.09974,16.8217888,97.21621046,-4.921268,3.131716,-6.487126,122.9, 16.5, -8.3,0,0,1024,1024,1684,884,0,0,100,-21,140.3,-20.4,0,99,4.222,4.211,0,0,0,0,6.348,82.22,108.79929646058,77.09974,6,P-GPS,
12700,2022-12-08 00:27:06,-34.9248519033291,-56.1687128300872,78.083992,84.2191628,25.56438566058,109.78354846058,42.979004,4.7199434,97.781171108,105.044622784,27,5,8.374,109.78354846058,78.083992,16.8217888,97.781171108,-4.026492,2.460634,-6.487126,122.2, 16.1, -9.6,0,0,1024,1024,1684,885,0,0,100,-21,139.7,-20.4,0,99,4.222,4.211,0,0,0,0,6.348,82.22,109.78354846058,78.083992,6,P-GPS,
12800,2022-12-08 00:27:06,-34.924853210631,-56.1687117035865,79.068244,85.2362232,25.53157726058,110.76780046058,42.979004,3.914645,98.365160628,105.628612304,27,5,8.374,110.76780046058,79.068244,16.8217888,98.365160628,-3.35541,2.013246,-6.487126,121.5, 15.3, -10.5,0,0,1024,1024,1684,885,0,0,100,-21,139.1,-20.4,0,99,4.222,4.211,0,0,0,0,6.348,82.22,110.76780046058,79.068244,6,P-GPS,
12900,2022-12-08 00:27:06,-34.9248543247993,-56.1687107963843,80.052496,86.286092,25.46596046058,111.75205246058,42.979004,3.1093466,98.853677704,106.117457464,27,5,8.374,111.75205246058,80.052496,16.8217888,98.853677704,-2.684328,1.565858,-6.487126,120.8, 14.5, -11.4,0,0,1024,1024,1684,883,0,0,100,-21,138.5,-20.4,0,99,4.222,4.211,0,0,0,0,6.348,82.22,111.75205246058,80.052496,6,P-GPS,
13000,2022-12-08 00:27:06,-34.9248551436331,-56.1687101424806,81.036748,87.3031524,25.43315206058,112.73630446058,42.979004,2.1922012,99.210633096,106.474412856,27,5,8.374,112.73630446058,81.036748,16.8217888,99.210633096,-2.013246,0.894776,-6.487126,120.1, 13.5, -12.4,0,0,1024,1024,1684,1012,0,0,100,-2,137.9,-20.4,0,99,4.222,4.211,0,0,0,0,6.348,82.22,112.73630446058,81.036748,6,P-GPS,
13100,2022-12-08 00:27:06,-34.924855601291,-56.1687091327134,82.021,88.3202128,25.40034366058,113.72055646058,42.979004,1.7448132,99.520672476,106.819557224,27,5,8.374,113.72055646058,82.021,16.8217888,99.520672476,-1.342164,1.11847,-6.71082,120, 9.5, -10.7,0,0,1024,1024,1577,1024,0,0,84,0,137.4,-20.4,0,99,4.222,4.211,0,0,0,0,6.348,82.22,113.72055646058,82.021,6,P-GPS,
13200,2022-12-08 00:27:06,-34.9248559800801,-56.1687086924239,83.005252,89.3044648,25.40034366058,114.70480846058,42.979004,1.11847,99.709320776,107.010502112,27,5,8.374,114.70480846058,83.005252,16.8217888,99.709320776,-0.894776,0.671082,-6.71082,119.9, 6.4, -8.3,0,0,1024,1024,1178,1024,0,0,23,0,137,-20.4,0,99,4.222,4.211,0,0,0,0,6.348,82.22,114.70480846058,83.005252,6,P-GPS,
13300,2022-12-08 00:27:06,-34.924856235394,-56.1687083646676,83.989504,90.2887168,25.40034366058,115.68906046058,42.979004,0.9395148,99.841866712,107.14567272,27,5,8.374,115.68906046058,83.989504,16.8217888,99.841866712,-0.671082,0.671082,-6.487126,119.8, 4.8, -7,0,0,1024,1024,1178,1024,0,0,23,0,136.9,-20.4,0,99,4.222,4.211,0,0,0,0,6.348,82.22,115.68906046058,83.989504,6,P-GPS,
13400,2022-12-08 00:27:06,-34.9248564156953,-56.1687080961347,84.973756,91.2729688,25.40034366058,116.67331246058,42.979004,0.8052984,99.941932332,107.249675348,27,5,8.374,116.67331246058,84.973756,16.8217888,99.941932332,-0.671082,0.447388,-6.039738,119.6, 3.4, -6.5,0,0,1024,1024,1024,1024,0,0,0,0,136.9,-20.4,0,99,4.222,4.211,0,0,0,0,6.348,82.22,116.67331246058,84.973756,6,P-GPS,
13500,2022-12-08 00:27:06,-34.9248565499312,-56.1687079042329,85.629924,91.9947536,25.33472686058,117.32948046058,42.979004,0.6263432,100.015095064,107.325134668,27,5,8.396,117.32948046058,85.629924,16.8217888,100.015095064,-0.447388,0.447388,-5.368656,119.5, 2.7, -5.4,0,0,1024,1024,1024,1024,0,0,0,0,136.9,-20.4,0,99,4.197,4.192,0,0,0,0,4.886,82.22,117.32948046058,85.629924,6,P-GPS,
13600,2022-12-08 00:27:06,-34.9248568279653,-56.1687061192312,86.286092,92.6181132,25.36753526058,117.98564846058,42.979004,0.6263432,100.405515024,107.868441772,27,5,8.396,117.98564846058,86.286092,16.8217888,100.405515024,-0.447388,0.447388,-4.47388,119.5, 2.4, -4.4,0,0,1024,1024,1024,1024,0,0,0,0,136.9,-20.4,0,99,4.197,4.192,0,0,0,0,4.886,82.22,117.98564846058,86.286092,6,P-GPS,
13700,2022-12-08 00:27:07,-34.9248569317427,-56.1687058164264,86.94226,93.2742812,25.36753526058,118.64181646058,42.979004,0.4921268,100.48884836,107.966866972,27,5,8.396,118.64181646058,86.94226,16.8217888,100.48884836,-0.447388,0.223694,-3.579104,119.4, 2.3, -4.4,0,0,1024,1024,1024,1024,0,0,0,0,136.9,-20.4,0,99,4.197,4.192,0,0,0,0,4.886,82.22,118.64181646058,86.94226,6,P-GPS,
13800,2022-12-08 00:27:07,-34.9248569849473,-56.1687056371049,87.598428,93.9304492,25.36753526058,119.29798446058,42.979004,0.4921268,100.535764372,108.023953588,27,5,8.396,119.29798446058,87.598428,16.8217888,100.535764372,-0.447388,0.223694,-2.908022,119.5, 1.7, -4.3,0,0,1024,1024,1024,1024,0,0,0,0,136.9,-20.4,0,99,4.197,4.192,0,0,0,0,4.886,82.22,119.29798446058,87.598428,6,P-GPS,
13900,2022-12-08 00:27:07,-34.9248570249418,-56.1687055211029,87.926512,94.2585332,25.36753526058,119.62606846058,42.979004,0.223694,100.56758852,108.061355164,27,5,8.396,119.62606846058,87.926512,16.8217888,100.56758852,-0.223694,0,-2.013246,119.6, 1.3, -4.1,0,0,1024,1024,1024,1024,0,0,0,0,136.9,-20.4,0,99,4.197,4.192,0,0,0,0,4.886,82.22,119.62606846058,87.926512,6,P-GPS,
14000,2022-12-08 00:27:07,-34.924857284112,-56.168705025247,88.254596,94.5538088,25.40034366058,119.95415246058,42.979004,0.223694,100.730646268,108.237208188,27,5,8.396,119.95415246058,88.254596,16.8217888,100.730646268,-0.223694,0,-1.342164,119.5, 0.8, -4.1,0,0,1024,1024,1024,1024,0,0,0,0,136.9,-20.4,0,99,4.197,4.192,0,0,0,0,4.886,82.22,119.95415246058,88.254596,6,P-GPS,
14100,2022-12-08 00:27:07,-34.924857406571,-56.1687050161984,88.58268,94.8818928,25.40034366058,120.28223646058,42.979004,0.223694,100.768704012,108.282155696,27,5,8.396,120.28223646058,88.58268,16.8217888,100.768704012,-0.223694,0,-0.671082,119.4, 0.4, -4.5,0,0,1024,1024,1024,1024,0,0,0,0,136.9,-20.4,0,99,4.197,4.192,0,0,0,0,4.886,82.22,120.28223646058,88.58268,6,P-GPS,
14200,2022-12-08 00:27:07,-34.9248575726462,-56.1687049713106,88.910764,95.2755936,25.33472686058,120.61032046058,42.979004,0.223694,100.825790628,108.344163572,27,5,8.396,120.61032046058,88.910764,16.8217888,100.825790628,-0.223694,0,-0.447388,119.4, -0.6, -4.8,0,0,1024,1024,1024,1024,0,0,0,0,136.9,-20.4,0,99,4.197,4.192,0,0,0,0,4.886,82.22,120.61032046058,88.910764,6,P-GPS,
14300,2022-12-08 00:27:07,-34.9248577481013,-56.1687049431198,88.910764,95.2755936,25.33472686058,120.61032046058,42.979004,0.223694,100.882877244,108.40879612,27,5,8.396,120.61032046058,88.910764,16.8217888,100.882877244,-0.223694,0,-0.223694,119.5, -0.5, -4.8,0,0,1024,1024,1024,1024,0,0,0,0,136.9,-20.4,0,99,4.197,4.192,0,0,0,0,4.886,82.22,120.61032046058,88.910764,6,P-GPS,
14400,2022-12-08 00:27:07,-34.9248582060718,-56.1687046165128,88.910764,95.2755936,25.33472686058,120.61032046058,42.979004,0.223694,101.075790636,108.60236568,27,5,8.396,120.61032046058,88.910764,16.8217888,101.075790636,-0.223694,0,-0.223694,119.6, -1.1, -4.7,0,0,1024,1024,1024,1024,0,0,0,0,136.9,-20.4,0,99,4.197,4.192,0,0,0,0,4.886,82.22,120.61032046058,88.910764,6,P-GPS,
14500,2022-12-08 00:27:07,-34.9248583705837,-56.1687046645771,89.238848,95.6036776,25.33472686058,120.93840446058,42.979004,0.223694,101.116144968,108.664045472,27,5,8.501,120.93840446058,89.238848,16.8217888,101.116144968,-0.223694,0,-0.223694,119.7, -1.1, -4.5,0,0,1024,1024,1024,1024,0,0,0,0,136.9,-20.4,0,99,4.247,4.242,0,0,0,0,3.901,82.22,120.93840446058,89.238848,6,P-GPS,
14600,2022-12-08 00:27:07,-34.924858540463,-56.1687046722674,89.238848,95.6692944,25.26911006058,120.93840446058,42.979004,0.223694,101.165685652,108.726053348,27,5,8.501,120.93840446058,89.238848,16.8217888,101.165685652,-0.223694,0,-0.223694,119.7, -0.5, -5.1,0,0,1024,1024,1024,1024,0,0,0,0,136.9,-20.5,0,99,4.247,4.242,0,0,0,0,3.901,82.22,120.93840446058,89.238848,6,P-GPS,
14700,2022-12-08 00:27:07,-34.9248587084403,-56.1687046884211,89.238848,95.6692944,25.26911006058,120.93840446058,42.979004,0,101.212929748,108.787405056,27,5,8.501,120.93840446058,89.238848,16.8217888,101.212929748,0,0,0,119.8, -0.1, -5.1,0,0,1024,1024,1024,1024,0,0,0,0,136.9,-20.6,0,99,4.247,4.242,0,0,0,0,3.901,82.22,120.93840446058,89.238848,6,P-GPS,
14800,2022-12-08 00:27:08,-34.9248589657084,-56.1687046574928,89.238848,95.6692944,25.26911006058,120.93840446058,42.979004,0,101.294950748,108.881893248,27,5,8.501,120.93840446058,89.238848,16.8217888,101.294950748,0,0,0,119.8, -0.6, -5.2,0,0,1024,1024,1024,1024,0,0,0,0,136.9,-21.3,0,99,4.247,4.242,0,0,0,0,3.901,82.22,120.93840446058,89.238848,6,P-GPS,
14900,2022-12-08 00:27:08,-34.9248590949677,-56.1687047565261,88.910764,95.3412104,25.26911006058,120.61032046058,42.979004,0,101.316276208,108.937667528,27,5,8.501,120.93840446058,89.238848,16.8217888,101.316276208,0,0,0,119.8, -0.8, -4.8,0,0,1024,1024,1024,1024,0,0,0,0,136.9,-22.3,0,99,4.247,4.242,0,0,0,0,3.901,82.22,120.61032046058,88.910764,6,P-GPS,
15000,2022-12-08 00:27:08,-34.9248592070047,-56.1687047301325,88.910764,95.3412104,25.26911006058,120.61032046058,42.979004,0,101.354333952,108.979334196,27,5,8.501,120.93840446058,89.238848,16.8217888,101.354333952,0,0,0,119.9, -1.5, -4.5,0,0,1024,1024,1024,1024,0,0,0,0,136.9,-23.6,0,99,4.247,4.242,0,0,0,0,3.901,82.22,120.61032046058,88.910764,6,P-GPS,
15100,2022-12-08 00:27:08,-34.9248593267018,-56.1687047009596,88.910764,95.3412104,25.26911006058,120.61032046058,42.979004,0,101.395016368,109.023625536,27,5,8.501,120.93840446058,89.238848,16.8217888,101.395016368,0,0,0,119.7, -1.7, -4.5,0,0,1024,1024,1024,1024,0,0,0,0,136.9,-25,0,99,4.247,4.242,0,0,0,0,3.901,82.22,120.61032046058,88.910764,6,P-GPS,
15200,2022-12-08 00:27:08,-34.9248593961126,-56.1687046293439,88.910764,95.3412104,25.26911006058,120.61032046058,42.979004,0,101.427824768,109.05676202,27,5,8.501,120.93840446058,89.238848,16.8217888,101.427824768,0,0,0,119.8, -1.1, -4.4,0,0,1024,1024,1024,1024,0,0,0,0,136.9,-26.4,0,99,4.247,4.242,0,0,0,0,3.901,82.22,120.61032046058,88.910764,6,P-GPS,
15300,2022-12-08 00:27:08,-34.9248594178947,-56.168704089645,88.58268,95.0131264,25.26911006058,120.28223646058,42.979004,0,101.527562304,109.218507432,27,5,8.501,120.93840446058,89.238848,16.8217888,101.527562304,0,0,0,119.9, -2.1, -4.1,0,0,1024,1024,1024,1024,0,0,0,0,136.9,-27.6,0,99,4.247,4.242,0,0,0,0,3.901,82.22,120.28223646058,88.58268,6,P-GPS,
15400,2022-12-08 00:27:08,-34.9248594165138,-56.1687040495636,88.910764,95.3412104,25.26911006058,120.61032046058,42.979004,0.223694,101.534123984,109.23064654,27,5,8.501,120.93840446058,89.238848,16.8217888,101.534123984,0,-0.223694,0,119.9, -2.1, -4.6,0,0,1024,1024,1024,1024,0,0,0,0,136.9,-28.5,0,99,4.247,4.242,0,0,0,0,3.901,82.22,120.61032046058,88.910764,6,P-GPS,
15500,2022-12-08 00:27:08,-34.9248594221938,-56.1687040306723,88.910764,95.3412104,25.26911006058,120.61032046058,42.979004,0,101.539045244,109.236552052,27,5,8.455,120.93840446058,89.238848,16.8217888,101.539045244,0,0,0,120, -2.5, -4.8,0,0,1024,1024,1024,1024,0,0,0,0,136.9,-28.9,0,99,4.219,4.214,0,0,0,0,3.632,82.4,120.61032046058,88.910764,6,P-GPS,
