time(millisecond),datetime(utc),latitude,longitude,height_above_takeoff(feet),height_above_ground_at_drone_location(feet),ground_elevation_at_drone_location(feet),altitude_above_seaLevel(feet),height_sonar(feet),speed(mph),distance(feet),mileage(feet),satellites,gpslevel,voltage(v),max_altitude(feet),max_ascent(feet),max_speed(mph),max_distance(feet), xSpeed(mph), ySpeed(mph), zSpeed(mph), compass_heading(degrees), pitch(degrees), roll(degrees),isPhoto,isVideo,rc_elevator,rc_aileron,rc_throttle,rc_rudder,rc_elevator(percent),rc_aileron(percent),rc_throttle(percent),rc_rudder(percent),gimbal_heading(degrees),gimbal_pitch(degrees),gimbal_roll(degrees),battery_percent,voltageCell1,voltageCell2,voltageCell3,voltageCell4,voltageCell5,voltageCell6,current(A),battery_temperature(f),altitude(feet),ascent(feet),flycStateRaw,flycState,message
0,2022-08-11 22:37:33,-34.9227284428063,-56.1514005761615,0,0,42.2693501059,42.2693501059,0.328084,0,0,0,20,5,0,42.2693501059,0,0,0,0,0,0,128.2, 5.4, 1.9,0,0,364,364,364,1684,-100,-100,-100,100,138.5,0,0,75,4.082,4.076,0,0,0,0,0,77.9,42.2693501059,0,41,Motors_Started,"Aeronave en Zona de altitud restringida (150). Vuela con precaución (Code: 190001). Baja velocidad de la tarjeta SD. Puede afectar a su uso normal. Sustituye la tarjeta SD (Code: 10028)"
100,2022-08-11 22:37:33,-34.9227285047922,-56.1514005078445,0,0.2296588,42.0396913059,42.2693501059,0.328084,0,0.0304816610804,0.0304816610804,20,5,0,42.2693501059,0,0,0.0304816610804,0,0,0,128.2, 5.4, 1.9,0,0,364,364,364,1684,-100,-100,-100,100,138.5,0,0,75,4.082,4.076,0,0,0,0,0,77.9,42.2693501059,0,41,Motors_Started,
200,2022-08-11 22:37:33,-34.9227285699927,-56.1514004299875,0,0.2952756,41.9740745059,42.2693501059,0.328084,0,0.063760828812,0.063773624088,20,5,0,42.2693501059,0,0,0.063760828812,0,0,0,128.1, 5.4, 1.9,0,0,1024,1024,1024,1024,0,0,0,0,138.5,0,0,75,4.082,4.076,0,0,0,0,0,77.9,42.2693501059,0,41,Motors_Started,
300,2022-08-11 22:37:33,-34.9227286003241,-56.1514002961865,0,0.2952756,41.9740745059,42.2693501059,0.328084,0,0.101575462568,0.105301512556,20,5,0,42.2693501059,0,0,0.101575462568,0,0,0,128.1, 5.5, 1.9,0,0,1024,1024,1024,1024,0,0,0,0,138.5,0,0,75,4.082,4.076,0,0,0,0,0,77.9,42.2693501059,0,41,Motors_Started,
400,2022-08-11 22:37:34,-34.9227287171169,-56.1513999751926,0,0.2952756,41.9740745059,42.2693501059,0.328084,0,0.20575952102,0.210356634028,20,5,0,42.2693501059,0,0,0.20575952102,0,0,0,128.1, 5.5, 1.9,0,0,1024,1024,1024,1024,0,0,0,0,138.5,0,0,75,4.082,4.076,0,0,0,0,0,77.9,42.2693501059,0,41,Motors_Started,
500,2022-08-11 22:37:34,-34.9227287263534,-56.1513998713338,0,0.2952756,41.9740745059,42.2693501059,0.328084,0,0.23486057182,0.241608275448,20,5,0,42.2693501059,0,0,0.23486057182,0,0,0,128.1, 5.5, 1.9,0,0,1024,1024,1024,1024,0,0,0,0,138.5,0,0,75,4.082,4.076,0,0,0,0,0,77.9,42.2693501059,0,41,Motors_Started,"Setting new Return-To-Home altitude to 40m (131 ft). Data Recorder File Index is 30. Setting new Maximum Flight Altitude to 120m (394 ft)"
600,2022-08-11 22:37:34,-34.9227287376548,-56.1513997640001,0,0.2952756,41.9740745059,42.2693501059,0.328084,0,0.265708013752,0.273980651812,20,5,0,42.2693501059,0,0,0.265708013752,0,0,0,128.1, 5.5, 1.9,0,0,1024,1024,1024,1024,0,0,0,0,138.5,0,0,75,4.082,4.076,0,0,0,0,0,77.9,42.2693501059,0,41,Motors_Started,
700,2022-08-11 22:37:34,-34.9227287867251,-56.1513996451497,0,0.2952756,41.9740745059,42.2693501059,0.328084,0,0.30547245072,0.3137877397,20,5,0,42.2693501059,0,0,0.30547245072,0,0,0,128.1, 5.5, 1.9,0,0,1024,1024,1024,1024,0,0,0,0,138.5,0,0,75,4.082,4.076,0,0,0,0,0,77.9,42.2693501059,0,41,Motors_Started,
800,2022-08-11 22:37:34,-34.9227288490367,-56.1513994788636,0,0.3937008,41.8756493059,42.2693501059,0.328084,0,0.36016405352,0.36848098292,20,5,0,42.2693501059,0,0,0.36016405352,0,0,0,128.1, 5.5, 1.9,0,0,1024,1024,1024,1024,0,0,0,0,138.5,0,0,75,4.082,4.076,0,0,0,0,0,77.9,42.2693501059,0,41,Motors_Started,
900,2022-08-11 22:37:34,-34.9227289179423,-56.1513993991245,0,0.3937008,41.8756493059,42.2693501059,0.328084,0,0.392470485,0.40313649584,20,5,0,42.2693501059,0,0,0.392470485,0,0,0,128.1, 5.5, 1.9,0,0,1024,1024,1024,1024,0,0,0,0,138.5,0,0,75,4.082,4.076,0,0,0,0,0,77.9,42.2693501059,0,41,Motors_Started,
1000,2022-08-11 22:37:34,-34.9227289894013,-56.1513993132737,0,0.3937008,41.8756493059,42.2693501059,0.328084,0,0.42719489556,0.43973426604,20,5,0,42.2693501059,0,0,0.42719489556,0,0,0,128.1, 5.5, 1.9,0,0,1024,1024,1024,1024,0,0,0,0,138.5,0,0,75,4.082,4.076,0,0,0,0,0,77.9,42.2693501059,0,41,Motors_Started,
1100,2022-08-11 22:37:34,-34.9227290084887,-56.1513992062515,0,0.3937008,41.8756493059,42.2693501059,0.328084,0,0.45884515904,0.47249673428,20,5,0,42.2693501059,0,0,0.45884515904,0,0,0,128.1, 5.5, 1.9,0,0,1024,1024,1024,1024,0,0,0,0,138.5,0,0,75,4.082,4.076,0,0,0,0,0,77.9,42.2693501059,0,10,Assisted_Takeoff,
1200,2022-08-11 22:37:34,-34.9227290292717,-56.1513990889964,0,0.3937008,41.8756493059,42.2693501059,0.328084,0,0.49366471396,0.50838584304,20,5,0,42.2693501059,0,0,0.49366471396,0,0,0,128.1, 5.5, 1.9,0,0,1024,1024,1024,1024,0,0,0,0,138.5,0,0,75,4.082,4.076,0,0,0,0,0,77.9,42.2693501059,0,10,Assisted_Takeoff,
1300,2022-08-11 22:37:34,-34.9227290702694,-56.1513990347099,0,0.3937008,41.8756493059,42.2693501059,0.328084,0,0.51482285112,0.5304626154,20,5,0,42.2693501059,0,0,0.51482285112,0,0,0,128.1, 5.5, 1.9,0,0,1024,1024,1024,1024,0,0,0,0,138.5,0,0,75,4.082,4.076,0,0,0,0,0,77.9,42.2693501059,0,10,Assisted_Takeoff,
1400,2022-08-11 22:37:35,-34.9227291193006,-56.1513989106887,0,0.3937008,41.8756493059,42.2693501059,0.328084,0,0.55601051648,0.5716535616,20,5,0,42.2693501059,0,0,0.55601051648,0,0,0,128.1, 5.5, 1.9,0,0,1024,1024,1024,1024,0,0,0,0,138.5,0,0,75,4.082,4.076,0,0,0,0,0,77.9,42.2693501059,0,10,Assisted_Takeoff,
1500,2022-08-11 22:37:35,-34.9227292264119,-56.1513988436321,0,0.3937008,41.8756493059,42.2693501059,0.328084,0,0.59190946776,0.61558072836,20,5,0,42.2693501059,0,0,0.59190946776,0,0,0,128.1, 5.5, 1.9,0,0,1024,1024,1024,1024,0,0,0,0,138.5,0,0,75,4.082,4.076,0,0,0,0,0,77.9,42.2693501059,0,10,Assisted_Takeoff,
1600,2022-08-11 22:37:35,-34.9227293399002,-56.1513987702744,0,0.3937008,41.8756493059,42.2693501059,0.328084,0,0.63164700184,0.66244096608,20,5,0,42.2693501059,0,0,0.63164700184,0,0,0,128, 5.5, 1.9,0,0,1024,1024,1024,1024,0,0,0,0,138.5,0,0,75,4.082,4.076,0,0,0,0,0,77.9,42.2693501059,0,10,Assisted_Takeoff,
1700,2022-08-11 22:37:35,-34.9227294027036,-56.1513987706075,0,0.3937008,41.8756493059,42.2693501059,0.328084,0,0.6437336164,0.68535435264,20,5,0,42.2693501059,0,0,0.6437336164,0,0,0,128, 5.5, 1.9,0,0,1024,1024,1236,1024,0,0,32,0,138.5,0,0,75,4.082,4.076,0,0,0,0,0,77.9,42.2693501059,0,10,Assisted_Takeoff,
1800,2022-08-11 22:37:35,-34.922729431214,-56.1513986624621,0,0.3937008,41.8756493059,42.2693501059,0.328084,0,0.67659450984,0.71933729336,20,5,0,42.2693501059,0,0,0.67659450984,0,0,0,128, 5.4, 1.9,0,0,1024,1024,1684,1024,0,0,100,0,138.5,0,0,75,4.082,4.076,0,0,0,0,0,77.9,42.2693501059,0,10,Assisted_Takeoff,
1900,2022-08-11 22:37:35,-34.9227294707937,-56.1513985969245,0,0.3937008,41.8756493059,42.2693501059,0.328084,0,0.70088256836,0.74368768784,20,5,0,42.2693501059,0,0,0.70088256836,0,0,0,128, 5.3, 1.8,0,0,1024,1024,1684,1024,0,0,100,0,138.5,0,0,75,4.082,4.076,0,0,0,0,0,77.9,42.2693501059,0,10,Assisted_Takeoff,
2000,2022-08-11 22:37:35,-34.9227295145631,-56.1513985260732,0,0.5905512,41.6787989059,42.2693501059,0.328084,0,0.72733598128,0.7702264026,20,5,8.134,42.2693501059,0,0,0.72733598128,0,0,0,127.9, 5.1, 1.7,0,0,1024,1024,1684,1024,0,0,100,0,138.4,0,0,75,4.082,4.076,0,0,0,0,1.518,77.9,42.2693501059,0,10,Assisted_Takeoff,
2100,2022-08-11 22:37:35,-34.922729409778,-56.1513987579426,0,0.3937008,41.8756493059,42.2693501059,0.328084,0,0.64831694988,0.8494258802,20,5,8.134,42.2693501059,0,0,0.72733598128,0,0,0,127.8, 4.8, 1.6,0,0,1024,1024,1684,1024,0,0,100,0,138.4,0,0,75,4.082,4.076,0,0,0,0,1.518,77.9,42.2693501059,0,10,Assisted_Takeoff,
2200,2022-08-11 22:37:35,-34.9227294060757,-56.1513987552345,0,0.3937008,41.8756493059,42.2693501059,0.328084,0,0.64826445644,0.8510006834,20,5,8.134,42.2693501059,0,0,0.72733598128,0,0,0,128, 3.8, 1.4,0,0,1024,1024,1684,1024,0,0,100,0,138.4,0,0,75,4.082,4.076,0,0,0,0,1.518,77.9,42.2693501059,0,10,Assisted_Takeoff,
2300,2022-08-11 22:37:35,-34.9227293885569,-56.151398745584,0,0.3937008,41.8756493059,42.2693501059,0.328084,0,0.6472605194,0.85801511932,20,5,8.134,42.2693501059,0,0,0.72733598128,0,0,0,128, 0.4, 1.2,0,0,1024,1024,1684,1024,0,0,100,0,138.4,0,0,75,4.082,4.076,0,0,0,0,1.518,77.9,42.2693501059,0,10,Assisted_Takeoff,
2400,2022-08-11 22:37:36,-34.9227293869199,-56.1513987420191,0,0.3937008,41.8756493059,42.2693501059,0.328084,0,0.64784450892,0.85923887264,20,5,8.134,42.2693501059,0,0,0.72733598128,0,0,-0.223694,128.9, -2.2, -0.6,0,0,1024,1024,1684,1024,0,0,100,0,138.7,0,0,75,4.082,4.076,0,0,0,0,1.518,77.9,42.2693501059,0,10,Assisted_Takeoff,"Baja velocidad de la tarjeta SD. Puede afectar a su uso normal. Sustituye la tarjeta SD (Code: 10028)"
2500,2022-08-11 22:37:36,-34.9227294003297,-56.1513988968039,0,0.3937008,41.8756493059,42.2693501059,0.328084,0,0.61190618756,0.90580055392,20,5,8.134,42.2693501059,0,0,0.72733598128,0,0,-0.671082,128.6, -0.7, -0.5,0,0,1024,1024,1412,1024,0,0,59,0,138.7,0,0,75,4.082,4.076,0,0,0,0,1.518,77.9,42.2693501059,0,6,P-GPS,"Baja velocidad de la tarjeta SD. Puede afectar a su uso normal. Sustituye la tarjeta SD (Code: 10028)"
2600,2022-08-11 22:37:36,-34.9227294697357,-56.151398880674,0,0.3937008,41.8756493059,42.2693501059,0.656168,0,0.63058400968,0.9315781138,20,5,8.134,42.2693501059,0,0,0.72733598128,0,0,-1.11847,128.4, 0.2, 0.3,0,0,1024,1024,1412,1024,0,0,59,0,138.7,0,0,75,4.082,4.076,0,0,0,0,1.518,77.9,42.2693501059,0,6,P-GPS,
2700,2022-08-11 22:37:36,-34.9227294665582,-56.1513988785243,0.328084,0.7217848,41.8756493059,42.5974341059,0.656168,0,0.630413406,0.93290357316,20,5,8.134,42.5974341059,0.328084,0,0.72733598128,0,0,-1.342164,128.3, 0.9, 0.3,0,0,1024,1024,1024,1024,0,0,0,0,138.7,0,0,75,4.082,4.076,0,0,0,0,1.518,77.9,42.5974341059,0.328084,6,P-GPS,
2800,2022-08-11 22:37:36,-34.9227294669897,-56.1513988966452,0.656168,1.0498688,41.8756493059,42.9255181059,0.984252,0,0.626148314,0.93832680168,20,5,8.134,42.9255181059,0.656168,0,0.72733598128,0,0,-1.565858,128.2, 1.4, 0,0,0,1024,1024,1024,1024,0,0,0,0,138.7,0,0,75,4.082,4.076,0,0,0,0,1.518,77.9,42.9255181059,0.656168,6,P-GPS,
2900,2022-08-11 22:37:36,-34.9227294749186,-56.151398982867,0.656168,1.0498688,41.8756493059,42.9255181059,0.984252,0,0.60743768348,0.96428152692,20,5,8.134,42.9255181059,0.656168,0,0.72733598128,0,0,-1.565858,128.2, 0.8, -0.5,0,0,1024,1024,1024,1024,0,0,0,0,138.7,0,0,75,4.082,4.076,0,0,0,0,1.518,77.9,42.9255181059,0.656168,6,P-GPS,
3000,2022-08-11 22:37:36,-34.922729333531,-56.1513992704838,0.984252,1.3779528,41.8756493059,43.2536021059,1.312336,0,0.50811025248,1.0645997716,20,5,8.069,43.2536021059,0.984252,0,0.72733598128,0,0,-1.342164,128.1, 0.1, -0.9,0,0,1024,1024,1024,1024,0,0,0,0,138.7,0,0,75,3.989,3.996,0,0,0,0,2.237,77.9,43.2536021059,0.984252,6,P-GPS,
3100,2022-08-11 22:37:36,-34.9227293657326,-56.1513993204309,0.984252,1.3779528,41.8756493059,43.2536021059,1.312336,0,0.5044783626,1.08360895856,20,5,8.069,43.2536021059,0.984252,0,0.72733598128,0,0,-1.11847,128.2, -0.2, -0.9,0,0,1024,1024,1024,1024,0,0,0,0,138.7,0,0,75,3.989,3.996,0,0,0,0,2.237,77.9,43.2536021059,0.984252,6,P-GPS,
3200,2022-08-11 22:37:36,-34.9227293891375,-56.1513993765531,1.312336,1.7060368,41.8756493059,43.5816861059,1.64042,0,0.49798886108,1.102444261,20,5,8.069,43.5816861059,1.312336,0,0.72733598128,0,0,-0.894776,128.4, -0.8, -1.2,0,0,1024,1024,1024,1024,0,0,0,0,138.7,0,0,75,3.989,3.996,0,0,0,0,2.237,77.9,43.5816861059,1.312336,6,P-GPS,
3300,2022-08-11 22:37:36,-34.9227293604068,-56.1513995048954,1.312336,1.6076116,41.9740745059,43.5816861059,1.64042,0,0.46344489672,1.14224413104,20,5,8.069,43.5816861059,1.312336,0,0.72733598128,0,0,-0.447388,128.5, -1.3, -1,0,0,1024,1024,1024,1024,0,0,0,0,138.7,0,0,75,3.989,3.996,0,0,0,0,2.237,77.9,43.5816861059,1.312336,6,P-GPS,
3400,2022-08-11 22:37:37,-34.9227293184459,-56.1513996809267,1.312336,1.6076116,41.9740745059,43.5816861059,1.64042,0.223694,0.41687665376,1.19708337164,20,5,8.069,43.5816861059,1.312336,0.223694,0.72733598128,0,-0.223694,-0.223694,128.5, -1.8, -0.9,0,0,1183,1024,1024,1024,24,0,0,0,138.7,0,0,75,3.989,3.996,0,0,0,0,2.237,77.9,43.5816861059,1.312336,6,P-GPS,
3500,2022-08-11 22:37:37,-34.9227293412209,-56.1513999146833,1.312336,1.6076116,41.9740745059,43.5816861059,1.64042,0.223694,0.38288387052,1.2675033214,20,5,8.069,43.5816861059,1.312336,0.223694,0.72733598128,0,-0.223694,0,128.5, -1.7, -1.1,0,0,1684,987,1024,1024,100,-6,0,0,138.7,0,0,75,3.989,3.996,0,0,0,0,2.237,77.9,43.5816861059,1.312336,6,P-GPS,
3600,2022-08-11 22:37:37,-34.9227293796522,-56.151400143855,1.312336,1.6076116,41.9740745059,43.5816861059,1.64042,0,0.36545604844,1.33747707692,19,5,8.069,43.5816861059,1.312336,0.223694,0.72733598128,0,0,0,128.6, -3, -1.2,0,0,1684,987,1024,1024,100,-6,0,0,138.7,0,0,75,3.989,3.996,0,0,0,0,2.237,77.9,43.5816861059,1.312336,6,P-GPS,
3700,2022-08-11 22:37:37,-34.9227293857987,-56.1514001726995,1.312336,1.6076116,41.9740745059,43.5816861059,1.64042,0,0.36460631088,1.34639440004,19,5,8.069,43.5816861059,1.312336,0.223694,0.72733598128,0,0,0,128.7, -11.9, -1.7,0,0,1684,1024,1024,1024,100,0,0,0,138.7,0,0,75,3.989,3.996,0,0,0,0,2.237,77.9,43.5816861059,1.312336,6,P-GPS,
3800,2022-08-11 22:37:37,-34.9227294249017,-56.1514002137778,1.312336,1.6076116,41.9740745059,43.5816861059,1.64042,0.4921268,0.37435696736,1.3652231408,19,5,8.069,43.5816861059,1.312336,0.4921268,0.72733598128,-0.447388,0.223694,0,128.8, -17, -1.7,0,0,1654,1024,1024,1024,95,0,0,0,138.7,0,0,75,3.989,3.996,0,0,0,0,2.237,77.9,43.5816861059,1.312336,6,P-GPS,
3900,2022-08-11 22:37:37,-34.9227296792871,-56.1513999044712,1.312336,1.8372704,41.7444157059,43.5816861059,1.968504,1.11847,0.49385500268,1.49627957544,19,5,8.069,43.5816861059,1.312336,1.11847,0.72733598128,-0.671082,0.894776,0,128.8, -17.9, -1.5,0,0,1225,1024,1024,1024,30,0,0,0,138.7,0,0,75,3.989,3.996,0,0,0,0,2.237,77.9,43.5816861059,1.312336,6,P-GPS,
4000,2022-08-11 22:37:37,-34.9227301000164,-56.1513993405273,1.312336,1.9028872,41.6787989059,43.5816861059,1.968504,1.7448132,0.70867128252,1.72436685308,20,5,8.017,43.5816861059,1.312336,1.7448132,0.72733598128,-1.11847,1.342164,0,128.6, -13.4, -1.6,0,0,1024,1024,1024,1024,0,0,0,0,138.7,0,0,75,4.002,3.995,0,0,0,0,4.338,77.9,43.5816861059,1.312336,6,P-GPS,
4100,2022-08-11 22:37:37,-34.9227306731289,-56.1513985532001,1.312336,2.132546,41.4491401059,43.5816861059,1.968504,2.0579848,1.01409452064,2.0393209314,20,5,8.017,43.5816861059,1.312336,2.0579848,1.01409452064,-1.342164,1.565858,0,128.3, -3.7, -1.5,0,0,1024,1024,1024,1024,0,0,0,0,138.7,0,0,75,4.002,3.995,0,0,0,0,4.338,77.9,43.5816861059,1.312336,6,P-GPS,
4200,2022-08-11 22:37:37,-34.922731392012,-56.1513975794223,1.312336,2.2309712,41.3507149059,43.5816861059,1.968504,2.0579848,1.4005249792,2.43130585208,20,5,8.017,43.5816861059,1.312336,2.0579848,1.4005249792,-1.342164,1.565858,0,127.8, 7.8, -1.5,0,0,1024,1024,1024,1024,0,0,0,0,138.7,0,0,75,4.002,3.995,0,0,0,0,4.338,77.9,43.5816861059,1.312336,6,P-GPS,
4300,2022-08-11 22:37:37,-34.9227319136059,-56.1513968486992,1.312336,2.5262468,41.0554393059,43.5816861059,1.968504,1.5882274,1.6872867994,2.72113197684,20,5,8.017,43.5816861059,1.312336,2.0579848,1.6872867994,-1.11847,1.11847,0,127.8, 9.1, -1.3,0,0,1024,1024,1024,1024,0,0,0,0,138.7,0,0,75,4.002,3.995,0,0,0,0,4.338,77.9,43.5816861059,1.312336,6,P-GPS,
4400,2022-08-11 22:37:38,-34.922732359995,-56.1513962304453,1.312336,2.5918636,40.9898225059,43.5816861059,1.968504,1.2750558,1.93199809332,2.9675689926,20,5,8.017,43.5816861059,1.312336,2.0579848,1.93199809332,-0.894776,0.894776,0,127.7, 7.9, -1.3,0,0,1024,1024,1024,1024,0,0,0,0,138.7,0,0,75,4.002,3.995,0,0,0,0,4.338,77.9,43.5816861059,1.312336,6,P-GPS,
4500,2022-08-11 22:37:38,-34.9227327944744,-56.1513957302448,1.312336,2.8215224,40.7601637059,43.5816861059,1.968504,0.9395148,2.1499508562,3.18555784472,20,5,8.017,43.5816861059,1.312336,2.0579848,2.1499508562,-0.671082,0.671082,0,127.7, 6.1, -1.4,0,0,1040,1024,1024,1024,2,0,0,0,138.7,0,0,75,4.002,3.995,0,0,0,0,4.338,77.9,43.5816861059,1.312336,6,P-GPS,
4600,2022-08-11 22:37:38,-34.9227331736836,-56.1513953198443,1.312336,2.9199476,40.6617385059,43.5816861059,1.968504,0.4921268,2.33490493036,3.3705381656,20,5,8.017,43.5816861059,1.312336,2.0579848,2.33490493036,-0.447388,0.223694,0,127.8, 4.6, -1.1,0,0,1040,1024,1024,1024,2,0,0,0,138.7,0,0,75,4.002,3.995,0,0,0,0,4.338,77.9,43.5816861059,1.312336,6,P-GPS,
4700,2022-08-11 22:37:38,-34.9227338558087,-56.1513952190021,0.984252,2.8215224,40.4320797059,43.2536021059,1.968504,0.223694,2.54335309976,3.62122715,20,5,8.017,43.5816861059,1.312336,2.0579848,2.54335309976,-0.223694,0,0,127.5, 2.6, -1.3,0,0,1500,1024,1024,1024,72,0,0,0,138.8,0,0,75,4.002,3.995,0,0,0,0,4.338,77.9,43.2536021059,0.984252,6,P-GPS,
4800,2022-08-11 22:37:38,-34.9227341236218,-56.1513951899889,0.984252,2.8215224,40.4320797059,43.2536021059,1.968504,0.223694,2.62526911288,3.719324266,20,5,8.017,43.5816861059,1.312336,2.0579848,2.62526911288,-0.223694,0,0,127.1, -2.4, -1.4,0,0,1684,1024,1024,1024,100,0,0,0,138.8,0,0,75,4.002,3.995,0,0,0,0,4.338,77.9,43.2536021059,0.984252,6,P-GPS,
4900,2022-08-11 22:37:38,-34.9227341383983,-56.1513953798951,0.984252,2.8215224,40.4320797059,43.2536021059,1.968504,0.223694,2.59510506992,3.7763780736,20,5,8.017,43.5816861059,1.312336,2.0579848,2.62526911288,-0.223694,0,0,127, -11.5, -1.6,0,0,1684,1024,1024,1024,100,0,0,0,138.8,0,0,75,4.002,3.995,0,0,0,0,4.338,77.9,43.2536021059,0.984252,6,P-GPS,
5000,2022-08-11 22:37:38,-34.9227342121994,-56.1513954648856,0.984252,2.8215224,40.4320797059,43.2536021059,1.968504,0.223694,2.60169299664,3.8134187572,21,5,8.017,43.5816861059,1.312336,2.0579848,2.62526911288,-0.447388,0.447388,0,126.9, -17.5, -1.1,0,0,1684,1024,1024,1024,100,0,0,0,138.8,0,0,75,4.002,3.995,0,0,0,0,4.338,77.9,43.2536021059,0.984252,6,P-GPS,
5100,2022-08-11 22:37:38,-34.9227338133568,-56.1513957578295,0.984252,2.7230972,40.5305049059,43.2536021059,1.968504,1.2750558,2.432496797,3.9833006524,21,5,8,43.5816861059,1.312336,2.0579848,2.62526911288,-0.894776,0.894776,0,127, -19.2, -1.2,0,0,1684,1024,1024,1024,100,0,0,0,138.8,0,0,75,3.999,3.993,0,0,0,0,4.158,77.9,43.2536021059,0.984252,6,P-GPS,
5200,2022-08-11 22:37:38,-34.9227341619049,-56.1513953096185,0.656168,2.4934384,40.4320797059,42.9255181059,1.968504,1.7448132,2.61458997868,4.1680775612,21,5,8,43.5816861059,1.312336,2.0579848,2.62526911288,-1.11847,1.342164,0,127.2, -19, -1.4,0,0,1535,1024,1024,1024,77,0,0,0,138.8,0,0,75,3.999,3.993,0,0,0,0,4.158,77.9,42.9255181059,0.656168,6,P-GPS,
5300,2022-08-11 22:37:38,-34.9227346574616,-56.1513946017499,0.656168,2.6902888,40.2352293059,42.9255181059,1.968504,2.5501116,2.8871063916,4.446522452,21,5,8,43.5816861059,1.312336,2.5501116,2.8871063916,-1.565858,2.013246,0,127.3, -18.7, -1.5,0,0,1278,1024,1024,1024,38,0,0,0,138.7,0,0,75,3.999,3.993,0,0,0,0,4.158,77.9,42.9255181059,0.656168,6,P-GPS,
5400,2022-08-11 22:37:38,-34.9227353138995,-56.1513936397737,0.656168,2.788714,40.1368041059,42.9255181059,1.968504,2.8632832,3.25427503852,4.8209319128,21,5,8,43.5816861059,1.312336,2.8632832,3.25427503852,-1.789552,2.23694,0,127.2, -15.4, -1.5,0,0,1070,1024,1024,1024,7,0,0,0,138.8,0,0,75,3.999,3.993,0,0,0,0,4.158,77.9,42.9255181059,0.656168,6,P-GPS,
5500,2022-08-11 22:37:39,-34.9227360462597,-56.1513924786127,0.656168,3.1824148,39.7431033059,42.9255181059,1.968504,3.1764548,3.6828741336,5.2591537116,21,5,8,43.5816861059,1.312336,3.1764548,3.6828741336,-2.013246,2.460634,0,127, -9.2, -1,0,0,1070,1024,1024,1024,7,0,0,0,138.8,0,0,75,3.999,3.993,0,0,0,0,4.158,77.9,42.9255181059,0.656168,6,P-GPS,"Punto de origen actualizado. Altitud de RPO establecida en 40m (Code: 3000001)"
5600,2022-08-11 22:37:39,-34.9227369261991,-56.1513911723456,0.656168,3.4776904,39.4478277059,42.9255181059,1.968504,3.3330406,4.1825460656,5.7648951976,21,5,8,43.5816861059,1.312336,3.3330406,4.1825460656,-2.23694,2.460634,0,126.6, -3.6, -0.9,0,0,1024,1024,1024,1024,0,0,0,0,138.8,0,0,75,3.999,3.993,0,0,0,0,4.158,77.9,42.9255181059,0.656168,6,P-GPS,
5700,2022-08-11 22:37:39,-34.9227379029,-56.1513898064132,0.328084,3.444882,39.1525521059,42.5974341059,1.968504,3.1764548,4.7215224608,6.307086816,21,5,8,43.5816861059,1.312336,3.3330406,4.7215224608,-2.013246,2.460634,0,126.5, 8.8, -0.9,0,0,1024,1024,1024,1024,0,0,0,0,138.8,0,0,75,3.999,3.993,0,0,0,0,4.158,77.9,42.5974341059,0.328084,6,P-GPS,
5800,2022-08-11 22:37:39,-34.9227388445689,-56.1513885220354,0.328084,3.7401576,38.8572765059,42.5974341059,1.968504,2.684328,5.2350395376,6.82250678,21,5,8,43.5816861059,1.312336,3.3330406,5.2350395376,-1.789552,2.013246,0,126.5, 13.1, -1.4,0,0,1031,1024,1024,1024,1,0,0,0,138.8,0,0,75,3.999,3.993,0,0,0,0,4.158,77.9,42.5974341059,0.328084,6,P-GPS,
5900,2022-08-11 22:37:39,-34.9227401503595,-56.1513867823962,0.328084,4.10105,38.4963841059,42.5974341059,1.968504,1.901399,5.9390749932,7.528051422,21,5,8,43.5816861059,1.312336,3.3330406,5.9390749932,-1.342164,1.342164,0,126.4, 11.6, -1.3,0,0,1222,1024,1024,1024,30,0,0,0,138.8,0,0,75,3.999,3.993,0,0,0,0,4.158,77.9,42.5974341059,0.328084,6,P-GPS,
6000,2022-08-11 22:37:39,-34.9227408440848,-56.1513858488369,0.328084,4.3635172,38.2339169059,42.5974341059,1.968504,1.2750558,6.3152232992,7.9049543212,21,5,8,43.5816861059,1.312336,3.3330406,6.3152232992,-0.894776,0.894776,0,126.6, 6.8, -1.4,0,0,1507,1024,1024,1024,73,0,0,0,138.8,0,0,75,3.999,3.993,0,0,0,0,4.158,77.9,42.5974341059,0.328084,6,P-GPS,
6100,2022-08-11 22:37:39,-34.9227413669651,-56.151385297872,0.328084,4.429134,38.1683001059,42.5974341059,1.968504,0.9395148,6.5668965356,8.1570540668,21,5,7.971,43.5816861059,1.312336,3.3330406,6.5668965356,-0.671082,0.671082,0,126.8, -1.6, -1.4,0,0,1555,1024,1024,1024,80,0,0,0,138.8,0,0,75,3.988,3.988,0,0,0,0,4.225,77.9,42.5974341059,0.328084,6,P-GPS,
6200,2022-08-11 22:37:39,-34.9227418804054,-56.1513847518447,0.328084,4.6259844,37.9714497059,42.5974341059,1.968504,0.9395148,6.8150920816,8.4056105052,21,5,7.971,43.5816861059,1.312336,3.3330406,6.8150920816,-0.671082,0.671082,0,127, -8.9, -1.4,0,0,1541,1024,1024,1024,78,0,0,0,138.8,0,0,75,3.988,3.988,0,0,0,0,4.225,77.9,42.5974341059,0.328084,6,P-GPS,
6300,2022-08-11 22:37:39,-34.9227422253538,-56.1513843298718,0.328084,4.6916012,37.9058329059,42.5974341059,1.968504,1.2750558,6.9933073104,8.5838585424,21,5,7.971,43.5816861059,1.312336,3.3330406,6.9933073104,-0.894776,0.894776,0,126.8, -12.9, -1.4,0,0,1516,1024,1260,1024,75,0,36,0,138.8,0,0,75,3.988,3.988,0,0,0,0,4.225,77.9,42.5974341059,0.328084,6,P-GPS,
6400,2022-08-11 22:37:40,-34.9227425200745,-56.1513840581923,0.328084,4.92126,37.6761741059,42.5974341059,1.968504,1.7448132,7.127132774,8.7186354496,21,5,7.971,43.5816861059,1.312336,3.3330406,7.127132774,-1.11847,1.342164,0,126.5, -13.4, -0.7,0,0,1516,1024,1260,1024,75,0,36,0,138.8,0,0,75,3.988,3.988,0,0,0,0,4.225,77.9,42.5974341059,0.328084,6,P-GPS,
6500,2022-08-11 22:37:40,-34.9227429076278,-56.151383459304,0.328084,4.9540684,37.6433657059,42.5974341059,1.968504,2.23694,7.3533138836,8.9468834884,21,5,7.971,43.5816861059,1.312336,3.3330406,7.3533138836,-1.342164,1.789552,0,126.5, -12.3, -0.6,0,0,1506,1024,1640,1024,73,0,93,0,138.8,0,0,75,3.988,3.988,0,0,0,0,4.225,77.9,42.5974341059,0.328084,6,P-GPS,
6600,2022-08-11 22:37:40,-34.9227434167511,-56.1513826825899,0.328084,4.9540684,37.6433657059,42.5974341059,1.968504,2.684328,7.6485238668,9.2443572512,21,5,7.971,43.5816861059,1.312336,3.3330406,7.6485238668,-1.789552,2.013246,-0.671082,126.6, -11.4, -1,0,0,1491,1024,1684,1024,71,0,100,0,138.8,0,0,75,3.988,3.988,0,0,0,0,4.225,77.9,42.5974341059,0.328084,6,P-GPS,
6700,2022-08-11 22:37:40,-34.9227439910658,-56.1513817250369,0.328084,5.249344,37.3480901059,42.5974341059,1.968504,3.0422384,7.9988847704,9.5992785224,21,5,7.971,43.5816861059,1.312336,3.3330406,7.9988847704,-1.789552,2.460634,-1.342164,126.8, -11.3, -1.1,0,0,1273,1024,1606,1024,38,0,88,0,138.8,0,0,75,3.988,3.988,0,0,0,0,4.225,77.9,42.5974341059,0.328084,6,P-GPS,
6800,2022-08-11 22:37:40,-34.9227442309145,-56.1513810432874,0.656168,5.6102364,37.3152817059,42.9255181059,2.296588,3.35541,8.2051511812,9.82119454,21,5,7.971,43.5816861059,1.312336,3.35541,8.2051511812,-2.013246,2.684328,-2.23694,127, -10.1, -0.5,0,0,1054,1024,1410,1024,5,0,58,0,138.8,0,0,75,3.988,3.988,0,0,0,0,4.225,77.9,42.9255181059,0.656168,6,P-GPS,
6900,2022-08-11 22:37:40,-34.9227451564455,-56.1513797168348,0.984252,6.233596,37.0200061059,43.2536021059,2.952756,3.4896264,8.7248690456,10.3422247404,21,5,7.971,43.5816861059,1.312336,3.4896264,8.7248690456,-2.23694,2.684328,-2.908022,127, -6.1, -1.5,0,0,1024,1024,1292,1024,0,0,41,0,138.8,0,0,75,3.988,3.988,0,0,0,0,4.225,77.9,43.2536021059,0.984252,6,P-GPS,
7000,2022-08-11 22:37:40,-34.9227461397765,-56.1513782806597,1.64042,7.217848,36.6919221059,43.9097701059,3.28084,3.4896264,9.2830055464,10.9019688528,21,5,7.971,43.9097701059,1.64042,3.4896264,9.2830055464,-2.23694,2.684328,-2.908022,127.1, -0.2, -0.8,0,0,1024,1024,1430,1024,0,0,62,0,138.8,0,0,75,3.988,3.988,0,0,0,0,4.225,77.9,43.9097701059,1.64042,6,P-GPS,
7100,2022-08-11 22:37:40,-34.9227470250915,-56.1513768655254,1.968504,7.8083992,36.4294549059,44.2378541059,3.608924,3.1764548,9.812008188,11.4344491848,21,5,7.97,44.2378541059,1.968504,3.4896264,9.812008188,-2.013246,2.460634,-2.460634,127.1, 11, 0,0,0,1024,1024,1582,1024,0,0,85,0,138.8,0,0,75,3.946,3.932,0,0,0,0,4.204,77.9,44.2378541059,1.968504,6,P-GPS,
7200,2022-08-11 22:37:40,-34.9227481483482,-56.151375227032,2.296588,8.4645672,36.1013709059,44.5659381059,3.937008,2.3711564,10.4496066336,12.0733599664,21,5,7.97,44.5659381059,2.296588,3.4896264,10.4496066336,-1.565858,1.789552,-2.460634,126.9, 13, -0.8,0,0,1024,1024,1383,1024,0,0,54,0,138.8,0,0,75,3.946,3.932,0,0,0,0,4.204,77.9,44.5659381059,2.296588,6,P-GPS,
7300,2022-08-11 22:37:40,-34.9227488663129,-56.1513743559332,2.624672,9.0551184,35.8389037059,44.8940221059,4.265092,1.4316416,10.8189307924,12.4428481672,21,5,7.97,44.8940221059,2.624672,3.4896264,10.8189307924,-0.894776,1.11847,-2.908022,127, 8.5, -0.4,0,0,1024,1024,1383,1024,0,0,54,0,138.8,0,0,75,3.946,3.932,0,0,0,0,4.204,77.9,44.8940221059,2.624672,6,P-GPS,
7400,2022-08-11 22:37:41,-34.9227494626898,-56.1513736712868,2.952756,9.3832024,35.8389037059,45.2221061059,4.92126,0.9395148,11.117290382,12.7416670744,21,5,7.97,45.2221061059,2.952756,3.4896264,11.117290382,-0.671082,0.671082,-3.131716,127.1, 4.8, -1,0,0,1024,1024,1155,1024,0,0,20,0,138.8,0,0,75,3.946,3.932,0,0,0,0,4.204,77.9,45.2221061059,2.952756,6,P-GPS,
7500,2022-08-11 22:37:41,-34.9227497383153,-56.1513732718821,3.608924,10.334646,35.5436281059,45.8782741059,5.249344,0.6263432,11.2731630904,12.8978350584,21,5,7.97,45.8782741059,3.608924,3.4896264,11.2731630904,-0.447388,0.447388,-2.684328,127.3, 4.3, -0.4,0,0,1024,1024,1024,1024,0,0,0,0,138.8,0,0,75,3.946,3.932,0,0,0,0,4.204,77.9,45.8782741059,3.608924,6,P-GPS,
7600,2022-08-11 22:37:41,-34.9227501166468,-56.1513731010751,3.937008,10.66273,35.5436281059,46.2063581059,5.577428,0.3131716,11.405512176,13.0450463492,21,5,7.97,46.2063581059,3.937008,3.4896264,11.405512176,-0.223694,0.223694,-2.013246,127.3, 4.2, 0,0,0,1024,1024,1024,1024,0,0,0,0,138.8,0,0,75,3.946,3.932,0,0,0,0,4.204,77.9,46.2063581059,3.937008,6,P-GPS,
7700,2022-08-11 22:37:41,-34.9227501932423,-56.151373130762,4.265092,10.990814,35.5436281059,46.5344421059,5.905512,0.3131716,11.4185371108,13.0743442504,21,5,7.97,46.5344421059,4.265092,3.4896264,11.4185371108,-0.223694,0.223694,-1.342164,127.4, 3.6, -0.5,0,0,1024,1024,1024,1024,0,0,0,0,138.8,0,0,75,3.946,3.932,0,0,0,0,4.204,77.9,46.5344421059,4.265092,6,P-GPS,
7800,2022-08-11 22:37:41,-34.9227502447923,-56.1513732321034,4.593176,11.318898,35.5436281059,46.8625261059,6.233596,0.223694,11.4098428848,13.1100397896,21,5,7.97,46.8625261059,4.593176,3.4896264,11.4185371108,-0.223694,0,-0.894776,127.4, 2.6, -0.8,0,0,1024,1024,1024,1024,0,0,0,0,138.8,0,0,75,3.946,3.932,0,0,0,0,4.204,77.9,46.8625261059,4.593176,6,P-GPS,
7900,2022-08-11 22:37:41,-34.9227503231465,-56.1513732928144,4.593176,11.318898,35.5436281059,46.8625261059,6.233596,0.223694,11.4167982656,13.1438980584,21,5,7.97,46.8625261059,4.593176,3.4896264,11.4185371108,-0.223694,0,-0.447388,127.5, 1.9, -0.9,0,0,1024,1024,1024,1024,0,0,0,0,138.8,0,0,75,3.946,3.932,0,0,0,0,4.204,77.9,46.8625261059,4.593176,6,P-GPS,
8000,2022-08-11 22:37:41,-34.9227503866054,-56.1513733930483,4.593176,11.318898,35.5436281059,46.8625261059,6.233596,0,11.4116145384,13.1817917604,21,5,7.97,46.8625261059,4.593176,3.4896264,11.4185371108,0,0,0,127.5, 1.2, -1.3,0,0,1024,1024,1024,1024,0,0,0,0,138.8,0,0,75,3.946,3.932,0,0,0,0,4.204,77.9,46.8625261059,4.593176,6,P-GPS,
8100,2022-08-11 22:37:41,-34.9227497637825,-56.1513743419192,4.92126,11.5813652,35.6092449059,47.1906101059,6.233596,0,11.0500003536,13.5453744492,21,5,7.879,47.1906101059,4.92126,3.4896264,11.4185371108,0,0,0,127.4, 0.6, -1.7,0,0,1024,1024,1024,1024,0,0,0,0,138.8,0,0,75,4.001,3.993,0,0,0,0,5.331,77.9,47.1906101059,4.92126,6,P-GPS,
8200,2022-08-11 22:37:41,-34.9227496503142,-56.1513745054854,4.92126,11.5485568,35.6420533059,47.1906101059,6.233596,0,10.9860895904,13.6094820628,21,5,7.879,47.1906101059,4.92126,3.4896264,11.4185371108,0,0,0,127.6, 0.2, -1.9,0,0,1024,1024,1024,1024,0,0,0,0,138.8,0,0,75,4.001,3.993,0,0,0,0,5.331,77.9,47.1906101059,4.92126,6,P-GPS,
8300,2022-08-11 22:37:41,-34.9227495199051,-56.1513746542121,4.92126,11.5485568,35.6420533059,47.1906101059,6.233596,0,10.9209977248,13.6746395452,21,5,7.879,47.1906101059,4.92126,3.4896264,11.4185371108,0,0,0,127.7, -0.1, -1.7,0,0,1024,1024,1024,1024,0,0,0,0,138.8,0,0,75,4.001,3.993,0,0,0,0,5.331,77.9,47.1906101059,4.92126,6,P-GPS,
8400,2022-08-11 22:37:42,-34.9227493737002,-56.1513748114021,4.92126,11.318898,35.8717121059,47.1906101059,6.233596,0,10.850065964,13.745735348,21,5,7.879,47.1906101059,4.92126,3.4896264,11.4185371108,0,0,0,127.7, 0.4, -1.4,0,0,1024,1024,1024,570,0,0,0,-69,138.7,0,0,75,4.001,3.993,0,0,0,0,5.331,77.9,47.1906101059,4.92126,6,P-GPS,
8500,2022-08-11 22:37:42,-34.9227492942484,-56.1513748119402,4.92126,11.318898,35.8717121059,47.1906101059,6.233596,0,10.829560714,13.7747051652,21,5,7.879,47.1906101059,4.92126,3.4896264,11.4185371108,0,0,0,127.6, 0.7, -1.2,0,0,1024,1024,1024,364,0,0,0,-100,138.1,0,0,75,4.001,3.993,0,0,0,0,5.331,77.9,47.1906101059,4.92126,6,P-GPS,
8600,2022-08-11 22:37:42,-34.9227492536513,-56.151374902099,4.92126,11.318898,35.8717121059,47.1906101059,6.233596,0,10.7999675372,13.8054794444,21,5,7.879,47.1906101059,4.92126,3.4896264,11.4185371108,0,0,0,126, 0.7, -1.2,0,0,1024,1024,1024,364,0,0,0,-100,135,0,0,75,4.001,3.993,0,0,0,0,5.331,77.9,47.1906101059,4.92126,6,P-GPS,
8700,2022-08-11 22:37:42,-34.9227492487888,-56.1513750001583,4.92126,11.318898,35.8717121059,47.1906101059,6.233596,0,10.7778546756,13.8348757708,21,5,7.879,47.1906101059,4.92126,3.4896264,11.4185371108,0,0,0,122.1, 0.4, -1.3,0,0,1024,1024,1024,648,0,0,0,-57,130.4,0,0,75,4.001,3.993,0,0,0,0,5.331,77.9,47.1906101059,4.92126,6,P-GPS,
8800,2022-08-11 22:37:42,-34.9227492320614,-56.1513751232587,4.92126,11.318898,35.8717121059,47.1906101059,6.233596,0,10.7474412888,13.87221173,21,5,7.879,47.1906101059,4.92126,3.4896264,11.4185371108,0,0,0,117.6, 0.4, -1.6,0,0,1024,1024,1024,1024,0,0,0,0,125.8,0,0,75,4.001,3.993,0,0,0,0,5.331,77.9,47.1906101059,4.92126,6,P-GPS,
8900,2022-08-11 22:37:42,-34.9227495052899,-56.1513750775687,4.92126,11.5485568,35.6420533059,47.1906101059,6.233596,0,10.8276578268,13.9728350928,21,5,7.879,47.1906101059,4.92126,3.4896264,11.4185371108,0,0,0,113.8, 0.2, -1.6,0,0,1024,1024,1024,1011,0,0,0,-2,123.3,0,0,75,4.001,3.993,0,0,0,0,5.331,77.9,47.1906101059,4.92126,6,P-GPS,
9000,2022-08-11 22:37:42,-34.9227494965353,-56.1513752078942,4.92126,11.318898,35.8717121059,47.1906101059,6.233596,0,10.7979662248,14.0119427056,21,5,7.879,47.1906101059,4.92126,3.4896264,11.4185371108,0,0,0,112.3, 0, -1.7,0,0,1024,1024,1024,458,0,0,0,-86,122.4,0,0,75,4.001,3.993,0,0,0,0,5.331,77.9,47.1906101059,4.92126,6,P-GPS,
9100,2022-08-11 22:37:42,-34.922749456005,-56.1513753697743,4.92126,11.318898,35.8717121059,47.1906101059,6.233596,0,10.7534124176,14.0625660668,21,5,7.879,47.1906101059,4.92126,3.4896264,11.4185371108,0,0,0,111.6, -0.5, -1.4,0,0,1024,1024,1024,364,0,0,0,-100,121.9,0,0,75,4.001,3.993,0,0,0,0,5.331,77.9,47.1906101059,4.92126,6,P-GPS,
9200,2022-08-11 22:37:42,-34.9227494013756,-56.1513755457141,4.92126,11.2532812,35.9373289059,47.1906101059,6.233596,0,10.7023297388,14.1188652812,21,5,7.956,47.1906101059,4.92126,3.4896264,11.4185371108,0,0,0,110.7, -0.7, -1.5,0,0,1024,1024,1024,364,0,0,0,-100,120.1,0,0,74,3.977,3.971,0,0,0,0,3.785,77.9,47.1906101059,4.92126,6,P-GPS,
9300,2022-08-11 22:37:42,-34.922749482433,-56.1513759394179,4.92126,11.2532812,35.9373289059,47.1906101059,5.905512,0.223694,10.641568582,14.2402891696,21,5,7.956,47.1906101059,4.92126,3.4896264,11.4185371108,0,-0.223694,0,107.9, -1.3, -1.3,0,0,1024,1024,1024,364,0,0,0,-100,116.1,0,0,74,3.977,3.971,0,0,0,0,3.785,77.9,47.1906101059,4.92126,6,P-GPS,
9400,2022-08-11 22:37:43,-34.9227494338549,-56.1513762047617,4.92126,11.2532812,35.9373289059,47.1906101059,5.905512,0.223694,10.5739176612,14.3216211932,21,5,7.956,47.1906101059,4.92126,3.4896264,11.4185371108,0,-0.223694,0,103.7, -2.1, -1.7,0,0,1024,1024,1024,364,0,0,0,-100,111.4,0,0,74,3.977,3.971,0,0,0,0,3.785,77.9,47.1906101059,4.92126,6,P-GPS,
9500,2022-08-11 22:37:43,-34.9227493635843,-56.15137647487,4.92126,11.2532812,35.9373289059,47.1906101059,5.905512,0.223694,10.4997050604,14.4063980988,21,5,7.956,47.1906101059,4.92126,3.4896264,11.4185371108,0,-0.223694,0,99.1, -2.4, -1.3,0,0,1024,1024,1024,364,0,0,0,-100,106.6,0,0,74,3.977,3.971,0,0,0,0,3.785,77.9,47.1906101059,4.92126,6,P-GPS,
9600,2022-08-11 22:37:43,-34.92274928779,-56.1513767387406,4.92126,11.2204728,35.9701373059,47.1906101059,5.905512,0.223694,10.4254924596,14.4900267104,21,5,7.956,47.1906101059,4.92126,3.4896264,11.4185371108,0,-0.223694,0,94.3, -2.3, -1.3,0,0,1024,1024,1024,364,0,0,0,-100,101.8,0,0,74,3.977,3.971,0,0,0,0,3.785,77.9,47.1906101059,4.92126,6,P-GPS,
9700,2022-08-11 22:37:43,-34.9227491764223,-56.1513769624654,4.92126,11.2204728,35.9701373059,47.1906101059,5.905512,0,10.3500987564,14.5683403612,21,5,7.956,47.1906101059,4.92126,3.4896264,11.4185371108,0,0,0,89.5, -2.1, -0.8,0,0,1024,1024,1024,364,0,0,0,-100,97,0,0,74,3.977,3.971,0,0,0,0,3.785,77.9,47.1906101059,4.92126,6,P-GPS,
9800,2022-08-11 22:37:43,-34.9227490087822,-56.1513774077795,4.92126,11.2204728,35.9701373059,47.1906101059,5.905512,0,10.2146000644,14.7149282924,21,5,7.956,47.1906101059,4.92126,3.4896264,11.4185371108,0,0,0,84.7, -3.1, -0.7,0,0,1024,1024,1024,364,0,0,0,-100,92.2,0,0,74,3.977,3.971,0,0,0,0,3.785,77.9,47.1906101059,4.92126,6,P-GPS,
9900,2022-08-11 22:37:43,-34.9227489611209,-56.151377522,4.92126,11.154856,36.0357541059,47.1906101059,5.905512,0,10.1786748664,14.7532485036,21,5,7.956,47.1906101059,4.92126,3.4896264,11.4185371108,0,0,0,79.9, -3, -0.4,0,0,1024,1024,1024,364,0,0,0,-100,87.4,0,0,74,3.977,3.971,0,0,0,0,3.785,77.9,47.1906101059,4.92126,6,P-GPS,
10000,2022-08-11 22:37:43,-34.9227489129287,-56.1513776227746,4.92126,11.154856,36.0357541059,47.1906101059,5.905512,0,10.1453087236,14.7881566412,21,5,7.956,47.1906101059,4.92126,3.4896264,11.4185371108,0,0,0,75.2, -3, -0.1,0,0,1024,1024,1024,364,0,0,0,-100,82.6,0,0,74,3.977,3.971,0,0,0,0,3.785,77.9,47.1906101059,4.92126,6,P-GPS,
10100,2022-08-11 22:37:43,-34.9227489051203,-56.1513776551062,4.92126,11.154856,36.0357541059,47.1906101059,5.905512,0,10.1366801144,14.79822882,21,5,7.956,47.1906101059,4.92126,3.4896264,11.4185371108,0,0,0,70.4, -3.4, -0.1,0,0,1024,1024,1024,502,0,0,0,-79,77.8,0,0,74,3.977,3.971,0,0,0,0,3.785,77.9,47.1906101059,4.92126,6,P-GPS,
10200,2022-08-11 22:37:43,-34.9227489951635,-56.1513775527905,4.92126,11.154856,36.0357541059,47.1906101059,5.905512,0,10.1815620056,14.8431435196,21,5,7.946,47.1906101059,4.92126,3.4896264,11.4185371108,0,0,0,65.7, -3.4, 0.1,0,0,1024,1024,1024,502,0,0,0,-79,73,0,0,74,3.974,3.968,0,0,0,0,4.334,77.9,47.1906101059,4.92126,6,P-GPS,
10300,2022-08-11 22:37:43,-34.9227489283159,-56.1513776252522,4.593176,10.826772,36.0357541059,46.8625261059,5.905512,0,10.148950456,14.8757550692,21,5,7.946,47.1906101059,4.92126,3.4896264,11.4185371108,0,0,0,61.1, -3.4, 0.9,0,0,1024,1024,1024,834,0,0,0,-29,69,0,0,74,3.974,3.968,0,0,0,0,4.334,77.9,46.8625261059,4.593176,6,P-GPS,
10400,2022-08-11 22:37:44,-34.9227488570763,-56.1513776797555,4.593176,10.826772,36.0357541059,46.8625261059,5.905512,0,10.118766728,14.9064637316,21,5,7.946,47.1906101059,4.92126,3.4896264,11.4185371108,0,0,0,57.7, -3.2, 0.9,0,0,1024,1024,1024,1024,0,0,0,0,66.8,0,0,74,3.974,3.968,0,0,0,0,4.334,77.9,46.8625261059,4.593176,6,P-GPS,
10500,2022-08-11 22:37:44,-34.9227487229658,-56.1513777709162,4.593176,10.826772,36.0357541059,46.8625261059,5.905512,0,10.064304784,14.9624676704,21,5,7.946,47.1906101059,4.92126,3.4896264,11.4185371108,0,0,0,56.2, -2.9, 1.3,0,0,1024,1024,1024,1024,0,0,0,0,66,0,0,74,3.974,3.968,0,0,0,0,4.334,77.9,46.8625261059,4.593176,6,P-GPS,
10600,2022-08-11 22:37:44,-34.9227484508952,-56.151378017945,4.593176,10.5971132,36.2654129059,46.8625261059,5.905512,0,9.9412404756,15.0862209552,20,5,7.946,47.1906101059,4.92126,3.4896264,11.4185371108,0,0,0,55.5, -2.7, 2.2,0,0,1024,1024,1024,1024,0,0,0,0,65.7,0,0,74,3.974,3.968,0,0,0,0,4.334,77.9,46.8625261059,4.593176,6,P-GPS,
10700,2022-08-11 22:37:44,-34.9227483471112,-56.1513780432905,4.593176,10.5971132,36.2654129059,46.8625261059,5.905512,0,9.908300842,15.124836442,20,5,7.946,47.1906101059,4.92126,3.4896264,11.4185371108,0,0,0,55.2, -3, 2.4,0,0,1024,1024,1024,1024,0,0,0,0,65.7,0,0,74,3.974,3.968,0,0,0,0,4.334,77.9,46.8625261059,4.593176,6,P-GPS,
10800,2022-08-11 22:37:44,-34.9227482611521,-56.1513780427511,4.593176,10.5971132,36.2654129059,46.8625261059,5.905512,0,9.8854661956,15.1562012724,20,5,7.946,47.1906101059,4.92126,3.4896264,11.4185371108,0,0,0,55.2, -2.8, 1.8,0,0,1024,1024,1024,1024,0,0,0,0,65.7,0,0,74,3.974,3.968,0,0,0,0,4.334,77.9,46.8625261059,4.593176,6,P-GPS,
10900,2022-08-11 22:37:44,-34.9227482022204,-56.1513779400762,4.593176,10.5971132,36.2654129059,46.8625261059,5.905512,0,9.890748348,15.1937012736,20,5,7.946,47.1906101059,4.92126,3.4896264,11.4185371108,0,0,0,55.2, -2.8, 2,0,0,1024,1024,1024,1024,0,0,0,0,65.7,0,0,74,3.974,3.968,0,0,0,0,4.334,77.9,46.8625261059,4.593176,6,P-GPS,
11000,2022-08-11 22:37:44,-34.9227480953163,-56.1513776740872,4.593176,10.5971132,36.2654129059,46.8625261059,5.905512,0,9.91715911,15.282316762,20,5,7.946,47.1906101059,4.92126,3.4896264,11.4185371108,0,0,0,55.1, -2.7, 2.2,0,0,1024,1024,1024,1024,0,0,0,0,65.7,0,0,74,3.974,3.968,0,0,0,0,4.334,77.9,46.8625261059,4.593176,6,P-GPS,
11100,2022-08-11 22:37:44,-34.9227480590883,-56.1513775629216,4.593176,10.5971132,36.2654129059,46.8625261059,5.905512,0,9.930610554,15.318077918,20,5,7.946,47.1906101059,4.92126,3.4896264,11.4185371108,0,0,0,55.2, -2.1, 2.8,0,0,1024,1024,1024,1024,0,0,0,0,65.7,0,0,74,3.974,3.968,0,0,0,0,4.334,77.9,46.8625261059,4.593176,6,P-GPS,
11200,2022-08-11 22:37:44,-34.9227480435611,-56.1513774379653,4.593176,10.66273,36.1997961059,46.8625261059,5.905512,0,9.9524937568,15.3559060032,20,5,7.94,47.1906101059,4.92126,3.4896264,11.4185371108,0,0,0,55.1, -2.2, 2.4,0,0,1024,1024,1024,1024,0,0,0,0,65.7,0,0,74,3.972,3.968,0,0,0,0,4.295,78.08,46.8625261059,4.593176,6,P-GPS,
11300,2022-08-11 22:37:44,-34.9227480312973,-56.1513773077351,4.593176,10.66273,36.1997961059,46.8625261059,5.905512,0,9.9764438888,15.3951120412,20,5,7.94,47.1906101059,4.92126,3.4896264,11.4185371108,0,0,0,55.1, -2.4, 2.1,0,0,1024,1024,1024,1024,0,0,0,0,65.7,0,0,74,3.972,3.968,0,0,0,0,4.295,78.08,46.8625261059,4.593176,6,P-GPS,
11400,2022-08-11 22:37:45,-34.9227480342057,-56.1513771666867,4.593176,10.66273,36.1997961059,46.8625261059,5.905512,0,10.0066604252,15.437336452,20,5,7.94,47.1906101059,4.92126,3.4896264,11.4185371108,0,0,0,55.1, -2.5, 1.8,0,0,1024,1024,1024,603,0,0,0,-64,65.7,0,0,74,3.972,3.968,0,0,0,0,4.295,78.08,46.8625261059,4.593176,6,P-GPS,
11500,2022-08-11 22:37:45,-34.9227477842786,-56.1513768433667,4.593176,10.66273,36.1997961059,46.8625261059,5.905512,0,10.0101053072,15.5702432804,20,5,7.94,47.1906101059,4.92126,3.4896264,11.4185371108,0,0,0,55.1, -2.2, 2.4,0,0,1024,1024,1024,364,0,0,0,-100,65.3,0,0,74,3.972,3.968,0,0,0,0,4.295,78.08,46.8625261059,4.593176,6,P-GPS,
11600,2022-08-11 22:37:45,-34.9227477297257,-56.1513766745541,4.593176,10.66273,36.1997961059,46.8625261059,5.905512,0.223694,10.0320213184,15.6245411824,20,5,7.94,47.1906101059,4.92126,3.4896264,11.4185371108,0,0.223694,0,53.9, -2.2, 2.3,0,0,1024,1024,1024,364,0,0,0,-100,62.2,0,0,74,3.972,3.968,0,0,0,0,4.295,78.08,46.8625261059,4.593176,6,P-GPS,
11700,2022-08-11 22:37:45,-34.922747657444,-56.1513765195322,4.593176,10.66273,36.1997961059,46.8625261059,5.905512,0.223694,10.0467194816,15.6778876408,20,5,7.94,47.1906101059,4.92126,3.4896264,11.4185371108,0,0.223694,0,50, -2.1, 2.1,0,0,1024,1024,1024,937,0,0,0,-13,57.7,0,0,74,3.972,3.968,0,0,0,0,4.295,78.08,46.8625261059,4.593176,6,P-GPS,
11800,2022-08-11 22:37:45,-34.9227476053061,-56.1513763414334,4.593176,10.6955384,36.1669877059,46.8625261059,5.905512,0.223694,10.0717194824,15.7344493224,20,5,7.94,47.1906101059,4.92126,3.4896264,11.4185371108,0,0.223694,0,45.4, -1.8, 1.3,0,0,1024,1024,1024,1024,0,0,0,0,53.9,0,0,74,3.972,3.968,0,0,0,0,4.295,78.08,46.8625261059,4.593176,6,P-GPS,
11900,2022-08-11 22:37:45,-34.9227473283078,-56.1513760952483,4.593176,10.498688,36.3638381059,46.8625261059,5.905512,0.223694,10.0553480908,15.8595149432,20,5,7.94,47.1906101059,4.92126,3.4896264,11.4185371108,0,0.223694,0,42.8, -1.5, 0.6,0,0,1024,1024,1024,1024,0,0,0,0,52.5,0,0,74,3.972,3.968,0,0,0,0,4.295,78.08,46.8625261059,4.593176,6,P-GPS,
12000,2022-08-11 22:37:45,-34.9227472915668,-56.1513758989103,4.593176,10.498688,36.3638381059,46.8625261059,5.905512,0.223694,10.0890423176,15.9197511656,21,5,7.94,47.1906101059,4.92126,3.4896264,11.4185371108,0,0.223694,0,41.9, -1.4, 0.8,0,0,1024,1024,1024,1024,0,0,0,0,52,0,0,74,3.972,3.968,0,0,0,0,4.295,78.08,46.8625261059,4.593176,6,P-GPS,
12100,2022-08-11 22:37:45,-34.9227472855692,-56.1513757291482,4.593176,10.498688,36.3638381059,46.8625261059,5.905512,0.223694,10.1248034736,15.9705713772,21,5,7.94,47.1906101059,4.92126,3.4896264,11.4185371108,0,0.223694,0,41.6, -1.1, 0.9,0,0,1024,1024,1024,1024,0,0,0,0,52,0,0,74,3.972,3.968,0,0,0,0,4.295,78.08,46.8625261059,4.593176,6,P-GPS,
12200,2022-08-11 22:37:45,-34.9227472859845,-56.1513755650138,4.593176,10.498688,36.3638381059,46.8625261059,5.905512,0,10.1609911388,16.019685552,21,5,7.932,47.1906101059,4.92126,3.4896264,11.4185371108,0,0,0,41.5, -1.1, 0.5,0,0,1024,1024,1024,1024,0,0,0,0,52,0,0,74,3.967,3.962,0,0,0,0,4.29,78.08,46.8625261059,4.593176,6,P-GPS,
12300,2022-08-11 22:37:45,-34.9227472367534,-56.1513754383805,4.593176,10.5314964,36.3310297059,46.8625261059,5.905512,0,10.1768047876,16.0616146872,21,5,7.932,47.1906101059,4.92126,3.4896264,11.4185371108,0,0,0,41.3, -1.4, 0.6,0,0,1024,1024,1024,1024,0,0,0,0,52,0,0,74,3.967,3.962,0,0,0,0,4.29,78.08,46.8625261059,4.593176,6,P-GPS,
12400,2022-08-11 22:37:46,-34.9227472166926,-56.1513753307152,4.593176,10.5314964,36.3310297059,46.8625261059,5.905512,0,10.195702426,16.0946199376,21,5,7.932,47.1906101059,4.92126,3.4896264,11.4185371108,0,0,0,41.4, -1.5, 1,0,0,1024,1024,1024,1024,0,0,0,0,52,0,0,74,3.967,3.962,0,0,0,0,4.29,78.08,46.8625261059,4.593176,6,P-GPS,
12500,2022-08-11 22:37:46,-34.9227471603891,-56.1513751652578,4.593176,10.5314964,36.3310297059,46.8625261059,5.905512,0,10.2187011144,16.1482288632,21,5,7.932,47.1906101059,4.92126,3.4896264,11.4185371108,0,0,0,41.5, -1.3, 1.4,0,0,1024,1024,1024,1024,0,0,0,0,52,0,0,74,3.967,3.962,0,0,0,0,4.29,78.08,46.8625261059,4.593176,6,P-GPS,
12600,2022-08-11 22:37:46,-34.9227471031135,-56.1513750012227,4.593176,10.5314964,36.3310297059,46.8625261059,5.905512,0,10.2413389104,16.2015425132,21,5,7.932,47.1906101059,4.92126,3.4896264,11.4185371108,0,0,0,41.4, -1.2, 1.4,0,0,1024,1024,1024,1024,0,0,0,0,52,0,0,74,3.967,3.962,0,0,0,0,4.29,78.08,46.8625261059,4.593176,6,P-GPS,
12700,2022-08-11 22:37:46,-34.9227470360118,-56.1513745549329,4.593176,10.5314964,36.3310297059,46.8625261059,5.905512,0,10.3253612228,16.3373036724,21,5,7.932,47.1906101059,4.92126,3.4896264,11.4185371108,0,0,0,41.4, -0.9, 1.5,0,0,1024,1024,1412,1024,0,0,59,0,52,0,0,74,3.967,3.962,0,0,0,0,4.29,78.08,46.8625261059,4.593176,6,P-GPS,
12800,2022-08-11 22:37:46,-34.9227470334405,-56.1513743693387,4.593176,10.5971132,36.2654129059,46.8625261059,5.905512,0,10.3666669984,16.3928154852,21,5,7.932,47.1906101059,4.92126,3.4896264,11.4185371108,0,0,0,41.5, -0.8, 1.7,0,0,1024,1024,1684,1024,0,0,100,0,52,0,0,74,3.967,3.962,0,0,0,0,4.29,78.08,46.8625261059,4.593176,6,P-GPS,
12900,2022-08-11 22:37:46,-34.9227469616115,-56.1513741641522,4.593176,10.5971132,36.2654129059,46.8625261059,6.233596,0,10.3960961332,16.4595477708,21,5,7.932,47.1906101059,4.92126,3.4896264,11.4185371108,0,0,-0.447388,41.5, -1.4, 1.5,0,0,1024,1024,1684,1024,0,0,100,0,52,0,0,74,3.967,3.962,0,0,0,0,4.29,78.08,46.8625261059,4.593176,6,P-GPS,
13000,2022-08-11 22:37:46,-34.9227468952068,-56.151373956872,4.92126,10.9251972,36.2654129059,47.1906101059,6.233596,0,10.427657814,16.5261488228,21,5,7.932,47.1906101059,4.92126,3.4896264,11.4185371108,0,0,-1.342164,41.5, -1.4, 0.8,0,0,1024,1024,1684,1024,0,0,100,0,52,0,0,74,3.967,3.962,0,0,0,0,4.29,78.08,47.1906101059,4.92126,6,P-GPS,
13100,2022-08-11 22:37:46,-34.9227469087734,-56.151373836018,5.249344,11.2532812,36.2654129059,47.5186941059,6.56168,0,10.4584649016,16.5626317636,21,5,7.932,47.5186941059,5.249344,3.4896264,11.4185371108,0,0,-2.013246,41.5, -1.7, 1.3,0,0,1024,1024,1684,1024,0,0,100,0,52,0,0,74,3.967,3.962,0,0,0,0,4.29,78.08,47.5186941059,5.249344,6,P-GPS,
13200,2022-08-11 22:37:46,-34.9227468571647,-56.1513735644913,5.577428,11.5813652,36.2654129059,47.8467781059,6.889764,0,10.508694562,16.645997908,21,5,7.928,47.8467781059,5.577428,3.4896264,11.4185371108,0,0,-2.908022,41.4, -2.1, 1.4,0,0,1024,1024,1684,1024,0,0,100,0,52,0,0,74,3.942,3.918,0,0,0,0,4.302,78.08,47.8467781059,5.577428,6,P-GPS,
13300,2022-08-11 22:37:46,-34.9227468477474,-56.1513734984332,6.233596,12.2703416,36.2326045059,48.5029461059,7.545932,0,10.5216866884,16.6660766488,21,5,7.928,48.5029461059,6.233596,3.4896264,11.4185371108,0,0,-3.579104,41.5, -1.7, 1,0,0,1024,1024,1684,1024,0,0,100,0,52,0,0,74,3.942,3.918,0,0,0,0,4.302,78.08,48.5029461059,6.233596,6,P-GPS,
13400,2022-08-11 22:37:47,-34.9227468345228,-56.1513734237904,6.889764,12.9265096,36.2326045059,49.1591141059,8.2021,0,10.5358271088,16.6889112952,19,5,7.928,49.1591141059,6.889764,3.4896264,11.4185371108,0,0,-4.47388,41.5, -1.4, 1.5,0,0,1024,1024,1085,1024,0,0,9,0,52,0,0,74,3.942,3.918,0,0,0,0,4.302,78.08,49.1591141059,6.889764,6,P-GPS,
13500,2022-08-11 22:37:47,-34.9227468422482,-56.1513732004561,7.545932,13.5826776,36.2326045059,49.8152821059,8.858268,0,10.5892063756,16.7557748144,19,5,7.928,49.8152821059,7.545932,3.4896264,11.4185371108,0,0,-4.921268,41.3, -1.4, 1.3,0,0,1024,1024,1024,1024,0,0,0,0,52,0,0,74,3.942,3.918,0,0,0,0,4.302,78.08,49.8152821059,7.545932,6,P-GPS,
13600,2022-08-11 22:37:47,-34.9227468512942,-56.1513729143942,8.2021,14.2388456,36.2326045059,50.4714501059,9.514436,0,10.6576118896,16.8414047384,20,5,7.928,50.4714501059,8.2021,3.4896264,11.4185371108,0,0,-4.250186,41.3, -1.7, 0.7,0,0,1024,1024,1024,1024,0,0,0,0,52,0,0,74,3.942,3.918,0,0,0,0,4.302,78.08,50.4714501059,8.2021,6,P-GPS,
13700,2022-08-11 22:37:47,-34.9227468687804,-56.1513727658987,8.858268,14.8950136,36.2326045059,51.1276181059,9.84252,0,10.6961289512,16.8862866296,20,5,7.928,51.1276181059,8.858268,3.4896264,11.4185371108,0,0,-3.579104,41.3, -1.5, 0.7,0,0,1024,1024,1024,1024,0,0,0,0,52,0,0,74,3.942,3.918,0,0,0,0,4.302,78.08,51.1276181059,8.858268,6,P-GPS,
13800,2022-08-11 22:37:47,-34.9227468887435,-56.151372615064,9.514436,15.5511816,36.2326045059,51.7837861059,10.498688,0,10.7358271152,16.9319887308,20,5,7.928,51.7837861059,9.514436,3.4896264,11.4185371108,0,0,-2.908022,41.3, -1.7, 1,0,0,1024,1024,1024,1024,0,0,0,0,52,0,0,74,3.942,3.918,0,0,0,0,4.302,78.08,51.7837861059,9.514436,6,P-GPS,
13900,2022-08-11 22:37:47,-34.9227469583546,-56.1513727043805,9.84252,15.8792656,36.2326045059,52.1118701059,10.826772,0,10.7310042804,16.9688653724,20,5,7.928,52.1118701059,9.84252,3.4896264,11.4185371108,0,0,-2.013246,41.4, -1.1, 1.8,0,0,1024,1024,1024,1024,0,0,0,0,52,0,0,74,3.942,3.918,0,0,0,0,4.302,78.08,52.1118701059,9.84252,6,P-GPS,
14000,2022-08-11 22:37:47,-34.9227471332609,-56.1513732066456,9.84252,15.8792656,36.2326045059,52.1118701059,10.826772,0,10.6554137268,17.1321199708,20,5,7.928,52.1118701059,9.84252,3.4896264,11.4185371108,0,0,-1.342164,41.3, -1.4, 2.3,0,0,1024,1024,1024,1024,0,0,0,0,52,0,0,74,3.942,3.918,0,0,0,0,4.302,78.08,52.1118701059,9.84252,6,P-GPS,
14100,2022-08-11 22:37:47,-34.9227472419953,-56.1513732196461,10.170604,16.2073496,36.2326045059,52.4399541059,11.154856,0,10.6778546724,17.1719821768,20,5,7.928,52.4399541059,10.170604,3.4896264,11.4185371108,0,0,-0.671082,41.2, -1.7, 2.6,0,0,1024,1024,1024,1024,0,0,0,0,52,0,0,74,3.942,3.918,0,0,0,0,4.302,78.08,52.4399541059,10.170604,6,P-GPS,
14200,2022-08-11 22:37:47,-34.9227473730997,-56.1513732007004,10.170604,16.2073496,36.2326045059,52.4399541059,11.154856,0.223694,10.7129924688,17.220144908,19,5,7.928,52.4399541059,10.170604,3.4896264,11.4185371108,-0.223694,0,-0.447388,41.2, -2, 1.8,0,0,1024,1024,1024,1024,0,0,0,0,52,0,0,74,3.942,3.918,0,0,0,0,4.302,78.08,52.4399541059,10.170604,6,P-GPS,
14300,2022-08-11 22:37:47,-34.9227474923816,-56.1513732098937,10.170604,16.2073496,36.2326045059,52.4399541059,11.154856,0.223694,10.7389767216,17.2637472716,19,5,7.915,52.4399541059,10.170604,3.4896264,11.4185371108,-0.223694,0,-0.223694,41.3, -2.1, 1.4,0,0,1024,1024,1024,1024,0,0,0,0,52,0,0,74,3.98,3.974,0,0,0,0,5.782,78.08,52.4399541059,10.170604,6,P-GPS,
14400,2022-08-11 22:37:48,-34.9227477081651,-56.1513734921341,10.498688,16.7650924,36.0029457059,52.7680381059,11.154856,0.223694,10.7261814456,17.3792000312,20,5,7.915,52.7680381059,10.498688,3.4896264,11.4185371108,-0.223694,0,0,41.3, -2, 1.2,0,0,1024,1024,1024,1024,0,0,0,0,52,0,0,74,3.98,3.974,0,0,0,0,5.782,78.08,52.7680381059,10.498688,6,P-GPS,
14500,2022-08-11 22:37:48,-34.9227477147147,-56.1513733796885,10.498688,16.7650924,36.0029457059,52.7680381059,11.154856,0,10.7531827588,17.412894258,20,5,7.915,52.7680381059,10.498688,3.4896264,11.4185371108,0,0,0,41.2, -1.4, 0.6,0,0,1024,1024,1024,1024,0,0,0,0,52,0,0,74,3.98,3.974,0,0,0,0,5.782,78.08,52.7680381059,10.498688,6,P-GPS,
14600,2022-08-11 22:37:48,-34.9227477163562,-56.1513732575755,10.498688,16.7650924,36.0029457059,52.7680381059,11.154856,0.3131716,10.7812339408,17.4494428156,20,5,7.915,52.7680381059,10.498688,3.4896264,11.4185371108,-0.223694,0.223694,0,41.2, -1.2, 0,0,0,1024,1024,1230,1024,0,0,31,0,52,0,0,74,3.98,3.974,0,0,0,0,5.782,78.08,52.7680381059,10.498688,6,P-GPS,
14700,2022-08-11 22:37:48,-34.9227478345389,-56.1513729491956,10.498688,16.7650924,36.0029457059,52.7680381059,11.154856,0,10.8793310568,17.5512800892,20,5,7.915,52.7680381059,10.498688,3.4896264,11.4185371108,0,0,0,41.3, -0.6, -0.4,0,0,1024,1024,1618,1024,0,0,90,0,52,0,0,74,3.98,3.974,0,0,0,0,5.782,78.08,52.7680381059,10.498688,6,P-GPS,
14800,2022-08-11 22:37:48,-34.9227479464944,-56.1513726559895,10.498688,16.7650924,36.0029457059,52.7680381059,11.48294,0,10.9725397212,17.6480320608,20,5,7.915,52.7680381059,10.498688,3.4896264,11.4185371108,0,0,-0.447388,41.5, -1.1, -0.9,0,0,1024,1024,1684,1024,0,0,100,0,52,0,0,74,3.98,3.974,0,0,0,0,5.782,78.08,52.7680381059,10.498688,6,P-GPS,
14900,2022-08-11 22:37:48,-34.9227481094626,-56.1513718791429,10.826772,17.1587932,35.9373289059,53.0961221059,11.48294,0,11.1885174184,17.8878942732,20,5,7.915,53.0961221059,10.826772,3.4896264,11.4185371108,0,0,-1.11847,41.6, 0, -1.4,0,0,1024,1024,1684,1024,0,0,100,0,52,0,0,74,3.98,3.974,0,0,0,0,5.782,78.08,53.0961221059,10.826772,6,P-GPS,
15000,2022-08-11 22:37:48,-34.9227482063241,-56.151371713069,10.826772,17.1587932,35.9373289059,53.0961221059,11.811024,0,11.2492785752,17.9488850888,20,5,7.915,53.0961221059,10.826772,3.4896264,11.4185371108,0,0,-2.013246,41.6, -0.5, -0.1,0,0,1024,1024,1684,1024,0,0,100,0,52,0,0,74,3.98,3.974,0,0,0,0,5.782,78.08,53.0961221059,10.826772,6,P-GPS,
15100,2022-08-11 22:37:48,-34.9227482930713,-56.1513717033454,11.48294,17.8149612,35.9373289059,53.7522901059,12.139108,0,11.2718507544,17.9806764284,20,5,7.915,53.7522901059,11.48294,3.4896264,11.4185371108,0,0,-2.684328,41.7, -0.7, 0.1,0,0,1024,1024,1684,1024,0,0,100,0,52,0,0,74,3.98,3.974,0,0,0,0,5.782,78.08,53.7522901059,11.48294,6,P-GPS,
15200,2022-08-11 22:37:48,-34.9227483742883,-56.1513717226843,11.811024,18.1430452,35.9373289059,54.0803741059,12.467192,0,11.2864833008,18.0108601564,21,5,7.915,54.0803741059,11.811024,3.4896264,11.4185371108,0,0,-3.579104,41.8, -0.9, 0.1,0,0,1024,1024,1684,1024,0,0,100,0,52,0,0,74,3.98,3.974,0,0,0,0,5.782,78.08,54.0803741059,11.811024,6,P-GPS,
15300,2022-08-11 22:37:48,-34.9227484703258,-56.1513720680924,12.467192,18.7992132,35.9373289059,54.7365421059,13.12336,0,11.2304137452,18.1199480864,21,5,7.922,54.7365421059,12.467192,3.4896264,11.4185371108,0,0,-4.47388,41.6, -1, 0.3,0,0,1024,1024,1684,1024,0,0,100,0,52,0,0,74,3.923,3.919,0,0,0,0,4.002,78.08,54.7365421059,12.467192,6,P-GPS,
15400,2022-08-11 22:37:49,-34.9227485082929,-56.151372206637,13.12336,19.6522316,35.7404785059,55.3927101059,13.779528,0,11.208005608,18.1636488752,20,5,7.922,55.3927101059,13.12336,3.4896264,11.4185371108,0,0,-5.144962,41.5, -1.2, 0.3,0,0,1024,1024,1684,1024,0,0,100,0,52,0,0,74,3.923,3.919,0,0,0,0,4.002,78.08,55.3927101059,13.12336,6,P-GPS,
15500,2022-08-11 22:37:49,-34.9227485175425,-56.1513722938403,14.107612,20.6364836,35.7404785059,56.3769621059,14.76378,0,11.1904859224,18.189961212,20,5,7.922,56.3769621059,14.107612,3.4896264,11.4185371108,0,0,-5.816044,41.4, -0.9, 0.1,0,0,1024,1024,1527,1024,0,0,76,0,52,0,0,74,3.923,3.919,0,0,0,0,4.002,78.08,56.3769621059,14.107612,6,P-GPS,
15600,2022-08-11 22:37:49,-34.9227485308615,-56.1513724029815,14.76378,21.2926516,35.7404785059,57.0331301059,15.419948,0.223694,11.1689964204,18.2229664624,20,5,7.922,57.0331301059,14.76378,3.4896264,11.4185371108,0,-0.223694,-6.039738,41.4, -1.5, 1,0,0,1024,1024,1359,1024,0,0,51,0,52,0,0,74,3.923,3.919,0,0,0,0,4.002,78.08,57.0331301059,14.76378,6,P-GPS,
15700,2022-08-11 22:37:49,-34.9227482468072,-56.1513728318654,15.748032,22.0144364,36.0029457059,58.0173821059,16.4042,0.223694,11.0041998272,18.3878942892,20,5,7.922,58.0173821059,15.748032,3.4896264,11.4185371108,0,-0.223694,-5.59235,41.3, -2, 1.6,0,0,1024,1024,1611,1024,0,0,89,0,52,0,0,74,3.923,3.919,0,0,0,0,4.002,78.08,58.0173821059,15.748032,6,P-GPS,
15800,2022-08-11 22:37:49,-34.9227482005594,-56.1513730379439,16.4042,22.6706044,36.0029457059,58.6735501059,17.060368,0.447388,10.9466538936,18.4518050524,20,5,7.922,58.6735501059,16.4042,3.4896264,11.4185371108,0,-0.447388,-4.921268,41.4, -2.4, 3.1,0,0,1024,1024,1684,1024,0,0,100,0,52,0,0,74,3.923,3.919,0,0,0,0,4.002,78.08,58.6735501059,16.4042,6,P-GPS,
15900,2022-08-11 22:37:49,-34.9227482141536,-56.1513732174754,17.388452,23.6548564,36.0029457059,59.6578021059,17.716536,0.223694,10.9095804016,18.505742062,20,5,7.922,59.6578021059,17.388452,3.4896264,11.4185371108,0,-0.223694,-5.144962,41.4, -2.2, 2.9,0,0,1024,1024,1684,1024,0,0,100,0,52,0,0,74,3.923,3.919,0,0,0,0,4.002,78.08,59.6578021059,17.388452,6,P-GPS,
16000,2022-08-11 22:37:49,-34.9227482553028,-56.1513733474667,18.372704,24.6391084,36.0029457059,60.6420541059,18.372704,0.447388,10.8903874876,18.5474415384,20,5,7.922,60.6420541059,18.372704,3.4896264,11.4185371108,0,-0.447388,-5.59235,41.3, -3.2, 3,0,0,1024,1024,1684,1024,0,0,100,0,52,0,0,74,3.923,3.919,0,0,0,0,4.002,78.08,60.6420541059,18.372704,6,P-GPS,
16100,2022-08-11 22:37:49,-34.9227482169659,-56.1513747013022,19.028872,25.1968512,36.1013709059,61.2982221059,19.356956,0.223694,10.5813323596,18.9526908952,20,5,7.922,61.2982221059,19.028872,3.4896264,11.4185371108,0,-0.223694,-6.039738,41.3, -3.7, 2.7,0,0,1024,1024,1684,1024,0,0,100,0,52,0,0,74,3.923,3.919,0,0,0,0,4.002,78.08,61.2982221059,19.028872,6,P-GPS,
16200,2022-08-11 22:37:49,-34.922748280485,-56.1513751404739,20.013124,26.1811032,36.1013709059,62.2824741059,20.013124,0.3131716,10.5015751392,19.0860898496,20,5,7.922,62.2824741059,20.013124,3.4896264,11.4185371108,-0.223694,-0.223694,-6.263432,41.3, -4.6, 3.8,0,0,1024,1024,1684,1024,0,0,100,0,52,0,0,74,3.923,3.919,0,0,0,0,4.002,78.08,62.2824741059,20.013124,6,P-GPS,
16300,2022-08-11 22:37:49,-34.922748524592,-56.1513751366942,20.997376,27.395014,35.8717121059,63.2667261059,20.997376,0.223694,10.563976716,19.1751646556,20,5,7.845,63.2667261059,20.997376,3.4896264,11.4185371108,-0.223694,0,-6.487126,41.3, -4.1, 2.6,0,0,1024,1024,1684,1024,0,0,100,0,52,0,0,74,3.927,3.886,0,0,0,0,5.988,78.08,63.2667261059,20.997376,6,P-GPS,
16400,2022-08-11 22:37:49,-34.9227487825213,-56.1513750776235,22.309712,28.70735,35.8717121059,64.5790621059,21.981628,0.223694,10.6421263248,19.2708995668,20,5,7.845,64.5790621059,22.309712,3.4896264,11.4185371108,-0.223694,0,-6.487126,41.4, -4.6, 2.4,0,0,1024,1024,1684,1024,0,0,100,0,52,0,0,74,3.927,3.886,0,0,0,0,5.988,78.08,64.5790621059,22.309712,6,P-GPS,
16500,2022-08-11 22:37:50,-34.922748948844,-56.1513747645392,23.293964,29.691602,35.8717121059,65.5633141059,22.96588,0.223694,10.7515751472,19.3825137436,20,5,7.845,65.5633141059,23.293964,3.4896264,11.4185371108,-0.223694,0,-6.487126,41.3, -2.6, 1.7,0,0,1024,1024,1684,1024,0,0,100,0,52,0,0,74,3.927,3.886,0,0,0,0,5.988,78.08,65.5633141059,23.293964,6,P-GPS,
16600,2022-08-11 22:37:50,-34.9227493707511,-56.1513739442659,24.278216,30.7086624,35.8389037059,66.5475661059,23.950132,0.223694,11.03510534,19.6721791072,20,5,7.845,66.5475661059,24.278216,3.4896264,11.4185371108,-0.223694,0,-6.71082,41.3, -3.2, 0.4,0,0,1024,1024,1684,1024,0,0,100,0,52,0,0,74,3.927,3.886,0,0,0,0,5.988,78.08,66.5475661059,24.278216,6,P-GPS,
16700,2022-08-11 22:37:50,-34.9227494987126,-56.151373548031,25.262468,31.6929144,35.8389037059,67.5318181059,24.934384,0.223694,11.1530843464,19.7995741244,20,5,7.845,67.5318181059,25.262468,3.4896264,11.4185371108,-0.223694,0,-6.71082,41.5, -3.4, 0.4,0,0,1024,1024,1684,1024,0,0,100,0,52,0,0,74,3.927,3.886,0,0,0,0,5.988,78.08,67.5318181059,25.262468,6,P-GPS,
16800,2022-08-11 22:37:50,-34.9227496279882,-56.1513731380054,26.24672,32.972442,35.5436281059,68.5160701059,26.24672,0,11.27460666,19.9309717664,21,5,7.845,68.5160701059,26.24672,3.4896264,11.4185371108,0,0,-6.71082,41.5, -3.4, 0.5,0,0,1024,1024,1684,1024,0,0,100,0,52,0,0,74,3.927,3.886,0,0,0,0,5.988,78.08,68.5160701059,26.24672,6,P-GPS,
16900,2022-08-11 22:37:50,-34.9227497129214,-56.1513727374513,27.230972,33.956694,35.5436281059,69.5003221059,27.559056,0,11.3832352724,20.0547578596,21,5,7.845,69.5003221059,27.230972,3.4896264,11.4185371108,0,0,-6.71082,41.5, -2.8, 0.1,0,0,1024,1024,1684,1024,0,0,100,0,52,0,0,74,3.927,3.886,0,0,0,0,5.988,78.08,69.5003221059,27.230972,6,P-GPS,
17000,2022-08-11 22:37:50,-34.9227496686537,-56.1513718246278,28.543308,35.3018384,35.5108197059,70.8126581059,28.543308,0,11.5736880344,20.3282814904,21,5,7.845,70.8126581059,28.543308,3.4896264,11.5736880344,0,0,-6.71082,41.5, -2.8, 0.2,0,0,1024,1024,1684,1024,0,0,100,0,52,0,0,74,3.927,3.886,0,0,0,0,5.988,78.08,70.8126581059,28.543308,6,P-GPS,
