time(millisecond),datetime(utc),latitude,longitude,height_above_takeoff(feet),height_above_ground_at_drone_location(feet),ground_elevation_at_drone_location(feet),altitude_above_seaLevel(feet),height_sonar(feet),speed(mph),distance(feet),mileage(feet),satellites,gpslevel,voltage(v),max_altitude(feet),max_ascent(feet),max_speed(mph),max_distance(feet), xSpeed(mph), ySpeed(mph), zSpeed(mph), compass_heading(degrees), pitch(degrees), roll(degrees),isPhoto,isVideo,rc_elevator,rc_aileron,rc_throttle,rc_rudder,rc_elevator(percent),rc_aileron(percent),rc_throttle(percent),rc_rudder(percent),gimbal_heading(degrees),gimbal_pitch(degrees),gimbal_roll(degrees),battery_percent,voltageCell1,voltageCell2,voltageCell3,voltageCell4,voltageCell5,voltageCell6,current(A),battery_temperature(f),altitude(feet),ascent(feet),flycStateRaw,flycState,message
0,2022-10-27 21:24:36,-34.9108258439402,-56.1438404435031,0,0,38.629280435612,38.629280435612,0.328084,0,0,0,21,5,0,38.629280435612,0,0,0,0,0,0,133.2, -6.1, 3.1,0,0,364,364,364,1684,-100,-100,-100,100,144.2,0,0,55,3.916,3.914,0,0,0,0,0,96.26,38.629280435612,0,41,Motors_Started,"Aeronave en Zona de altitud restringida (150). Vuela con precauci贸n (Code: 190001). Error de calibraci贸n del estabilizador. Reinicia la aeronave o contacta con la Asistencia DJI (Code: 40011)"
100,2022-10-27 21:24:36,-34.9108259866342,-56.1438401955931,0,0,38.629280435612,38.629280435612,0.328084,0,0.090620409724,0.090620409724,21,5,0,38.629280435612,0,0,0.090620409724,0,0,0,133.8, -5.8, 3,0,0,1024,828,364,1552,0,-30,-100,80,144.2,0,0,55,3.916,3.914,0,0,0,0,0,96.26,38.629280435612,0,41,Motors_Started,
200,2022-10-27 21:24:36,-34.9108260412392,-56.1438401520464,0,0,38.629280435612,38.629280435612,0.328084,0,0.113074806768,0.114424872428,20,5,0,38.629280435612,0,0,0.113074806768,0,0,0,134.6, -5.1, 2.7,0,0,1024,828,364,1552,0,-30,-100,80,144.6,0,0,55,3.916,3.914,0,0,0,0,0,96.26,38.629280435612,0,41,Motors_Started,
300,2022-10-27 21:24:37,-34.9108260886937,-56.1438402017323,0,0,38.629280435612,38.629280435612,0.328084,0,0.114920279268,0.137245083132,20,5,0,38.629280435612,0,0,0.114920279268,0,0,0,134.6, -5, 2.5,0,0,1024,1024,1091,1024,0,0,10,0,144.9,0,0,55,3.916,3.914,0,0,0,0,0,96.26,38.629280435612,0,41,Motors_Started,
400,2022-10-27 21:24:37,-34.9108261401981,-56.1438402501623,0,0,38.629280435612,38.629280435612,0.328084,0,0.122594820196,0.160974086516,21,5,0,38.629280435612,0,0,0.122594820196,0,0,0,134.3, -5.1, 2.8,0,0,1024,1024,1684,1024,0,0,100,0,145,0,0,55,3.916,3.914,0,0,0,0,0,96.26,38.629280435612,0,41,Motors_Started,
500,2022-10-27 21:24:37,-34.910826149144,-56.1438403440408,0,0,38.629280435612,38.629280435612,0.328084,0,0.115261158544,0.189250990308,21,5,0,38.629280435612,0,0,0.122594820196,0,0,0,134.5, -5.1, 2.4,0,0,1024,1024,1684,928,0,0,100,-15,145,0,0,55,3.916,3.914,0,0,0,0,0,96.26,38.629280435612,0,41,Motors_Started,
600,2022-10-27 21:24:37,-34.9108261103333,-56.1438406966709,-0.328084,-0.4265092,38.727705635612,38.301196435612,0.328084,0,0.12322342914,0.295701124948,21,5,0,38.629280435612,0,0,0.12322342914,0,0,0,134.8, -5.7, 2.4,0,0,1024,1024,1684,995,0,0,100,-4,145.1,0,0,55,3.916,3.914,0,0,0,0,0,96.26,38.301196435612,-0.328084,41,Motors_Started,
700,2022-10-27 21:24:37,-34.9108261279579,-56.1438408018386,-0.328084,-0.4265092,38.727705635612,38.301196435612,0.328084,0,0.14910433548,0.327816939624,21,5,0,38.629280435612,0,0,0.14910433548,0,0,0,134.4, -5.3, 3,0,0,1024,1024,1684,1003,0,0,100,-3,145.2,0,0,55,3.916,3.914,0,0,0,0,0,96.26,38.301196435612,-0.328084,41,Motors_Started,
800,2022-10-27 21:24:37,-34.9108261500592,-56.1438408757581,-0.328084,-0.4265092,38.727705635612,38.301196435612,0.328084,0,0.170878942476,0.35135827896,21,5,0,38.629280435612,0,0,0.170878942476,0,0,0,134.2, -5.9, 3.1,0,0,1024,1024,1684,1005,0,0,100,-3,145.1,0,0,55,3.916,3.914,0,0,0,0,0,96.26,38.301196435612,-0.328084,41,Motors_Started,
900,2022-10-27 21:24:37,-34.9108261831988,-56.1438408454657,-0.328084,-0.4265092,38.727705635612,38.301196435612,0.328084,0,0.17258202652,0.36646654716,21,5,7.836,38.629280435612,0,0,0.17258202652,0,0,0.223694,134, -7.2, 2.7,0,0,1024,1024,1684,1024,0,0,100,0,145,0,0,55,3.916,3.914,0,0,0,0,0.863,96.26,38.301196435612,-0.328084,41,Motors_Started,"Setting new Return-To-Home altitude to 100m (328 ft). Data Recorder File Index is 63. Setting new Maximum Flight Altitude to 120m (394 ft)"
1000,2022-10-27 21:24:37,-34.9108261469285,-56.1438408527143,-0.328084,-0.4265092,38.727705635612,38.301196435612,0.328084,0,0.164954729688,0.37987862108,21,5,7.836,38.629280435612,0,0,0.17258202652,0,0,0,133.9, -7.4, 2.8,0,0,1024,1024,1684,1024,0,0,100,0,144.9,0,0,55,3.916,3.914,0,0,0,0,0.863,96.26,38.301196435612,-0.328084,41,Motors_Started,
1100,2022-10-27 21:24:37,-34.9108261612873,-56.1438408361845,-0.328084,-0.4265092,38.727705635612,38.301196435612,0.328084,0,0.164952105016,0.38708334572,21,5,7.836,38.629280435612,0,0,0.17258202652,0,0,0,134.1, -7.1, 3,0,0,1024,1024,1684,1024,0,0,100,0,144.8,0,0,55,3.916,3.914,0,0,0,0,0.863,96.26,38.301196435612,-0.328084,10,Assisted_Takeoff,
1200,2022-10-27 21:24:38,-34.9108261737921,-56.1438408223053,-0.328084,-0.4265092,38.727705635612,38.301196435612,0.328084,0,0.16531168508,0.39325132492,21,5,7.836,38.629280435612,0,0,0.17258202652,0,0,0,134, -5.9, 2.1,0,0,1024,1024,1684,1024,0,0,100,0,144.8,0,0,55,3.916,3.914,0,0,0,0,0.863,96.26,38.301196435612,-0.328084,10,Assisted_Takeoff,
1300,2022-10-27 21:24:38,-34.9108261967002,-56.1438407598453,-0.328084,-0.4265092,38.727705635612,38.301196435612,0.328084,0,0.15975886338,0.41372376652,21,5,7.836,38.629280435612,0,0,0.17258202652,0,0,0,134.4, -3.8, 1.5,0,0,1024,1024,1684,1024,0,0,100,0,144.8,0,0,55,3.916,3.914,0,0,0,0,0.863,96.26,38.301196435612,-0.328084,10,Assisted_Takeoff,
1400,2022-10-27 21:24:38,-34.910826194124,-56.143840487706,-0.328084,-0.328084,38.629280435612,38.301196435612,0.328084,0,0.128447182588,0.49515093448,21,5,7.836,38.629280435612,0,0,0.17258202652,0,0,0,134.8, -3.1, 0.6,0,0,1024,1024,1667,1024,0,0,97,0,145,0,0,55,3.916,3.914,0,0,0,0,0.863,96.26,38.301196435612,-0.328084,10,Assisted_Takeoff,
1500,2022-10-27 21:24:38,-34.9108261824815,-56.1438403825579,-0.328084,-0.328084,38.629280435612,38.301196435612,0.328084,0,0.124855318956,0.52689634232,21,5,7.836,38.629280435612,0,0,0.17258202652,0,0,0,134.6, -2.3, -1.3,0,0,1024,1024,1569,1024,0,0,83,0,145.2,0,0,55,3.916,3.914,0,0,0,0,0.863,96.26,38.301196435612,-0.328084,10,Assisted_Takeoff,
1600,2022-10-27 21:24:38,-34.9108261755484,-56.143840252747,-0.328084,-0.328084,38.629280435612,38.301196435612,0.328084,0,0.13377297016,0.56581694724,21,5,7.836,38.629280435612,0,0,0.17258202652,0,0,0,133.2, -2.7, -2.3,0,0,1024,1024,1684,1024,0,0,100,0,144.5,0,0,55,3.916,3.914,0,0,0,0,0.863,96.26,38.301196435612,-0.328084,10,Assisted_Takeoff,
1700,2022-10-27 21:24:38,-34.9108261491782,-56.1438401341601,-0.328084,-0.328084,38.629280435612,38.301196435612,0.328084,0,0.14480479466,0.60257875944,21,5,7.836,38.629280435612,0,0,0.17258202652,0,0,0,131.2, -3.1, -3.3,0,0,1024,1024,1684,1024,0,0,100,0,142.6,0,0,55,3.916,3.914,0,0,0,0,0.863,96.26,38.301196435612,-0.328084,10,Assisted_Takeoff,
1800,2022-10-27 21:24:38,-34.9108260116829,-56.1438398551108,-0.328084,-0.328084,38.629280435612,38.301196435612,0.328084,0.223694,0.186377302552,0.69998033736,21,5,7.83,38.629280435612,0,0.223694,0.186377302552,0,0.223694,0,128.9, -3, -6.3,0,0,1024,1024,1684,1024,0,0,100,0,140.3,0,0,55,3.903,3.9,0,0,0,0,1.665,96.26,38.301196435612,-0.328084,10,Assisted_Takeoff,
1900,2022-10-27 21:24:38,-34.9108259453328,-56.1438396784588,-0.328084,-0.328084,38.629280435612,38.301196435612,0.328084,0.223694,0.231865492984,0.75811354132,21,5,7.83,38.629280435612,0,0.223694,0.231865492984,0,0.223694,-0.223694,126.8, -2.7, -6.1,0,0,1024,1024,1649,1024,0,0,95,0,138,0,0,55,3.903,3.9,0,0,0,0,1.665,96.26,38.301196435612,-0.328084,10,Assisted_Takeoff,"Error de calibraci贸n del estabilizador. Reinicia la aeronave o contacta con la Asistencia DJI (Code: 40011)"
2000,2022-10-27 21:24:38,-34.9108258204246,-56.143839395215,-0.328084,-0.2624672,38.563663635612,38.301196435612,0.328084,0.7158208,0.313757227888,0.85433401684,21,5,7.83,38.629280435612,0,0.7158208,0.313757227888,0.223694,0.671082,-0.671082,126.7, -1.2, -2.5,0,0,1024,1024,1649,1024,0,0,95,0,137.6,0,0,55,3.903,3.9,0,0,0,0,1.665,96.26,38.301196435612,-0.328084,6,P-GPS,"Error de calibraci贸n del estabilizador. Reinicia la aeronave o contacta con la Asistencia DJI (Code: 40011)"
2100,2022-10-27 21:24:38,-34.9108256234138,-56.1438389391752,0,0.065616799999999,38.563663635612,38.629280435612,0.656168,0.8052984,0.4572178624,1.00855318188,21,5,7.83,38.629280435612,0,0.8052984,0.4572178624,0.447388,0.671082,-1.565858,127, 0.6, 2.7,0,0,1024,1024,1024,1024,0,0,0,0,137.6,0,0,55,3.903,3.9,0,0,0,0,1.665,96.26,38.629280435612,0,6,P-GPS,
2200,2022-10-27 21:24:39,-34.9108254424652,-56.1438385184233,0,0.1312336,38.498046835612,38.629280435612,0.984252,0.7158208,0.59430448096,1.15069885572,21,5,7.83,38.629280435612,0,0.8052984,0.59430448096,0.223694,0.671082,-2.23694,126.9, 1, 4.5,0,0,1024,1024,1024,1024,0,0,0,0,137.6,0,0,55,3.903,3.9,0,0,0,0,1.665,96.26,38.629280435612,0,6,P-GPS,
2300,2022-10-27 21:24:39,-34.9108253176588,-56.1438381467887,0.328084,0.5249344,38.432430035612,38.957364435612,1.312336,0.4921268,0.7134842748,1.27085305904,21,5,7.83,38.957364435612,0.328084,0.8052984,0.7134842748,0.223694,0.447388,-2.460634,126.9, 1.2, 4.4,0,0,1024,1024,1024,1024,0,0,0,0,137.6,0,0,55,3.903,3.9,0,0,0,0,1.665,96.26,38.957364435612,0.328084,6,P-GPS,
2400,2022-10-27 21:24:39,-34.910825198254,-56.1438378554969,0.656168,0.8530184,38.432430035612,39.285448435612,1.64042,0.4921268,0.80935698128,1.36828744536,21,5,7.83,39.285448435612,0.656168,0.8052984,0.80935698128,0.223694,0.447388,-2.460634,127, 1.6, 4.3,0,0,1024,1024,1024,1024,0,0,0,0,137.6,0,0,55,3.903,3.9,0,0,0,0,1.665,96.26,39.285448435612,0.656168,6,P-GPS,
2500,2022-10-27 21:24:39,-34.9108250210573,-56.143837571672,0.984252,1.1811024,38.432430035612,39.613532435612,1.968504,0.3131716,0.91017391364,1.47501317056,21,5,7.83,39.613532435612,0.984252,0.8052984,0.91017391364,0.223694,0.223694,-2.013246,127.1, 1.4, 4,0,0,1024,1024,1024,1024,0,0,0,0,137.6,0,0,55,3.903,3.9,0,0,0,0,1.665,96.26,39.613532435612,0.984252,6,P-GPS,
2600,2022-10-27 21:24:39,-34.9108248630787,-56.1438373284605,1.312336,1.6076116,38.334004835612,39.941616435612,3.937008,0.223694,0.9983432078,1.56784125752,21,5,7.83,39.941616435612,1.312336,0.8052984,0.9983432078,0,0.223694,-1.565858,127.1, 1.4, 3.5,0,0,1024,1024,1024,1024,0,0,0,0,137.6,0,0,55,3.903,3.9,0,0,0,0,1.665,96.26,39.941616435612,1.312336,6,P-GPS,
2700,2022-10-27 21:24:39,-34.9108247180128,-56.1438369498388,1.312336,1.6076116,38.334004835612,39.941616435612,4.265092,0.3131716,1.12310042964,1.69287735076,21,5,7.83,39.941616435612,1.312336,0.8052984,1.12310042964,0.223694,0.223694,-0.894776,127.1, 1.1, 3.3,0,0,1024,1024,1024,1024,0,0,0,0,137.6,0,0,55,3.903,3.9,0,0,0,0,1.665,96.26,39.941616435612,1.312336,6,P-GPS,
2800,2022-10-27 21:24:39,-34.9108246273109,-56.1438367305653,1.64042,1.9356956,38.334004835612,40.269700435612,4.265092,0.3131716,1.19628284668,1.76635832424,21,5,7.695,40.269700435612,1.64042,0.8052984,1.19628284668,0.223694,0.223694,-0.447388,127, 0.6, 3.2,0,0,1024,1024,1024,1024,0,0,0,0,137.6,0,0,55,3.87,3.866,0,0,0,0,4.839,96.26,40.269700435612,1.64042,6,P-GPS,
2900,2022-10-27 21:24:39,-34.9108245287013,-56.1438366063334,1.64042,1.9356956,38.334004835612,40.269700435612,3.937008,0.3131716,1.24430450176,1.81808732852,21,5,7.695,40.269700435612,1.64042,0.8052984,1.24430450176,0.223694,0.223694,0,127.1, 0.8, 3.3,0,0,1024,1024,1024,1024,0,0,0,0,137.6,0,0,55,3.87,3.866,0,0,0,0,4.839,96.26,40.269700435612,1.64042,6,P-GPS,
3000,2022-10-27 21:24:39,-34.9108244288899,-56.1438365077627,1.64042,1.968504,38.301196435612,40.269700435612,3.937008,0.3131716,1.28575135348,1.86494756624,21,5,7.695,40.269700435612,1.64042,0.8052984,1.28575135348,0.223694,0.223694,0,127, 0.2, 3.7,0,0,1024,1024,1024,1024,0,0,0,0,137.6,0,0,55,3.87,3.866,0,0,0,0,4.839,96.26,40.269700435612,1.64042,6,P-GPS,
3100,2022-10-27 21:24:39,-34.9108242731187,-56.143836438121,1.64042,2.0669292,38.202771235612,40.269700435612,3.937008,0.223694,1.32837274592,1.92547906424,21,5,7.695,40.269700435612,1.64042,0.8052984,1.32837274592,0.223694,0,0,127, 0.1, 3.5,0,0,1024,1024,1024,1024,0,0,0,0,137.6,0,0,55,3.87,3.866,0,0,0,0,4.839,96.26,40.269700435612,1.64042,6,P-GPS,
3200,2022-10-27 21:24:40,-34.9108241384854,-56.1438363252182,1.64042,2.0669292,38.202771235612,40.269700435612,3.608924,0.223694,1.38036093656,1.98509520788,21,5,7.695,40.269700435612,1.64042,0.8052984,1.38036093656,0.223694,0,0,127.1, -0.1, 3.7,0,0,1024,1024,1024,1024,0,0,0,0,137.6,0,0,55,3.87,3.866,0,0,0,0,4.839,96.26,40.269700435612,1.64042,6,P-GPS,
3300,2022-10-27 21:24:40,-34.9108239863725,-56.1438361846107,1.968504,2.3950132,38.202771235612,40.597784435612,3.608924,0.223694,1.44325463936,2.05473431772,21,5,7.695,40.597784435612,1.968504,0.8052984,1.44325463936,0.223694,0,0,127, -0.6, 3.9,0,0,1024,1024,1024,1024,0,0,0,0,137.6,0,0,55,3.87,3.866,0,0,0,0,4.839,96.26,40.597784435612,1.968504,6,P-GPS,
3400,2022-10-27 21:24:40,-34.9108238518256,-56.1438360617095,1.968504,2.3950132,38.202771235612,40.597784435612,3.608924,0.223694,1.49899611096,2.11606962152,21,5,7.695,40.597784435612,1.968504,0.8052984,1.49899611096,0.223694,0,0,127.1, -0.4, 4.4,0,0,1024,1024,1024,1024,0,0,0,0,137.6,0,0,55,3.87,3.866,0,0,0,0,4.839,96.26,40.597784435612,1.968504,6,P-GPS,
3500,2022-10-27 21:24:40,-34.9108234988196,-56.1438359383944,1.968504,2.4278216,38.169962835612,40.597784435612,3.608924,0,1.59652564164,2.25004272292,21,5,7.695,40.597784435612,1.968504,0.8052984,1.59652564164,0,0,0,127.1, 0, 4.3,0,0,1024,1024,1024,1024,0,0,0,0,137.6,0,0,55,3.87,3.866,0,0,0,0,4.839,96.26,40.597784435612,1.968504,6,P-GPS,
3600,2022-10-27 21:24:40,-34.9108233709167,-56.1438359003516,1.968504,2.4278216,38.169962835612,40.597784435612,3.608924,0,1.63148627268,2.29807750136,21,5,7.695,40.597784435612,1.968504,0.8052984,1.63148627268,0,0,0,127.2, 0, 4.3,0,0,1024,1339,1024,1024,0,48,0,0,137.6,0,0,55,3.87,3.866,0,0,0,0,4.839,96.26,40.597784435612,1.968504,6,P-GPS,
3700,2022-10-27 21:24:40,-34.9108232953472,-56.1438358660919,1.968504,2.4278216,38.169962835612,40.597784435612,3.608924,0,1.6553642262,2.32749023196,21,5,7.695,40.597784435612,1.968504,0.8052984,1.6553642262,0,0,0,127.3, -0.9, 4.4,0,0,1024,1682,1024,1024,0,100,0,0,137.6,0,0,55,3.87,3.866,0,0,0,0,4.839,96.26,40.597784435612,1.968504,6,P-GPS,
3800,2022-10-27 21:24:40,-34.9108232531297,-56.1438358651778,1.968504,2.4278216,38.169962835612,40.597784435612,3.608924,0,1.66429139184,2.3428970566,21,5,7.695,40.597784435612,1.968504,0.8052984,1.66429139184,0,0,0,127.6, -0.6, 9.4,0,0,1024,1684,1024,1024,0,100,0,0,137.6,0,0,55,3.87,3.866,0,0,0,0,4.839,96.26,40.597784435612,1.968504,6,P-GPS,
3900,2022-10-27 21:24:40,-34.9108232945052,-56.1438359942689,2.296588,2.7559056,38.169962835612,40.925868435612,3.937008,0.3131716,1.62395674488,2.38436359336,21,5,7.737,40.925868435612,2.296588,0.8052984,1.66429139184,-0.223694,-0.223694,0,127.7, -0.8, 16.2,0,0,1024,1684,1024,1024,0,100,0,0,137.6,0,0,55,3.866,3.861,0,0,0,0,3.956,96.26,40.925868435612,2.296588,6,P-GPS,
4000,2022-10-27 21:24:40,-34.910823439427,-56.1438362879316,2.296588,2.7559056,38.169962835612,40.925868435612,3.937008,0.3131716,1.52166343452,2.4869095284,21,5,7.737,40.925868435612,2.296588,0.8052984,1.66429139184,-0.671082,-0.671082,0,127.9, -0.4, 19.6,0,0,1024,1461,1024,1024,0,66,0,0,137.6,0,0,55,3.866,3.861,0,0,0,0,3.956,96.26,40.925868435612,2.296588,6,P-GPS,
4100,2022-10-27 21:24:40,-34.9108237742269,-56.1438366962828,2.296588,2.624672,38.301196435612,40.925868435612,4.265092,1.5882274,1.35173232672,2.65967528196,21,5,7.737,40.925868435612,2.296588,1.5882274,1.66429139184,-1.11847,-1.11847,0,127.5, -0.8, 19.3,0,0,1024,1461,1024,1024,0,66,0,0,137.6,0,0.2,55,3.866,3.861,0,0,0,0,3.956,96.26,40.925868435612,2.296588,6,P-GPS,
4200,2022-10-27 21:24:40,-34.910824273915,-56.1438372704476,2.296588,2.624672,38.301196435612,40.925868435612,4.265092,2.0579848,1.10878284388,2.9101706968,21,5,7.737,40.925868435612,2.296588,2.0579848,1.66429139184,-1.565858,-1.342164,0,127.5, -1.3, 17.4,0,0,1108,1147,1024,1024,13,19,0,0,137.6,0,0.6,55,3.866,3.861,0,0,0,0,3.956,96.26,40.925868435612,2.296588,6,P-GPS,
4300,2022-10-27 21:24:41,-34.9108250114185,-56.1438380577326,2.296588,2.4934384,38.432430035612,40.925868435612,4.265092,2.5501116,0.77574477548,3.2677822568,21,5,7.737,40.925868435612,2.296588,2.5501116,1.66429139184,-2.013246,-1.565858,0,127.1, -1.3, 8.4,0,0,1684,1086,1024,1024,100,9,0,0,137.6,0,1,55,3.866,3.861,0,0,0,0,3.956,96.26,40.925868435612,2.296588,6,P-GPS,
4400,2022-10-27 21:24:41,-34.9108257463622,-56.1438388102683,2.296588,2.3622048,38.563663635612,40.925868435612,4.265092,2.5501116,0.48994752224,3.6179135016,21,5,7.737,40.925868435612,2.296588,2.5501116,1.66429139184,-2.013246,-1.565858,0,127.2, -8.3, 3.4,0,0,1684,1024,1024,1024,100,0,0,0,137.6,0,1.2,55,3.866,3.861,0,0,0,0,3.956,96.26,40.925868435612,2.296588,6,P-GPS,
4500,2022-10-27 21:24:41,-34.9108266511713,-56.1438396446823,2.624672,2.5590552,38.694897235612,41.253952435612,4.265092,2.6172198,0.37929135072,4.0317914676,21,5,7.737,41.253952435612,2.624672,2.6172198,1.66429139184,-2.23694,-1.342164,0,127.4, -15.6, 1.1,0,0,1684,1024,1036,1024,100,0,2,0,137.6,0,0.9,55,3.866,3.861,0,0,0,0,3.956,96.26,41.253952435612,2.624672,6,P-GPS,
4600,2022-10-27 21:24:41,-34.9108275928214,-56.1438402470374,2.624672,2.4934384,38.760514035612,41.253952435612,4.265092,2.6172198,0.6407808604,4.4197507976,21,5,7.737,41.253952435612,2.624672,2.6172198,1.66429139184,-2.460634,-0.894776,0,127.5, -17.9, 0.8,0,0,1684,1024,1395,1024,100,0,56,0,137.6,0,0.6,55,3.866,3.861,0,0,0,0,3.956,96.26,41.253952435612,2.624672,6,P-GPS,
4700,2022-10-27 21:24:41,-34.9108287640602,-56.1438405852366,2.952756,2.6902888,38.891747635612,41.582036435612,4.265092,2.684328,1.06624675328,4.85892404,21,5,7.737,41.582036435612,2.952756,2.684328,1.66429139184,-2.684328,-0.223694,0,127.8, -18, 1.5,0,0,1684,1024,1684,1024,100,0,100,0,137.6,0,0.3,55,3.866,3.861,0,0,0,0,3.956,96.26,41.582036435612,2.952756,6,P-GPS,
4800,2022-10-27 21:24:41,-34.9108302305604,-56.1438408606093,2.952756,2.6574804,38.924556035612,41.582036435612,4.265092,3.131716,1.605315012,5.40026264,21,5,7.737,41.582036435612,2.952756,3.131716,1.66429139184,-3.131716,0.223694,-0.223694,127.7, -17.8, 2,0,0,1684,1024,1684,1024,100,0,100,0,137.6,0,0.2,55,3.866,3.861,0,0,0,0,3.956,96.26,41.582036435612,2.952756,6,P-GPS,
4900,2022-10-27 21:24:41,-34.9108315697813,-56.1438405852014,3.28084,2.8871392,39.022981235612,41.910120435612,4.593176,3.5343652,2.0895013792,5.8957679052,21,5,7.718,41.910120435612,3.28084,3.5343652,2.0895013792,-3.35541,1.11847,-0.894776,127.5, -16.7, 2.8,0,0,1684,1024,1684,1023,100,0,100,-0,137.6,0,0.1,55,3.862,3.857,0,0,0,0,4.625,96.26,41.910120435612,3.28084,6,P-GPS,
5000,2022-10-27 21:24:41,-34.9108329903406,-56.143840011777,3.28084,2.9199476,38.990172835612,41.910120435612,4.92126,4.2054472,2.61055782632,6.4417324896,21,5,7.718,41.910120435612,3.28084,4.2054472,2.61055782632,-3.802798,1.789552,-1.789552,127.5, -15.4, 3.3,0,0,1684,1024,1684,1023,100,0,100,-0,137.6,0,0,55,3.862,3.857,0,0,0,0,4.625,96.26,41.910120435612,3.28084,6,P-GPS,
5100,2022-10-27 21:24:41,-34.9108346155749,-56.1438388608357,3.608924,3.3136484,38.924556035612,42.238204435612,5.249344,4.921268,3.23516742636,7.1274280496,21,5,7.718,42.238204435612,3.608924,4.921268,3.23516742636,-4.250186,2.460634,-2.460634,127.6, -14.2, 2.9,0,0,1684,1024,1684,1023,100,0,100,-0,137.6,0,0,55,3.862,3.857,0,0,0,0,4.625,96.26,42.238204435612,3.608924,6,P-GPS,
5200,2022-10-27 21:24:42,-34.910836112897,-56.1438367481855,3.937008,3.772966,38.793322435612,42.566288435612,5.905512,5.3462866,3.906332146,7.9628939556,20,5,7.718,42.566288435612,3.937008,5.3462866,3.906332146,-4.47388,2.908022,-3.35541,127.6, -13, 3,0,0,1684,1024,1684,1022,100,0,100,-0,137.6,0,0,55,3.862,3.857,0,0,0,0,4.625,96.26,42.566288435612,3.937008,6,P-GPS,
5300,2022-10-27 21:24:42,-34.9108380051809,-56.1438350120049,4.593176,4.593176,38.629280435612,43.222456435612,6.56168,5.9502604,4.7252626184,8.8268703612,20,5,7.718,43.222456435612,4.593176,5.9502604,4.7252626184,-4.921268,3.35541,-4.250186,127.6, -12.8, 3.2,0,0,1684,1024,1684,1022,100,0,100,-0,137.6,0,0,55,3.862,3.857,0,0,0,0,4.625,96.26,43.222456435612,4.593176,6,P-GPS,
5400,2022-10-27 21:24:42,-34.9108399086168,-56.1438331544163,5.249344,5.413386,38.465238435612,43.878624435612,7.217848,6.3976484,5.5756891548,9.7163388936,20,5,7.718,43.878624435612,5.249344,6.3976484,5.5756891548,-5.144962,3.802798,-4.921268,127.5, -12.3, 3.5,0,0,1684,1024,1684,1024,100,0,100,0,137.6,0,0,55,3.862,3.857,0,0,0,0,4.625,96.26,43.878624435612,5.249344,6,P-GPS,
5500,2022-10-27 21:24:42,-34.9108420578588,-56.1438309445287,5.905512,6.233596,38.301196435612,44.534792435612,8.2021,6.71082,6.5629267192,10.7420607112,20,5,7.718,44.534792435612,5.905512,6.71082,6.5629267192,-5.368656,4.026492,-5.59235,127.6, -12.5, 3.5,0,0,1684,1024,1684,1024,100,0,100,0,137.6,0,0,55,3.862,3.857,0,0,0,0,4.625,96.26,44.534792435612,5.905512,6,P-GPS,
5600,2022-10-27 21:24:42,-34.9108441933408,-56.1438286980491,6.889764,7.3490816,38.169962835612,45.519044435612,9.186352,7.158208,7.561023864,11.7710305604,21,5,7.718,45.519044435612,6.889764,7.158208,7.561023864,-5.59235,4.47388,-6.039738,127.6, -12.7, 3,0,0,1684,1024,1684,1024,100,0,100,0,137.6,0,0,55,3.862,3.857,0,0,0,0,4.625,96.26,45.519044435612,6.889764,6,P-GPS,"Punto de origen actualizado. Altitud de RPO establecida en 100m (Code: 3000001)"
5700,2022-10-27 21:24:42,-34.9108465719153,-56.1438259712567,7.545932,8.2349084,37.940304035612,46.175212435612,10.170604,7.4713796,8.7144359744,12.962106714,21,5,7.718,46.175212435612,7.545932,7.4713796,8.7144359744,-5.816044,4.697574,-6.487126,127.7, -12.5, 2.9,0,0,1684,1024,1684,1024,100,0,100,0,137.6,0,0,55,3.862,3.857,0,0,0,0,4.625,96.26,46.175212435612,7.545932,6,P-GPS,
5800,2022-10-27 21:24:42,-34.9108488709615,-56.1438235958845,8.530184,9.3832024,37.776262035612,47.159464435612,11.154856,7.82929,9.7975396836,14.061516198,21,5,7.718,47.159464435612,8.530184,7.82929,9.7975396836,-6.263432,4.697574,-6.487126,130.7, -12.2, 3.2,0,0,1684,1024,1684,1015,100,0,100,-1,137.6,0,0,55,3.862,3.857,0,0,0,0,4.625,96.26,47.159464435612,8.530184,6,P-GPS,
5900,2022-10-27 21:24:42,-34.910851383456,-56.1438210086562,9.514436,10.5971132,37.546603235612,48.143716435612,12.139108,7.9635064,10.9835305352,15.261319386,21,5,7.718,48.143716435612,9.514436,7.9635064,10.9835305352,-6.263432,4.921268,-6.71082,130.6, -12.8, 2.1,0,0,1684,1024,1684,1015,100,0,100,-1,137.6,0,0,55,3.83,3.824,0,0,0,0,4.625,96.26,48.143716435612,9.514436,6,P-GPS,
6000,2022-10-27 21:24:42,-34.9108538317336,-56.1438184312782,10.170604,11.48294,37.316944435612,48.799884435612,13.12336,8.4108944,12.150919024,16.4413719172,21,5,7.718,48.799884435612,10.170604,8.4108944,12.150919024,-6.487126,5.368656,-6.71082,130.5, -13.3, 1.8,0,0,1684,1024,1684,1015,100,0,100,-1,137.6,0,0,55,3.83,3.824,0,0,0,0,4.625,96.26,48.799884435612,10.170604,6,P-GPS,
6100,2022-10-27 21:24:42,-34.9108564715341,-56.1438157417698,11.154856,12.5984256,37.185710835612,49.784136435612,14.107612,8.7464354,13.3973429484,17.6964244508,21,5,7.718,49.784136435612,11.154856,8.7464354,13.3973429484,-6.71082,5.59235,-6.71082,130.6, -13.9, 2.1,0,0,1684,1024,1684,1013,100,0,100,-2,137.6,0,0,55,3.83,3.824,0,0,0,0,4.625,96.26,49.784136435612,11.154856,6,P-GPS,
6200,2022-10-27 21:24:43,-34.9108589977784,-56.1438128541993,12.139108,13.8123364,36.956052035612,50.768388435612,15.091864,8.8806518,14.6442589988,18.9597118928,21,5,7.718,50.768388435612,12.139108,8.8806518,14.6442589988,-6.71082,5.816044,-6.487126,130.6, -14.1, 2.4,0,0,1684,1024,1684,1013,100,0,100,-2,137.6,0,0,55,3.83,3.824,0,0,0,0,4.625,96.26,50.768388435612,12.139108,6,P-GPS,
6300,2022-10-27 21:24:43,-34.9108616905213,-56.1438095257939,13.12336,15.0262472,36.726393235612,51.752640435612,16.076116,9.3504092,16.0193246596,20.358596452,21,5,7.718,51.752640435612,13.12336,9.3504092,16.0193246596,-6.934514,6.263432,-6.487126,130.6, -13.9, 2.5,0,0,1684,1024,1684,1013,100,0,100,-2,137.6,0,0,55,3.83,3.824,0,0,0,0,4.625,96.26,51.752640435612,13.12336,6,P-GPS,
6400,2022-10-27 21:24:43,-34.9108643246125,-56.1438062581378,14.107612,16.3057748,36.431117635612,52.736892435612,17.388452,9.6635808,17.3702105296,21.7295282544,21,5,7.718,52.736892435612,14.107612,9.6635808,17.3702105296,-7.158208,6.487126,-6.487126,130.5, -13.3, 2.2,0,0,1684,1024,1684,1013,100,0,100,-2,137.6,0,0,55,3.83,3.824,0,0,0,0,4.625,96.26,52.736892435612,14.107612,6,P-GPS,
6500,2022-10-27 21:24:43,-34.9108666800883,-56.1438028422701,14.76378,17.1916016,36.201458835612,53.393060435612,18.04462,9.9767524,18.6693247444,23.0648301344,21,5,7.718,53.393060435612,14.76378,9.9767524,18.6693247444,-7.381902,6.71082,-6.487126,130.7, -12.9, 2.2,0,0,1684,1024,1684,1014,100,0,100,-2,137.6,0,0,55,3.83,3.824,0,0,0,0,4.625,96.26,53.393060435612,14.76378,6,P-GPS,
6600,2022-10-27 21:24:43,-34.9108693776742,-56.1437995263279,15.748032,18.4055124,35.971800035612,54.377312435612,19.028872,10.1333382,20.0536095656,24.4623039324,21,5,7.718,54.377312435612,15.748032,10.1333382,20.0536095656,-7.381902,6.934514,-6.487126,130.6, -12.5, 2.2,0,0,1684,1024,1684,1015,100,0,100,-1,137.6,0,0,55,3.83,3.824,0,0,0,0,4.625,96.26,54.377312435612,15.748032,6,P-GPS,
6700,2022-10-27 21:24:43,-34.9108723298021,-56.1437959187785,16.732284,19.68504,35.676524435612,55.361564435612,20.013124,10.4465098,21.5665033148,25.9871399392,21,5,7.718,55.361564435612,16.732284,10.4465098,21.5665033148,-7.605596,7.158208,-6.263432,130.6, -13.4, 2.5,0,0,1684,1024,1684,1016,100,0,100,-1,137.6,0,0,55,3.83,3.824,0,0,0,0,4.625,96.26,55.361564435612,16.732284,6,P-GPS,
6800,2022-10-27 21:24:43,-34.9108751787942,-56.1437923846768,17.716536,20.9645676,35.381248835612,56.345816435612,20.997376,10.6030956,23.0378616296,27.4698827688,21,5,7.718,56.345816435612,17.716536,10.6030956,23.0378616296,-7.605596,7.381902,-6.263432,130.6, -13.8, 2.5,0,0,1684,1024,1684,1016,100,0,100,-1,137.6,0,0,55,3.83,3.824,0,0,0,0,4.625,96.26,56.345816435612,17.716536,6,P-GPS,
6900,2022-10-27 21:24:43,-34.9108780896835,-56.1437886514813,18.700788,22.14567,35.184398435612,57.330068435612,21.981628,10.9162672,24.5656832008,29.0111229756,21,5,7.653,57.330068435612,18.700788,10.9162672,24.5656832008,-7.82929,7.605596,-6.487126,130.5, -13.4, 3.3,0,0,1684,1024,1684,1016,100,0,100,-1,137.6,0,0,55,3.836,3.832,0,0,0,0,6.098,96.26,57.330068435612,18.700788,6,P-GPS,
7000,2022-10-27 21:24:43,-34.9108810595387,-56.1437848727055,20.013124,23.7532816,34.889122835612,58.642404435612,22.96588,11.2294388,26.1203420432,30.577100716,21,5,7.653,58.642404435612,20.013124,11.2294388,26.1203420432,-8.052984,7.82929,-6.487126,130.4, -12.9, 2.2,0,0,1684,1024,1684,1015,100,0,100,-1,137.6,0,0,55,3.836,3.832,0,0,0,0,6.098,96.26,58.642404435612,20.013124,6,P-GPS,
7100,2022-10-27 21:24:43,-34.9108842292137,-56.1437807759855,20.997376,25.0328092,34.593847235612,59.626656435612,23.622048,11.5426104,27.7932423592,32.2622713736,21,5,7.653,59.626656435612,20.997376,11.5426104,27.7932423592,-8.052984,8.276678,-6.487126,130.4, -13, 1.6,0,0,1684,1024,1684,1015,100,0,100,-1,137.6,0,0,55,3.836,3.832,0,0,0,0,6.098,96.26,59.626656435612,20.997376,6,P-GPS,
7200,2022-10-27 21:24:44,-34.9108872778237,-56.1437767579733,21.981628,26.2795284,34.331380035612,60.610908435612,24.6063,11.3860246,29.418636112,33.899935468,21,5,7.653,60.610908435612,21.981628,11.5426104,29.418636112,-7.82929,8.276678,-6.71082,130.5, -12.8, 2.9,0,0,1684,1024,1684,1015,100,0,100,-1,137.6,0,0,55,3.836,3.832,0,0,0,0,6.098,96.26,60.610908435612,21.981628,6,P-GPS,
7300,2022-10-27 21:24:44,-34.9108905203684,-56.1437724289537,22.96588,27.6246728,33.970487635612,61.595160435612,25.590552,11.6991962,31.1596794748,35.654200616,21,5,7.653,61.595160435612,22.96588,11.6991962,31.1596794748,-8.052984,8.500372,-6.71082,130.4, -13, 3.9,0,0,1684,1024,1684,1015,100,0,100,-1,137.6,0,0,55,3.836,3.832,0,0,0,0,6.098,96.26,61.595160435612,22.96588,6,P-GPS,
7400,2022-10-27 21:24:44,-34.9108934471838,-56.1437682475399,23.950132,28.9042004,33.675212035612,62.579412435612,26.574804,11.8781514,32.7863199468,37.299213792,21,5,7.653,62.579412435612,23.950132,11.8781514,32.7863199468,-8.052984,8.724066,-6.71082,130.3, -13.3, 4.9,0,0,1684,1024,1684,1015,100,0,100,-1,137.6,0,0,55,3.836,3.832,0,0,0,0,6.098,96.26,62.579412435612,23.950132,6,P-GPS,
7500,2022-10-27 21:24:44,-34.9108968116077,-56.1437636275033,24.934384,30.1509196,33.412744835612,63.563664435612,27.230972,12.191323,34.6210641,39.147639048,21,5,7.653,63.563664435612,24.934384,12.191323,34.6210641,-8.276678,8.94776,-6.487126,130.4, -13.9, 5.4,0,0,1684,1024,1684,1013,100,0,100,-2,137.6,0,0,55,3.836,3.832,0,0,0,0,6.098,96.26,63.563664435612,24.934384,6,P-GPS,
7600,2022-10-27 21:24:44,-34.9109000969935,-56.1437591432725,25.918636,31.496064,33.051852435612,64.547916435612,28.215224,12.5044946,36.408793816,40.946851704,21,5,7.653,64.547916435612,25.918636,12.5044946,36.408793816,-8.500372,9.171454,-6.487126,130.5, -11.8, 4.6,0,0,1684,1024,1684,1015,100,0,100,-1,137.6,0,0,55,3.836,3.832,0,0,0,0,6.098,96.26,64.547916435612,25.918636,6,P-GPS,
7700,2022-10-27 21:24:44,-34.9109036292904,-56.1437543644102,26.902888,32.8084,32.723768435612,65.532168435612,29.199476,12.5044946,38.32349204,42.871720532,21,5,7.653,65.532168435612,26.902888,12.5044946,38.32349204,-8.724066,9.395148,-6.487126,130.5, -12.3, 3.8,0,0,1684,1024,1684,1015,100,0,100,-1,137.6,0,0,55,3.836,3.832,0,0,0,0,6.098,96.26,65.532168435612,26.902888,6,P-GPS,
7800,2022-10-27 21:24:44,-34.9109068933306,-56.1437496427921,27.88714,34.0551192,32.461301235612,66.516420435612,29.855644,12.8176662,40.155513096,44.71948962,21,5,7.653,66.516420435612,27.88714,12.8176662,40.155513096,-8.724066,9.395148,-6.487126,130.6, -12.9, 3.2,0,0,1684,1024,1684,1015,100,0,100,-1,137.6,0,0,55,3.836,3.832,0,0,0,0,6.098,96.26,66.516420435612,27.88714,6,P-GPS,
7900,2022-10-27 21:24:44,-34.9109105743826,-56.1437447636437,29.199476,35.7283476,32.100408835612,67.828756435612,30.839896,12.8176662,42.13254728,46.703085484,21,5,7.679,67.828756435612,29.199476,12.8176662,42.13254728,-8.94776,9.618842,-6.263432,130.5, -13.1, 3.8,0,0,1684,1024,1684,1015,100,0,100,-1,137.6,0,0,55,3.823,3.818,0,0,0,0,6.072,96.44,67.828756435612,29.199476,6,P-GPS,
8000,2022-10-27 21:24:44,-34.9109141448047,-56.1437400357679,30.183728,37.0406836,31.772324835612,68.813008435612,31.496064,13.4440094,44.049870176,48.625985808,21,5,7.679,68.813008435612,30.183728,13.4440094,44.049870176,-9.171454,9.842536,-6.263432,130.7, -12.4, 3.4,0,0,1684,1024,1684,1015,100,0,100,-1,137.6,0,0,55,3.823,3.818,0,0,0,0,6.072,96.44,68.813008435612,30.183728,6,P-GPS,
8100,2022-10-27 21:24:44,-34.9109180073957,-56.1437349778817,31.496064,38.6811036,31.444240835612,70.125344435612,32.480316,13.6229646,46.112534284,50.69389926,21,5,7.679,70.125344435612,31.496064,13.6229646,46.112534284,-9.171454,10.06623,-6.039738,130.6, -11.4, 4.2,0,0,1684,1024,1684,1015,100,0,100,-1,137.6,0,0,55,3.823,3.818,0,0,0,0,6.072,96.44,70.125344435612,31.496064,6,P-GPS,
8200,2022-10-27 21:24:44,-34.9109217281623,-56.1437302670449,32.480316,39.9934396,31.116156835612,71.109596435612,33.464568,13.6229646,48.067258756,52.650592236,21,5,7.679,71.109596435612,32.480316,13.6229646,48.067258756,-9.171454,10.06623,-6.263432,130.5, -10.4, 2.8,0,0,1684,1024,1684,1013,100,0,100,-2,137.6,0,0,55,3.823,3.818,0,0,0,0,6.072,96.44,71.109596435612,32.480316,6,P-GPS,
8300,2022-10-27 21:24:45,-34.9109255023483,-56.1437252093468,33.464568,41.3057756,30.788072835612,72.093848435612,34.44882,13.6229646,50.107285068,54.69652406,21,5,7.679,72.093848435612,33.464568,13.6229646,50.107285068,-9.171454,10.06623,-6.71082,130.4, -11.3, 4.1,0,0,1684,1024,1684,1011,100,0,100,-2,137.6,0,0,55,3.823,3.818,0,0,0,0,6.072,96.44,72.093848435612,33.464568,6,P-GPS,
8400,2022-10-27 21:24:45,-34.9109291215911,-56.1437203919924,34.776904,42.9461956,30.459988835612,73.406184435612,35.433072,13.7795504,52.057416364,56.651576616,21,5,7.679,73.406184435612,34.776904,13.7795504,52.057416364,-9.395148,10.06623,-6.487126,130.4, -15.2, 3.4,0,0,1684,1024,1684,1013,100,0,100,-2,137.6,0,0,55,3.823,3.818,0,0,0,0,6.072,96.44,73.406184435612,34.776904,6,P-GPS,
8500,2022-10-27 21:24:45,-34.910933156934,-56.1437150979098,35.761156,44.2257232,30.164713235612,74.390436435612,36.417324,14.092722,54.216209084,58.81397826,21,5,7.679,74.390436435612,35.761156,14.092722,54.216209084,-9.618842,10.289924,-6.487126,130.4, -14.2, 3.2,0,0,1684,1024,1684,1013,100,0,100,-2,137.6,0,0,55,3.823,3.818,0,0,0,0,6.072,96.44,74.390436435612,35.761156,6,P-GPS,
8600,2022-10-27 21:24:45,-34.9109370432612,-56.1437099817606,37.073492,45.8661432,29.836629235612,75.702772435612,37.401576,14.2493078,56.2992144,60.9005925,21,5,7.679,75.702772435612,37.073492,14.2493078,56.2992144,-9.618842,10.513618,-6.487126,130.6, -12.6, 3.2,0,0,1684,1024,1684,1009,100,0,100,-2,137.6,0,0,55,3.823,3.818,0,0,0,0,6.072,96.44,75.702772435612,37.073492,6,P-GPS,
8700,2022-10-27 21:24:45,-34.910941134629,-56.1437045102879,38.385828,47.4737548,29.541353635612,77.015108435612,38.385828,14.5624794,58.509844392,63.115815668,21,5,7.679,77.015108435612,38.385828,14.5624794,58.509844392,-9.842536,10.737312,-6.487126,130.6, -12, 3.7,0,0,1684,1024,1684,1006,100,0,100,-3,137.6,0,0,55,3.823,3.818,0,0,0,0,6.072,96.44,77.015108435612,38.385828,6,P-GPS,
8800,2022-10-27 21:24:45,-34.9109450735028,-56.1436992257957,39.37008,48.8517076,29.147652835612,77.999360435612,39.37008,14.875651,60.642390392,65.25262676,21,5,7.679,77.999360435612,39.37008,14.875651,60.642390392,-10.06623,10.961006,-6.487126,130.5, -10.8, 3.2,0,0,1684,1024,1684,1006,100,0,100,-3,137.6,0,0,55,3.823,3.818,0,0,0,0,6.072,96.44,77.999360435612,39.37008,6,P-GPS,
8900,2022-10-27 21:24:45,-34.9109492657365,-56.1436935983387,40.354332,50.1312352,28.852377235612,78.983612435612,40.354332,14.875651,62.912731672,67.527233132,21,5,7.662,78.983612435612,40.354332,14.875651,62.912731672,-10.06623,10.961006,-6.71082,130.5, -9.5, 2.9,0,0,1684,1024,1684,1006,100,0,100,-3,137.6,0,0,54,3.804,3.792,0,0,0,0,6.163,96.26,78.983612435612,40.354332,6,P-GPS,
9000,2022-10-27 21:24:45,-34.910953235922,-56.143688243162,41.338584,51.4763796,28.491484835612,79.967864435612,41.0105,15.0546062,65.068571636,69.687010104,21,5,7.662,79.967864435612,41.338584,15.0546062,65.068571636,-10.06623,11.1847,-6.934514,130.6, -10.8, 3.9,0,0,1684,1024,1684,1007,100,0,100,-3,137.6,0,0,54,3.804,3.792,0,0,0,0,6.163,96.26,79.967864435612,41.338584,6,P-GPS,
9100,2022-10-27 21:24:45,-34.9109572882854,-56.1436829361356,42.322836,52.7559072,28.196209235612,80.952116435612,41.0105,15.0546062,67.23589454,71.856629596,21,5,7.662,80.952116435612,42.322836,15.0546062,67.23589454,-10.06623,11.1847,-6.934514,130.6, -11.6, 4.3,0,0,1684,1024,1684,1006,100,0,100,-3,137.6,0,0,54,3.804,3.792,0,0,0,0,6.163,96.26,80.952116435612,42.322836,6,P-GPS,
9200,2022-10-27 21:24:46,-34.910961218307,-56.1436777451545,43.635172,54.3635188,27.900933635612,82.264452435612,41.0105,15.0322368,69.347443164,73.970474808,21,5,7.662,82.264452435612,43.635172,15.0546062,69.347443164,-10.289924,10.961006,-6.71082,130.6, -13, 3.3,0,0,1684,1024,1684,1006,100,0,100,-3,137.6,0,0,54,3.804,3.792,0,0,0,0,6.163,96.26,82.264452435612,43.635172,6,P-GPS,
9300,2022-10-27 21:24:46,-34.9109654475845,-56.1436722128907,44.29134,55.3805792,27.540041235612,82.920620435612,41.0105,15.1888226,71.608270008,76.23359824,21,5,7.662,82.920620435612,44.29134,15.1888226,71.608270008,-10.289924,11.1847,-6.487126,130.6, -12.6, 1.7,0,0,1684,1024,1684,1006,100,0,100,-3,137.6,0,0,54,3.804,3.792,0,0,0,0,6.163,96.26,82.920620435612,44.29134,6,P-GPS,
9400,2022-10-27 21:24:46,-34.9109695215866,-56.1436669200409,45.275592,56.6272984,27.277574035612,83.904872435612,41.0105,15.3454084,73.778545668,78.405186236,21,5,7.662,83.904872435612,45.275592,15.3454084,73.778545668,-10.513618,11.1847,-6.71082,130.6, -11.6, 0.9,0,0,1684,1024,1684,1005,100,0,100,-3,137.6,0,0,54,3.804,3.792,0,0,0,0,6.163,96.26,83.904872435612,45.275592,6,P-GPS,
9500,2022-10-27 21:24:46,-34.9109734825877,-56.1436618315762,46.259844,57.906826,26.982298435612,84.889124435612,41.0105,15.3454084,75.876970932,80.504595752,21,5,7.662,84.889124435612,46.259844,15.3454084,75.876970932,-10.513618,11.1847,-6.71082,130.6, -11.3, 0.5,0,0,1684,1024,1684,1024,100,0,100,0,137.6,0,0,54,3.804,3.792,0,0,0,0,6.163,96.26,84.889124435612,46.259844,6,P-GPS,
9600,2022-10-27 21:24:46,-34.9109775052482,-56.143656583565,47.244096,59.1207368,26.752639635612,85.873376435612,41.0105,15.5243636,78.024608796,82.653874036,21,5,7.662,85.873376435612,47.244096,15.5243636,78.024608796,-10.513618,11.408394,-6.71082,130.7, -12, 0.3,0,0,1684,1024,1684,1024,100,0,100,0,137.6,0,0,54,3.804,3.792,0,0,0,0,6.163,96.26,85.873376435612,47.244096,6,P-GPS,
9700,2022-10-27 21:24:46,-34.9109819263955,-56.1436508285187,48.228348,60.4658812,26.391747235612,86.857628435612,41.0105,15.5243636,80.382548504,85.01312608,21,5,7.662,86.857628435612,48.228348,15.5243636,80.382548504,-10.513618,11.408394,-6.487126,130.6, -13.3, 1.1,0,0,1684,1024,1684,1024,100,0,100,0,137.6,0,0,54,3.804,3.792,0,0,0,0,6.163,96.26,86.857628435612,48.228348,6,P-GPS,
9800,2022-10-27 21:24:46,-34.9109861443781,-56.1436453049572,49.2126,61.7782172,26.063663235612,87.841880435612,41.0105,15.6809494,82.639110256,87.271328252,21,5,7.662,87.841880435612,49.2126,15.6809494,82.639110256,-10.513618,11.632088,-6.263432,130.6, -11.7, 1.5,0,0,1684,1024,1684,1024,100,0,100,0,137.6,0,0,54,3.804,3.792,0,0,0,0,6.163,96.26,87.841880435612,49.2126,6,P-GPS,
9900,2022-10-27 21:24:46,-34.9109909411358,-56.143639304866,50.196852,63.0905532,25.735579235612,88.826132435612,41.0105,15.6809494,85.1460001,89.77854618,21,5,7.662,88.826132435612,50.196852,15.6809494,85.1460001,-10.513618,11.632088,-6.487126,130.7, -11.2, 1.9,0,0,1684,1024,1684,1024,100,0,100,0,137.6,0,0,54,3.804,3.792,0,0,0,0,6.163,96.26,88.826132435612,50.196852,6,P-GPS,
10000,2022-10-27 21:24:46,-34.9109951874012,-56.1436337016984,51.181104,64.3372724,25.473112035612,89.810384435612,41.0105,15.6809494,87.426840068,92.061026568,23,5,7.662,89.810384435612,51.181104,15.6809494,87.426840068,-10.513618,11.632088,-6.487126,130.9, -12.7, 2.4,0,0,1684,1024,1684,1024,100,0,100,0,137.6,0,0,54,3.804,3.792,0,0,0,0,6.163,96.26,89.810384435612,51.181104,6,P-GPS,
10100,2022-10-27 21:24:46,-34.9109995742209,-56.1436277641847,52.165356,65.6168,25.177836435612,90.794636435612,41.0105,15.8375352,89.814963504,94.45210276,23,5,7.662,90.794636435612,52.165356,15.8375352,89.814963504,-10.513618,11.855782,-6.487126,130.7, -12.8, 2.7,0,0,1684,1024,1684,1024,100,0,100,0,137.6,0,0,54,3.804,3.792,0,0,0,0,6.163,96.26,90.794636435612,52.165356,6,P-GPS,
10200,2022-10-27 21:24:47,-34.9110037778341,-56.1436220843569,53.149608,66.8963276,24.882560835612,91.778888435612,41.0105,15.994121,92.1013809,96.741144828,23,5,7.609,91.778888435612,53.149608,15.994121,92.1013809,-10.737312,11.855782,-6.487126,130.6, -10.8, 1.5,0,0,1684,1024,1684,1024,100,0,100,0,137.6,0,0,54,3.803,3.803,0,0,0,0,7.448,96.44,91.778888435612,53.149608,6,P-GPS,
10300,2022-10-27 21:24:47,-34.9110079555877,-56.1436165316065,54.13386,68.1430468,24.620093635612,92.763140435612,41.0105,15.994121,94.354333728,98.99606616,23,5,7.609,92.763140435612,54.13386,15.994121,94.354333728,-10.737312,11.855782,-6.71082,130.7, -11.9, 1.6,0,0,1684,1024,1684,1024,100,0,100,0,137.6,0,0,54,3.803,3.803,0,0,0,0,7.448,96.44,92.763140435612,54.13386,6,P-GPS,
10400,2022-10-27 21:24:47,-34.9110121229973,-56.1436109656511,55.118112,69.4553828,24.292009635612,93.747392435612,41.0105,16.1507068,96.607286556,101.250987492,23,5,7.609,93.747392435612,55.118112,16.1507068,96.607286556,-10.737312,12.079476,-6.71082,130.9, -12.1, 2.6,0,0,1684,752,1684,1024,100,-41,100,0,137.6,0,0,54,3.803,3.803,0,0,0,0,7.448,96.44,93.747392435612,55.118112,6,P-GPS,
10500,2022-10-27 21:24:47,-34.9110165531206,-56.1436049120503,56.102364,70.8333356,23.898308835612,94.731644435612,41.0105,16.1507068,99.031827316,103.678481008,23,5,7.609,94.731644435612,56.102364,16.1507068,99.031827316,-10.737312,12.079476,-6.71082,130.6, -12, 2.1,0,0,1611,364,1684,1024,89,-100,100,0,137.6,0,0,54,3.803,3.803,0,0,0,0,7.448,96.44,94.731644435612,56.102364,6,P-GPS,
10600,2022-10-27 21:24:47,-34.911020784717,-56.1435991220484,57.086616,72.2440968,23.471799635612,95.715896435612,41.0105,16.1507068,101.349412692,105.99901914,23,5,7.609,95.715896435612,57.086616,16.1507068,101.349412692,-10.737312,12.079476,-6.71082,130.7, -11, -1.3,0,0,1618,364,1641,1024,90,-100,93,0,137.6,0,0,54,3.803,3.803,0,0,0,0,7.448,96.44,95.715896435612,57.086616,6,P-GPS,
10700,2022-10-27 21:24:47,-34.9110251926153,-56.1435929462804,58.070868,73.654858,23.045290435612,96.700148435612,41.0105,16.1730762,103.79429466,108.448494284,23,5,7.609,96.700148435612,58.070868,16.1730762,103.79429466,-10.513618,12.30317,-6.71082,130.7, -7.2, -8.7,0,0,1621,364,1588,1024,90,-100,85,0,137.6,0,0,54,3.803,3.803,0,0,0,0,7.448,96.44,96.700148435612,58.070868,6,P-GPS,
10800,2022-10-27 21:24:47,-34.9110291557529,-56.1435868505782,59.05512,75.0656192,22.618781235612,97.684400435612,41.0105,15.9046434,106.10892728,110.77592218,23,5,7.609,97.684400435612,59.05512,16.1730762,106.10892728,-10.06623,12.30317,-6.487126,131.2, -6.3, -11.6,0,0,1621,364,1588,1024,90,-100,85,0,137.6,0,0,54,3.803,3.803,0,0,0,0,7.448,96.44,97.684400435612,59.05512,6,P-GPS,
10900,2022-10-27 21:24:47,-34.9110332864249,-56.1435805980247,59.711288,76.1811048,22.159463635612,98.340568435612,41.0105,15.7927964,108.500331556,113.178153228,23,5,7.609,98.340568435612,59.711288,16.1730762,108.500331556,-9.618842,12.526864,-6.039738,131.4, -6.3, -11.9,0,0,1622,364,1583,1024,91,-100,85,0,137.6,0,0,54,3.803,3.803,0,0,0,0,7.448,96.44,98.340568435612,59.711288,6,P-GPS,
11000,2022-10-27 21:24:47,-34.9110370385422,-56.1435745752217,60.367456,77.263782,21.732954435612,98.996736435612,41.0105,15.7033188,110.746722704,115.44127666,23,5,7.609,98.996736435612,60.367456,16.1730762,110.746722704,-9.171454,12.750558,-5.816044,131.4, -6.3, -11.4,0,0,1628,364,1584,1024,92,-100,85,0,137.6,0,-0.1,54,3.803,3.803,0,0,0,0,7.448,96.44,98.996736435612,60.367456,6,P-GPS,
11100,2022-10-27 21:24:47,-34.9110407776972,-56.1435680914759,61.351708,78.8057768,21.175211635612,99.980988435612,41.0105,15.4572554,113.089898632,117.812667812,23,5,7.609,99.980988435612,61.351708,16.1730762,113.089898632,-8.724066,12.750558,-5.59235,131.7, -7.8, -11.6,0,0,1634,364,1585,1024,92,-100,85,0,137.6,0,-0.3,54,3.803,3.803,0,0,0,0,7.448,96.44,99.980988435612,61.351708,6,P-GPS,
11200,2022-10-27 21:24:48,-34.9110442849747,-56.1435617933944,62.007876,79.9212624,20.715894035612,100.63715643561,41.0105,15.3901472,115.335633612,120.090555024,24,5,7.6,100.63715643561,62.007876,16.1730762,115.335633612,-8.276678,12.974252,-5.144962,131.7, -7.5, -11.7,0,0,1637,364,1595,1024,93,-100,87,0,137.6,0,-0.6,54,3.815,3.812,0,0,0,0,7.644,96.44,100.63715643561,62.007876,6,P-GPS,
11300,2022-10-27 21:24:48,-34.9110477918614,-56.1435550446708,62.664044,81.1351732,20.158151235612,101.29332443561,41.0105,15.4572554,117.68044996,122.480975048,24,5,7.6,101.29332443561,62.664044,16.1730762,117.68044996,-8.052984,13.197946,-5.144962,131.3, -6.3, -11.3,0,0,1646,364,1598,1024,94,-100,87,0,137.6,0,-1,54,3.815,3.812,0,0,0,0,7.644,96.44,101.29332443561,62.664044,6,P-GPS,
11400,2022-10-27 21:24:48,-34.9110509687993,-56.1435485113018,63.320212,82.2506588,19.698833635612,101.94949243561,41.0105,15.434886,119.897313548,124.753612916,24,5,7.6,101.94949243561,63.320212,16.1730762,119.897313548,-7.605596,13.42164,-5.144962,131.2, -5.7, -11,0,0,1652,364,1598,1024,95,-100,87,0,137.6,0,-1.3,54,3.815,3.812,0,0,0,0,7.644,96.44,101.94949243561,63.320212,6,P-GPS,
11500,2022-10-27 21:24:48,-34.9110540175722,-56.1435416449658,64.304464,83.825462,19.108282435612,102.93374443561,41.0105,15.4125166,122.157484224,127.089570996,24,5,7.6,102.93374443561,64.304464,16.1730762,122.157484224,-7.158208,13.645334,-5.144962,131.5, -5.8, -10.4,0,0,1652,364,1586,1009,95,-100,85,-2,137.6,0,-1.6,54,3.815,3.812,0,0,0,0,7.644,96.44,102.93374443561,64.304464,6,P-GPS,
11600,2022-10-27 21:24:48,-34.9110567178841,-56.1435350872135,64.960632,85.0393728,18.550539635612,103.58991243561,41.0105,15.5019942,124.266080092,129.285109124,24,5,7.6,103.58991243561,64.960632,16.1730762,124.266080092,-6.934514,13.869028,-5.368656,131.5, -5.1, -9.6,0,0,1652,364,1586,1009,95,-100,85,-2,137.6,0,-2,54,3.815,3.812,0,0,0,0,7.644,96.44,103.58991243561,64.960632,6,P-GPS,
11700,2022-10-27 21:24:48,-34.9110593919455,-56.1435283103039,65.944884,86.6469844,17.927180035612,104.57416443561,41.0105,15.5243636,126.419951552,131.535109196,24,5,7.6,104.57416443561,65.944884,16.1730762,126.419951552,-6.487126,14.092722,-5.59235,131.7, -5.7, -9.2,0,0,1651,364,1571,991,95,-100,83,-5,137.6,0,-2.3,54,3.815,3.812,0,0,0,0,7.644,96.44,104.57416443561,65.944884,6,P-GPS,
11800,2022-10-27 21:24:48,-34.9110618100675,-56.1435218046403,66.601052,87.7952784,17.435054035612,105.23033243561,41.0105,15.5243636,128.454072352,133.672248372,24,5,7.6,105.23033243561,66.601052,16.1730762,128.454072352,-6.263432,14.092722,-5.368656,131.7, -6.3, -9.5,0,0,1651,364,1553,942,95,-100,80,-12,137.5,0,-2.6,54,3.815,3.812,0,0,0,0,7.644,96.44,105.23033243561,66.601052,6,P-GPS,
11900,2022-10-27 21:24:48,-34.9110642583354,-56.1435147335013,67.25722,89.0419976,16.844502835612,105.88650043561,41.0105,15.4572554,130.62500418,135.968836372,24,5,7.6,105.88650043561,67.25722,16.1730762,130.62500418,-5.816044,14.316416,-5.144962,131.6, -6.5, -9.5,0,0,1651,364,1563,880,95,-100,82,-22,137.4,0,-3,54,3.815,3.812,0,0,0,0,7.644,96.44,105.88650043561,67.25722,6,P-GPS,
12000,2022-10-27 21:24:48,-34.9110661027241,-56.1435085369855,68.241472,90.551184,16.319568435612,106.87075243561,41.0105,15.3677778,132.458337572,137.940949296,24,5,7.6,106.87075243561,68.241472,16.1730762,132.458337572,-5.59235,14.316416,-5.144962,131.1, -5.9, -9.5,0,0,1651,364,1564,868,95,-100,82,-24,137,0,-3.8,54,3.815,3.812,0,0,0,0,7.644,96.44,106.87075243561,68.241472,6,P-GPS,
12100,2022-10-27 21:24:48,-34.9110682988046,-56.1435012400866,68.89764,91.8963284,15.630592035612,107.52692043561,41.0105,15.5019942,134.627957064,140.266736772,24,5,7.6,107.52692043561,68.89764,16.1730762,134.627957064,-5.368656,14.54011,-4.921268,130.6, -6, -8.9,0,0,1651,364,1536,778,95,-100,78,-37,136.4,0,-5.1,54,3.815,3.812,0,0,0,0,7.644,96.44,107.52692043561,68.89764,6,P-GPS,
12200,2022-10-27 21:24:48,-34.9110702772989,-56.1434942264479,69.553808,93.1430476,15.040040835612,108.18308843561,41.0105,15.5691024,136.686684164,142.485896948,24,5,7.601,108.18308843561,69.553808,16.1730762,136.686684164,-4.921268,14.763804,-4.921268,130.3, -6.2, -9.3,0,0,1651,364,1448,650,95,-100,64,-57,135.7,0,-6.5,54,3.807,3.807,0,0,0,0,6.612,96.44,108.18308843561,69.553808,6,P-GPS,
12300,2022-10-27 21:24:49,-34.9110722835419,-56.1434867858818,70.209976,94.4225752,14.416681235612,108.83925643561,41.0105,15.5019942,138.854335152,144.829072876,24,5,7.601,108.83925643561,70.209976,16.1730762,138.854335152,-4.697574,14.763804,-4.697574,129.4, -6.2, -8.8,0,0,1650,364,1400,550,95,-100,57,-72,134.6,0,-8.1,54,3.807,3.807,0,0,0,0,6.612,96.44,108.83925643561,70.209976,6,P-GPS,
12400,2022-10-27 21:24:49,-34.9110741102131,-56.143479645897,70.866144,95.7021028,13.793321635612,109.49542443561,41.0105,15.6362106,140.916343092,147.06693384,24,5,7.601,109.49542443561,70.866144,16.1730762,140.916343092,-4.47388,14.987498,-4.250186,128.1, -5.7, -9.5,0,0,1650,364,1320,399,95,-100,45,-95,133,0,-10.8,54,3.807,3.807,0,0,0,0,6.612,96.44,109.49542443561,70.866144,6,P-GPS,
12500,2022-10-27 21:24:49,-34.9110761177068,-56.143472260324,71.522312,97.0472472,13.104345235612,110.15159243561,41.0105,15.5691024,143.08235366,149.39468982,24,5,7.601,110.15159243561,71.522312,16.1730762,143.08235366,-4.250186,14.987498,-3.802798,126.2, -5.4, -10.2,0,0,1650,364,1320,399,95,-100,45,-95,130.9,0,-14.1,54,3.807,3.807,0,0,0,0,6.612,96.44,110.15159243561,71.522312,6,P-GPS,
12600,2022-10-27 21:24:49,-34.9110778262181,-56.1434650480877,72.17848,98.3267748,12.480985635612,110.80776043561,41.0105,15.7256882,145.1443616,151.640752884,24,5,7.601,110.80776043561,72.17848,16.1730762,145.1443616,-4.026492,15.211192,-3.35541,124, -5.5, -9.7,0,0,1649,364,1281,364,95,-100,39,-100,128.3,0,-17.4,54,3.807,3.807,0,0,0,0,6.612,96.44,110.80776043561,72.17848,6,P-GPS,
12700,2022-10-27 21:24:49,-34.9110794796229,-56.1434573870062,72.506564,99.3766436,11.759200835612,111.13584443561,41.0105,15.6809494,147.303482404,154.011159784,24,5,7.601,111.13584443561,72.506564,16.1730762,147.303482404,-3.802798,15.211192,-2.684328,121, -5, -10.3,0,0,1648,364,1268,364,95,-100,37,-100,125.2,0,-19.8,54,3.807,3.807,0,0,0,0,6.612,96.44,111.13584443561,72.506564,6,P-GPS,
12800,2022-10-27 21:24:49,-34.9110809598915,-56.1434500543368,72.834648,100.3280872,11.135841235612,111.46392843561,41.0105,15.6362106,149.352695068,156.270346208,24,5,7.601,111.46392843561,72.834648,16.1730762,149.352695068,-3.579104,15.211192,-2.23694,117.7, -4.2, -11,0,0,1648,364,1268,364,95,-100,37,-100,122.1,0,-20,54,3.807,3.807,0,0,0,0,6.612,96.44,111.46392843561,72.834648,6,P-GPS,
12900,2022-10-27 21:24:49,-34.911082362568,-56.143442605246,72.834648,100.9514468,10.512481635612,111.46392843561,41.0105,15.7480576,151.417983848,158.557091688,24,5,7.601,111.46392843561,72.834648,16.1730762,151.417983848,-3.131716,15.434886,-1.789552,114.6, -4, -11.5,0,0,1648,364,1268,364,95,-100,37,-100,118.9,0,-20,54,3.807,3.807,0,0,0,0,6.612,96.44,111.46392843561,72.834648,6,P-GPS,
13000,2022-10-27 21:24:49,-34.9110835702221,-56.1434352714066,73.162732,102.0013156,9.790696835612,111.79201243561,41.0105,15.65858,153.418311996,160.795280736,24,5,7.601,111.79201243561,73.162732,16.1730762,153.418311996,-2.684328,15.434886,-1.565858,111.4, -3.7, -11.7,0,0,1648,364,1268,364,95,-100,37,-100,115.7,0,-19.9,54,3.807,3.807,0,0,0,0,6.612,96.44,111.79201243561,73.162732,6,P-GPS,
13100,2022-10-27 21:24:49,-34.9110846454381,-56.1434274388271,73.490816,103.0839928,9.036103635612,112.12009643561,41.0105,15.6362106,155.514440672,163.171265064,24,5,7.601,112.12009643561,73.490816,16.1730762,155.514440672,-2.460634,15.434886,-1.565858,108.3, -4.4, -11.6,0,0,1648,364,1268,364,95,-100,37,-100,112.5,0,-19.9,54,3.807,3.807,0,0,0,0,6.612,96.44,112.12009643561,73.490816,6,P-GPS,
13200,2022-10-27 21:24:50,-34.9110855151835,-56.1434199694273,73.490816,103.7073524,8.412744035612,112.12009643561,41.0105,15.5691024,157.48688168,165.428482984,24,5,7.637,112.12009643561,73.490816,16.1730762,157.48688168,-2.013246,15.434886,-1.342164,105.1, -4.8, -11.6,0,0,1648,364,1268,364,95,-100,37,-100,109.3,0,-19.9,54,3.826,3.818,0,0,0,0,5.735,96.44,112.12009643561,73.490816,6,P-GPS,
13300,2022-10-27 21:24:50,-34.9110864209371,-56.1434125112685,73.8189,104.6916044,7.756576035612,112.44818043561,41.0105,15.5243636,159.47178988,167.684060484,24,5,7.637,112.44818043561,73.8189,16.1730762,159.47178988,-1.565858,15.434886,-1.342164,101.9, -4.2, -11.5,0,0,1648,364,1268,364,95,-100,37,-100,106.1,0,-19.9,54,3.826,3.818,0,0,0,0,5.735,96.44,112.44818043561,73.8189,6,P-GPS,
13400,2022-10-27 21:24:50,-34.9110870435759,-56.1434051688207,74.146984,105.7414732,7.034791235612,112.77626443561,41.0105,15.4796248,161.375005164,169.892721972,24,5,7.637,112.77626443561,74.146984,16.1730762,161.375005164,-1.11847,15.434886,-1.342164,98.7, -4.2, -11.7,0,0,1648,364,1268,364,95,-100,37,-100,102.9,0,-20,54,3.826,3.818,0,0,0,0,5.735,96.44,112.77626443561,74.146984,6,P-GPS,
13500,2022-10-27 21:24:50,-34.9110875115516,-56.143397450239,74.146984,106.463258,6.313006435612,112.77626443561,41.0105,15.4572554,163.343837248,172.208338844,24,5,7.637,112.77626443561,74.146984,16.1730762,163.343837248,-0.671082,15.434886,-1.565858,95.3, -3.4, -11.9,0,0,1648,364,1268,364,95,-100,37,-100,99.7,0,-20,54,3.826,3.818,0,0,0,0,5.735,96.44,112.77626443561,74.146984,6,P-GPS,
13600,2022-10-27 21:24:50,-34.9110877744997,-56.1433901433528,74.475068,107.44751,5.656838435612,113.10434843561,41.0105,15.211192,165.178154892,174.396659124,24,5,7.637,113.10434843561,74.475068,16.1730762,165.178154892,0,15.211192,-1.565858,92, -4, -12.2,0,0,1648,364,1268,364,95,-100,37,-100,96.5,0,-19.9,54,3.826,3.818,0,0,0,0,5.735,96.44,113.10434843561,74.475068,6,P-GPS,
13700,2022-10-27 21:24:50,-34.9110877643382,-56.1433829503807,74.475068,108.103678,5.000670435612,113.10434843561,41.0105,14.987498,166.936028964,176.54856208,24,5,7.637,113.10434843561,74.475068,16.1730762,166.936028964,0.223694,14.987498,-1.565858,88.8, -4.1, -13.2,0,0,1648,364,1250,471,95,-100,34,-84,93.3,0,-20,54,3.826,3.818,0,0,0,0,5.735,96.44,113.10434843561,74.475068,6,P-GPS,
13800,2022-10-27 21:24:50,-34.9110875472471,-56.1433758340479,74.803152,109.08793,4.344502435612,113.43243243561,41.0105,14.7861734,168.641409596,178.67946766,24,5,7.637,113.43243243561,74.803152,16.1730762,168.641409596,0.671082,14.763804,-1.789552,86.3, -6.4, -11.4,0,0,1648,364,1151,823,95,-100,19,-30,90.1,0,-20,54,3.826,3.818,0,0,0,0,5.735,96.44,113.43243243561,74.803152,6,P-GPS,
13900,2022-10-27 21:24:50,-34.9110871454774,-56.143368429921,74.803152,109.8097148,3.622717635612,113.43243243561,41.0105,14.8085428,170.390097316,180.899284004,24,5,7.637,113.43243243561,74.803152,16.1730762,170.390097316,1.11847,14.763804,-1.342164,83.5, -7.5, -12.3,0,0,1655,364,1101,1024,96,-100,12,0,87.7,0,-20,54,3.826,3.818,0,0,0,0,5.735,96.44,113.43243243561,74.803152,6,P-GPS,
14000,2022-10-27 21:24:50,-34.9110866344065,-56.1433614285889,75.131236,110.7939668,2.966549635612,113.76051643561,41.0105,14.6072182,172.026908392,183.002302444,24,5,7.637,113.76051643561,75.131236,16.1730762,172.026908392,1.342164,14.54011,-0.894776,81.8, -6.6, -13.6,0,0,1667,364,1024,1024,97,-100,0,0,86.6,0,-18.2,54,3.826,3.818,0,0,0,0,5.735,96.44,113.76051643561,75.131236,6,P-GPS,
14100,2022-10-27 21:24:50,-34.9110859545768,-56.1433540475289,75.131236,111.4501348,2.310381635612,113.76051643561,41.0105,14.428263,173.735569864,185.22474346,24,5,7.637,113.76051643561,75.131236,16.1730762,173.735569864,1.789552,14.316416,-0.447388,81, -6.9, -14.8,0,0,1669,364,1024,1024,98,-100,0,0,86.1,0,-14.4,54,3.826,3.818,0,0,0,0,5.735,96.44,113.76051643561,75.131236,6,P-GPS,
14200,2022-10-27 21:24:51,-34.9110851269624,-56.1433472251749,75.131236,112.1063028,1.654213635612,113.76051643561,41.0105,14.4953712,175.28543868,187.288063736,24,5,7.63,113.76051643561,75.131236,16.1730762,175.28543868,2.23694,14.316416,0,80.5, -6.7, -15.8,0,0,1626,451,1024,1024,91,-87,0,0,86,0,-10.1,54,3.839,3.836,0,0,0,0,5.227,96.62,113.76051643561,75.131236,6,P-GPS,
14300,2022-10-27 21:24:51,-34.9110840216528,-56.1433403386344,75.131236,112.7296624,1.030854035612,113.76051643561,41.0105,14.3387854,176.808404608,189.387473252,24,5,7.63,113.76051643561,75.131236,16.1730762,176.808404608,2.684328,14.092722,0,80.3, -6.9, -15.3,0,0,1580,966,1024,1024,84,-9,0,0,86.1,0,-6.4,54,3.839,3.836,0,0,0,0,5.227,96.62,113.76051643561,75.131236,6,P-GPS,
14400,2022-10-27 21:24:51,-34.9110827871099,-56.1433338747797,75.131236,113.2874052,0.473111235612,113.76051643561,41.0105,14.0032444,178.210635624,191.373365704,24,5,7.63,113.76051643561,75.131236,16.1730762,178.210635624,3.131716,13.645334,0,80.5, -7.8, -14.5,0,0,1580,966,1024,1024,84,-9,0,0,86.1,0,-3.9,54,3.839,3.836,0,0,0,0,5.227,96.62,113.76051643561,75.131236,6,P-GPS,
14500,2022-10-27 21:24:51,-34.9110813707544,-56.1433270090915,75.131236,113.353022,0.407494435612,113.76051643561,41.0105,14.1150914,179.692262968,193.491476008,24,5,7.63,113.76051643561,75.131236,16.1730762,179.692262968,3.579104,13.645334,0,81.2, -10.9, -10.9,0,0,1460,1024,1024,1024,66,0,0,0,86,0,-2.3,54,3.839,3.836,0,0,0,0,5.227,96.62,113.76051643561,75.131236,6,P-GPS,
14600,2022-10-27 21:24:51,-34.9110798798814,-56.1433210075377,75.131236,113.353022,0.407494435612,113.76051643561,41.0105,14.1598302,180.950465108,195.36746032,24,5,7.63,113.76051643561,75.131236,16.1730762,180.950465108,3.802798,13.645334,0,80.9, -10.2, -3.4,0,0,1292,1024,1024,1024,41,0,0,0,86.1,0,-1.3,54,3.839,3.836,0,0,0,0,5.227,96.62,113.76051643561,75.131236,6,P-GPS,
14700,2022-10-27 21:24:51,-34.9110781767374,-56.1433139641668,75.45932,113.681106,0.407494435612,114.08860043561,41.0105,14.3835242,182.44915282,197.564638868,24,5,7.63,114.08860043561,75.45932,16.1730762,182.44915282,3.802798,13.869028,0,80, -5.3, -1,0,0,1185,1024,1024,1024,24,0,0,0,86,0,-0.7,54,3.839,3.836,0,0,0,0,5.227,96.62,114.08860043561,75.45932,6,P-GPS,
14800,2022-10-27 21:24:51,-34.9110765815658,-56.14330728665,75.45932,113.681106,0.407494435612,114.08860043561,41.0105,14.1598302,183.886816908,199.64567568,24,5,7.63,114.08860043561,75.45932,16.1730762,183.886816908,3.802798,13.645334,0,79.3, 0.4, -1.1,0,0,1024,1024,1024,1024,0,0,0,0,86.1,0,-0.4,54,3.839,3.836,0,0,0,0,5.227,96.62,114.08860043561,75.45932,6,P-GPS,
14900,2022-10-27 21:24:51,-34.911074953226,-56.1433006676782,75.45932,113.681106,0.407494435612,114.08860043561,41.0105,13.8913974,185.31496656,201.712932964,24,5,7.63,114.08860043561,75.45932,16.1730762,185.31496656,3.579104,13.42164,0,79.2, 5.1, -1.5,0,0,1024,1024,1024,1024,0,0,0,0,86,0,-0.3,54,3.839,3.836,0,0,0,0,5.227,96.62,114.08860043561,75.45932,6,P-GPS,
15000,2022-10-27 21:24:51,-34.9110732849698,-56.1432948288888,75.45932,113.681106,0.407494435612,114.08860043561,41.0105,13.1755766,186.543969224,203.56299864,24,5,7.63,114.08860043561,75.45932,16.1730762,186.543969224,3.35541,12.750558,0,79.4, 20.7, 0.8,0,0,1024,1024,1024,1024,0,0,0,0,86,0,-0.2,54,3.839,3.836,0,0,0,0,5.227,96.62,114.08860043561,75.45932,6,P-GPS,
15100,2022-10-27 21:24:51,-34.9110719380512,-56.1432885908566,75.45932,113.681106,0.407494435612,114.08860043561,41.0105,12.2136924,187.944231736,205.493116812,24,5,7.63,114.08860043561,75.45932,16.1730762,187.944231736,2.908022,11.855782,0,79, 19.7, 0.8,0,0,1216,1024,1024,1024,29,0,0,0,86,0,-0.1,54,3.839,3.836,0,0,0,0,5.227,96.62,114.08860043561,75.45932,6,P-GPS,
15200,2022-10-27 21:24:52,-34.911070790376,-56.1432830587495,75.45932,113.681106,0.407494435612,114.08860043561,41.0105,11.2741776,189.201777708,207.200137864,24,5,7.63,114.08860043561,75.45932,16.1730762,189.201777708,2.684328,10.961006,0,79.2, 18.8, 1.2,0,0,1216,1024,1024,1024,29,0,0,0,86.1,0,-0.1,54,3.839,3.836,0,0,0,0,5.227,96.62,114.08860043561,75.45932,6,P-GPS,
15300,2022-10-27 21:24:52,-34.9110698652374,-56.1432777154406,75.45932,113.681106,0.407494435612,114.08860043561,41.0105,10.3122934,190.45440242,208.834324268,24,5,7.657,114.08860043561,75.45932,16.1730762,190.45440242,2.23694,10.06623,0,79.3, 17.5, 1.1,0,0,1684,1024,1024,1024,100,0,0,0,86.1,0,-0.1,54,3.831,3.827,0,0,0,0,4.404,96.62,114.08860043561,75.45932,6,P-GPS,
15400,2022-10-27 21:24:52,-34.9110698292553,-56.1432731883772,75.45932,113.681106,0.407494435612,114.08860043561,41.0105,9.618842,191.646659676,210.18865502,24,5,7.657,114.08860043561,75.45932,16.1730762,191.646659676,2.013246,9.395148,0,79.3, 10.3, 0.4,0,0,1684,1024,1024,1024,100,0,0,0,86,0,-0.1,54,3.831,3.827,0,0,0,0,4.404,96.62,114.08860043561,75.45932,6,P-GPS,
15500,2022-10-27 21:24:52,-34.9110691353297,-56.1432686625673,75.787404,114.00919,0.407494435612,114.41668443561,41.0105,9.1267152,192.729993044,211.566279736,24,5,7.657,114.41668443561,75.787404,16.1730762,192.729993044,1.789552,8.94776,0,79, 5.6, -0.4,0,0,1684,1024,1024,1024,100,0,0,0,86,0,-0.1,54,3.831,3.827,0,0,0,0,4.404,96.62,114.41668443561,75.787404,6,P-GPS,
15600,2022-10-27 21:24:52,-34.9110685386418,-56.1432645249265,75.787404,114.00919,0.407494435612,114.41668443561,41.0105,8.8582824,193.73032116,212.82316954,24,5,7.657,114.41668443561,75.787404,16.1730762,193.73032116,1.565858,8.724066,0,79.2, 3.9, -1,0,0,1684,1024,1024,1024,100,0,0,0,86,0,-0.1,54,3.831,3.827,0,0,0,0,4.404,96.62,114.41668443561,75.787404,6,P-GPS,
