time(millisecond),datetime(utc),latitude,longitude,height_above_takeoff(feet),height_above_ground_at_drone_location(feet),ground_elevation_at_drone_location(feet),altitude_above_seaLevel(feet),height_sonar(feet),speed(mph),distance(feet),mileage(feet),satellites,gpslevel,voltage(v),max_altitude(feet),max_ascent(feet),max_speed(mph),max_distance(feet), xSpeed(mph), ySpeed(mph), zSpeed(mph), compass_heading(degrees), pitch(degrees), roll(degrees),isPhoto,isVideo,rc_elevator,rc_aileron,rc_throttle,rc_rudder,rc_elevator(percent),rc_aileron(percent),rc_throttle(percent),rc_rudder(percent),gimbal_heading(degrees),gimbal_pitch(degrees),gimbal_roll(degrees),battery_percent,voltageCell1,voltageCell2,voltageCell3,voltageCell4,voltageCell5,voltageCell6,current(A),battery_temperature(f),altitude(feet),ascent(feet),flycStateRaw,flycState,message
0,2022-08-11 22:46:22,0,0,0,,,42.655888504096,0.328084,0,0,0,8,2,0,42.655888504096,0,0,0,0,0,0,134.3, 7.7, 1,0,0,364,364,364,1684,-100,-100,-100,100,140.4,0,0,63,3.959,3.955,0,0,0,0,0,81.86,42.655888504096,0,41,Motors_Started,
100,2022-08-11 22:46:22,0,0,0,,,42.655888504096,0.328084,0,0,0,8,2,0,42.655888504096,0,0,0,0,0,0,134, 7.7, 1,0,0,364,364,364,1684,-100,-100,-100,100,140.3,0,0,63,3.959,3.955,0,0,0,0,0,81.86,42.655888504096,0,41,Motors_Started,"Baja velocidad de la tarjeta SD. Puede afectar a su uso normal. Sustituye la tarjeta SD (Code: 10028)"
200,2022-08-11 22:46:23,0,0,0,,,42.655888504096,0.328084,0,0,0,8,2,0,42.655888504096,0,0,0,0,0,0,133.8, 7.7, 1,0,0,364,364,364,1684,-100,-100,-100,100,140.4,0,0,63,3.959,3.955,0,0,0,0,0,81.86,42.655888504096,0,41,Motors_Started,
300,2022-08-11 22:46:23,0,0,0,,,42.655888504096,0.328084,0,0,0,8,2,0,42.655888504096,0,0,0,0,0,0,133.5, 7.7, 1,0,0,364,364,364,1684,-100,-100,-100,100,140.4,0,0,63,3.959,3.955,0,0,0,0,0,81.86,42.655888504096,0,41,Motors_Started,
400,2022-08-11 22:46:23,0,0,0,,,42.655888504096,0.328084,0,0,0,8,2,0,42.655888504096,0,0,0,0,0,0,133.3, 7.6, 0.9,0,0,784,632,756,1482,-36,-59,-41,69,140.4,0,0,63,3.959,3.955,0,0,0,0,0,81.86,42.655888504096,0,41,Motors_Started,"Señal GPS baja. La aeronave no puede realizar vuelo estacionario automáticamente y el despegue está restringido. Desplázate a un entorno con una iluminación adecuada. No se recomienda desbloquear las restricciones de despegue (Code: 30239). Baja velo"
500,2022-08-11 22:46:23,0,0,0,,,42.655888504096,0.328084,0,0,0,8,2,0,42.655888504096,0,0,0,0,0,0,133.1, 7.7, 1,0,0,784,632,756,1482,-36,-59,-41,69,140.4,0,0,63,3.959,3.955,0,0,0,0,0,81.86,42.655888504096,0,41,Motors_Started,"Señal GPS baja. La aeronave no puede realizar vuelo estacionario automáticamente y el despegue está restringido. Desplázate a un entorno con una iluminación adecuada. No se recomienda desbloquear las restricciones de despegue (Code: 30239). Baja velo"
600,2022-08-11 22:46:23,0,0,0,,,42.655888504096,0.328084,0,0,0,8,2,0,42.655888504096,0,0,0,0,0,0,132.9, 7.7, 1,0,0,1024,1024,1024,1024,0,0,0,0,140.4,0,0,63,3.959,3.955,0,0,0,0,0,81.86,42.655888504096,0,41,Motors_Started,
700,2022-08-11 22:46:23,0,0,0,,,42.655888504096,0.328084,0,0,0,8,2,0,42.655888504096,0,0,0,0,0,0,132.7, 7.7, 1,0,0,1024,1024,1024,1024,0,0,0,0,140.4,0,0,63,3.959,3.955,0,0,0,0,0,81.86,42.655888504096,0,41,Motors_Started,"Setting new Return-To-Home altitude to 40m (131 ft). Data Recorder File Index is 32. Setting new Maximum Flight Altitude to 120m (394 ft)"
800,2022-08-11 22:46:23,0,0,0,,,42.655888504096,0.328084,0,0,0,8,2,0,42.655888504096,0,0,0,0,0,0,132.6, 7.7, 1,0,0,1024,1024,1024,1024,0,0,0,0,140.4,0,0,63,3.959,3.955,0,0,0,0,0,81.86,42.655888504096,0,41,Motors_Started,
900,2022-08-11 22:46:23,0,0,0,,,42.655888504096,0.328084,0,0,0,8,2,0,42.655888504096,0,0,0,0,0,0,132.4, 7.7, 1,0,0,1024,1024,1024,1024,0,0,0,0,140.4,0,0,63,3.959,3.955,0,0,0,0,0,81.86,42.655888504096,0,41,Motors_Started,
1000,2022-08-11 22:46:23,0,0,0,,,42.655888504096,0.328084,0,0,0,8,2,0,42.655888504096,0,0,0,0,0,0,132.3, 7.7, 1,0,0,1024,1024,1024,1024,0,0,0,0,140.4,0,0,63,3.959,3.955,0,0,0,0,0,81.86,42.655888504096,0,41,Motors_Started,
1100,2022-08-11 22:46:23,0,0,0,,,42.655888504096,0.328084,0,0,0,8,2,0,42.655888504096,0,0,0,0,0,0,132.1, 7.7, 0.9,0,0,1024,1024,1134,1024,0,0,17,0,140.4,0,0,63,3.959,3.955,0,0,0,0,0,81.86,42.655888504096,0,10,Assisted_Takeoff,
1200,2022-08-11 22:46:24,0,0,0,,,42.655888504096,0.328084,0,0,0,8,2,0,42.655888504096,0,0,0,0,0,0,132, 7.7, 0.9,0,0,1024,1024,1684,1024,0,0,100,0,140.4,0,0,63,3.959,3.955,0,0,0,0,0,81.86,42.655888504096,0,10,Assisted_Takeoff,
1300,2022-08-11 22:46:24,0,0,0,,,42.655888504096,0.328084,0,0,0,8,2,0,42.655888504096,0,0,0,0,0,0,131.9, 7.7, 0.9,0,0,1024,1024,1576,1024,0,0,84,0,140.4,0,0,63,3.959,3.955,0,0,0,0,0,81.86,42.655888504096,0,10,Assisted_Takeoff,
1400,2022-08-11 22:46:24,0,0,0,,,42.655888504096,0.328084,0,0,0,8,2,0,42.655888504096,0,0,0,0,0,0,131.8, 7.5, 0.9,0,0,1024,1024,1576,1024,0,0,84,0,140.4,0,0,63,3.959,3.955,0,0,0,0,0,81.86,42.655888504096,0,10,Assisted_Takeoff,
1500,2022-08-11 22:46:24,0,0,0,,,42.655888504096,0.328084,0,0,0,8,2,0,42.655888504096,0,0,0,0,0,0,131.7, 7.4, 0.8,0,0,1024,1024,1024,1024,0,0,0,0,140.4,0,0,63,3.959,3.955,0,0,0,0,0,81.86,42.655888504096,0,10,Assisted_Takeoff,
1600,2022-08-11 22:46:24,0,0,0,,,42.655888504096,0.328084,0,0,0,8,2,0,42.655888504096,0,0,0,0,0,0,131.3, 7.1, 0.8,0,0,1024,1024,1024,1024,0,0,0,0,140.4,0,0,63,3.959,3.955,0,0,0,0,0,81.86,42.655888504096,0,10,Assisted_Takeoff,"Vuela con cuidado (sin GPS)"
1700,2022-08-11 22:46:24,0,0,0,,,42.655888504096,0.328084,0,0,0,8,2,7.95,42.655888504096,0,0,0,0,0,0,131, 7.2, 0.8,0,0,1024,1024,1374,1024,0,0,53,0,140.2,0,0,63,3.959,3.955,0,0,0,0,0.583,81.86,42.655888504096,0,10,Assisted_Takeoff,
1800,2022-08-11 22:46:24,0,0,0,,,42.655888504096,0.328084,0,0,0,8,2,7.95,42.655888504096,0,0,0,0,0,0,131, 7.1, 0.8,0,0,1024,1024,1684,1024,0,0,100,0,140.1,0,0,63,3.959,3.955,0,0,0,0,0.583,81.86,42.655888504096,0,10,Assisted_Takeoff,
1900,2022-08-11 22:46:24,0,0,0,,,42.655888504096,0.328084,0,0,0,8,2,7.95,42.655888504096,0,0,0,0,0,0,130.9, 7.1, 0.7,0,0,1024,1024,1684,1024,0,0,100,0,140.1,0,0,63,3.959,3.955,0,0,0,0,0.583,81.86,42.655888504096,0,10,Assisted_Takeoff,
2000,2022-08-11 22:46:24,0,0,0,,,42.655888504096,0.328084,0,0,0,8,2,7.95,42.655888504096,0,0,0,0,0,0,130.6, 6.1, 0.7,0,0,1024,1024,1684,1024,0,0,100,0,140.1,0,0,63,3.959,3.955,0,0,0,0,0.583,81.86,42.655888504096,0,10,Assisted_Takeoff,"Entorno demasiado oscuro. El posicionamiento visual no será preciso. Vuela con precaución (Code: 180032)"
2100,2022-08-11 22:46:24,0,0,0,,,42.655888504096,0.328084,0,0,0,8,2,7.95,42.655888504096,0,0,0,0,0,0,129.6, 2.2, 0.8,0,0,1024,1024,1684,1024,0,0,100,0,139.6,0,0,63,3.959,3.955,0,0,0,0,0.583,81.86,42.655888504096,0,10,Assisted_Takeoff,
2200,2022-08-11 22:46:25,0,0,0,,,42.655888504096,0.328084,0,0,0,8,2,7.95,42.655888504096,0,0,0,0,0,-0.223694,129.3, -1, 0.7,0,0,1024,1024,1361,1024,0,0,51,0,139,0,0,63,3.959,3.955,0,0,0,0,0.583,81.86,42.655888504096,0,10,Assisted_Takeoff,
2300,2022-08-11 22:46:25,0,0,0,,,42.655888504096,0.328084,0,0,0,8,2,7.95,42.655888504096,0,0,0,0,0,-0.447388,129.9, -0.5, 1.3,0,0,1024,1024,1024,1024,0,0,0,0,139,0,0,63,3.959,3.955,0,0,0,0,0.583,81.86,42.655888504096,0,6,P-GPS,"Baja velocidad de la tarjeta SD. Puede afectar a su uso normal. Sustituye la tarjeta SD (Code: 10028). Señal débil del GPS. Vuelo estacionario inestable. Vuela con cuidado (Code: 30002)"
2400,2022-08-11 22:46:25,0,0,0,,,42.655888504096,0.328084,0.223694,0,0,8,2,7.95,42.655888504096,0,0.223694,0,0,-0.223694,-0.671082,129.4, -0.4, -1,0,0,1024,1024,1024,1024,0,0,0,0,139,0,0,63,3.959,3.955,0,0,0,0,0.583,81.86,42.655888504096,0,6,P-GPS,
2500,2022-08-11 22:46:25,0,0,0,,,42.655888504096,0.656168,0.223694,0,0,8,2,7.95,42.655888504096,0,0.223694,0,0,-0.223694,-0.671082,129.2, -0.7, -1.2,0,0,1024,1024,1024,1024,0,0,0,0,139,0,0,63,3.959,3.955,0,0,0,0,0.583,81.86,42.655888504096,0,6,P-GPS,
2600,2022-08-11 22:46:25,0,0,0.328084,,,42.983972504096,0.656168,0,0,0,8,2,7.95,42.983972504096,0.328084,0.223694,0,0,0,-0.894776,129.3, -0.3, -1.5,0,0,1024,1024,1024,1024,0,0,0,0,139,0,0,63,3.959,3.955,0,0,0,0,0.583,81.86,42.983972504096,0.328084,6,P-GPS,
2700,2022-08-11 22:46:25,0,0,0.328084,,,42.983972504096,0.656168,0,0,0,8,2,7.95,42.983972504096,0.328084,0.223694,0,0,0,-0.894776,129.2, -0.8, -0.6,0,0,1024,1024,1024,1024,0,0,0,0,139,0,0,63,3.959,3.955,0,0,0,0,0.583,81.86,42.983972504096,0.328084,6,P-GPS,
2800,2022-08-11 22:46:25,0,0,0.328084,,,42.983972504096,0.984252,0.223694,0,0,8,2,7.95,42.983972504096,0.328084,0.223694,0,0,-0.223694,-0.894776,129.1, -1, -0.7,0,0,1024,1024,1024,1024,0,0,0,0,139,0,0,63,3.959,3.955,0,0,0,0,0.583,81.86,42.983972504096,0.328084,6,P-GPS,
2900,2022-08-11 22:46:25,0,0,0.656168,,,43.312056504096,0.984252,0.223694,0,0,8,2,7.909,43.312056504096,0.656168,0.223694,0,0,-0.223694,-0.894776,129, -0.8, -1.6,0,0,1024,1024,1024,1024,0,0,0,0,139,0,0,63,3.941,3.937,0,0,0,0,1.654,81.86,43.312056504096,0.656168,6,P-GPS,
3000,2022-08-11 22:46:25,0,0,0.656168,,,43.312056504096,1.312336,0.223694,0,0,8,2,7.909,43.312056504096,0.656168,0.223694,0,0,-0.223694,-0.894776,129.1, -1.2, -1.2,0,0,1024,1024,1024,1024,0,0,0,0,139,0,0,63,3.941,3.937,0,0,0,0,1.654,81.86,43.312056504096,0.656168,6,P-GPS,
3100,2022-08-11 22:46:25,0,0,0.984252,,,43.640140504096,1.312336,0.223694,0,0,8,2,7.909,43.640140504096,0.984252,0.223694,0,0,-0.223694,-0.894776,129.2, -1.4, -0.4,0,0,1153,1024,1024,1024,20,0,0,0,139,0,0,63,3.941,3.937,0,0,0,0,1.654,81.86,43.640140504096,0.984252,6,P-GPS,
3200,2022-08-11 22:46:26,0,0,0.984252,,,43.640140504096,1.312336,0.223694,0,0,8,2,7.909,43.640140504096,0.984252,0.223694,0,0,-0.223694,-0.671082,129.1, -1.8, -0.5,0,0,1684,1024,1024,1024,100,0,0,0,139,0,0,63,3.941,3.937,0,0,0,0,1.654,81.86,43.640140504096,0.984252,6,P-GPS,
3300,2022-08-11 22:46:26,0,0,1.312336,,,43.968224504096,1.64042,0.223694,0,0,8,2,7.909,43.968224504096,1.312336,0.223694,0,0,-0.223694,-0.671082,129.1, -3.4, -0.9,0,0,1657,1024,1024,1024,96,0,0,0,139,0,0,63,3.941,3.937,0,0,0,0,1.654,81.86,43.968224504096,1.312336,6,P-GPS,
3400,2022-08-11 22:46:26,0,0,1.312336,,,43.968224504096,1.64042,0,0,0,8,2,7.909,43.968224504096,1.312336,0.223694,0,0,0,-0.223694,129.2, -15.1, -1,0,0,1657,1024,1024,1024,96,0,0,0,139,0,0,63,3.941,3.937,0,0,0,0,1.654,81.86,43.968224504096,1.312336,6,P-GPS,
3500,2022-08-11 22:46:26,0,0,1.312336,,,43.968224504096,1.64042,0.3131716,0,0,8,2,7.909,43.968224504096,1.312336,0.3131716,0,-0.223694,0.223694,0,129.2, -21.4, -1.1,0,0,1024,1024,1024,1024,0,0,0,0,139,0,0,63,3.941,3.937,0,0,0,0,1.654,81.86,43.968224504096,1.312336,6,P-GPS,
3600,2022-08-11 22:46:26,-34.9227323167282,-56.1514144652868,1.312336,1.312336,42.655888504096,43.968224504096,1.64042,0.8052984,0,0,8,2,7.909,43.968224504096,1.312336,0.8052984,0,-0.447388,0.671082,0,128.8, -1.8, -1,0,0,1024,1024,1024,1024,0,0,0,0,139,0,0,63,3.941,3.937,0,0,0,0,1.654,81.86,43.968224504096,1.312336,6,P-GPS,
3700,2022-08-11 22:46:26,-34.9227326373973,-56.1514139982594,1.312336,1.5419948,42.426229704096,43.968224504096,1.64042,0.8052984,0.182228352288,0.182228352288,8,2,7.909,43.968224504096,1.312336,0.8052984,0.182228352288,-0.447388,0.671082,0,128.8, 3.2, -0.7,0,0,1024,1024,1024,1024,0,0,0,0,139,0,0,63,3.941,3.937,0,0,0,0,1.654,81.86,43.968224504096,1.312336,6,P-GPS,
3800,2022-08-11 22:46:26,-34.922732625761,-56.1514145322973,1.312336,1.4435696,42.524654904096,43.968224504096,1.64042,0.6263432,0.114518704452,0.34204069336,8,2,7.909,43.968224504096,1.312336,0.8052984,0.182228352288,-0.447388,0.447388,0,128.7, 3.6, -1,0,0,1040,1024,1024,1024,2,0,0,0,139,0,0,63,3.941,3.937,0,0,0,0,1.654,81.86,43.968224504096,1.312336,6,P-GPS,
3900,2022-08-11 22:46:26,-34.9227321438092,-56.1514165024634,1.312336,1.0826772,42.885547304096,43.968224504096,1.64042,0.6263432,0.61267718496,0.9570866448,8,2,7.909,43.968224504096,1.312336,0.8052984,0.61267718496,-0.447388,0.447388,0,128.6, 3.1, -1.1,0,0,1632,1024,1024,1024,92,0,0,0,139,0,0,63,3.941,3.937,0,0,0,0,1.654,81.86,43.968224504096,1.312336,6,P-GPS,
4000,2022-08-11 22:46:26,-34.9227319161502,-56.151417550512,1.312336,0.984252,42.983972504096,43.968224504096,1.64042,0.3131716,0.93444228712,1.28142720636,8,2,7.909,43.968224504096,1.312336,0.8052984,0.93444228712,-0.223694,0.223694,0,128.5, -0.1, -1,0,0,1684,1024,1024,1024,100,0,0,0,139,0,0,63,3.941,3.937,0,0,0,0,1.654,81.86,43.968224504096,1.312336,6,P-GPS,"Aeronave en Zona de altitud restringida (límite: 150m). Vuela con precaución (Code: 190012)"
4100,2022-08-11 22:46:27,-34.9227322775321,-56.1514167283146,1.312336,1.0826772,42.885547304096,43.968224504096,1.64042,0.3131716,0.6771325676,1.56049545676,8,2,7.909,43.968224504096,1.312336,0.8052984,0.93444228712,-0.223694,0.223694,0,128.7, -12.4, -1.1,0,0,1679,1024,1024,1024,99,0,0,0,139,0,0,63,3.941,3.937,0,0,0,0,1.654,81.86,43.968224504096,1.312336,6,P-GPS,
4200,2022-08-11 22:46:27,-34.9227325567067,-56.1514163699599,1.312336,1.3779528,42.590271704096,43.968224504096,1.64042,0.9395148,0.57646983472,1.70837275808,8,2,7.909,43.968224504096,1.312336,0.9395148,0.93444228712,-0.671082,0.671082,0,128.8, -20.4, -1.1,0,0,1373,1024,1024,1024,53,0,0,0,139,0,0,63,3.941,3.937,0,0,0,0,1.654,81.86,43.968224504096,1.312336,6,P-GPS,
4300,2022-08-11 22:46:27,-34.9227329676844,-56.1514160532253,1.312336,1.3779528,42.590271704096,43.968224504096,1.64042,1.5882274,0.53109253668,1.885744811,8,2,7.765,43.968224504096,1.312336,1.5882274,0.93444228712,-1.11847,1.11847,0,128.7, -22, -1,0,0,1373,1024,1024,1024,53,0,0,0,139,0,0,63,3.895,3.885,0,0,0,0,4.236,81.68,43.968224504096,1.312336,6,P-GPS,
4400,2022-08-11 22:46:27,-34.9227335198953,-56.1514154829672,1.312336,1.6732284,42.294996104096,43.968224504096,1.64042,2.3711564,0.53421261552,2.14974088244,8,2,7.765,43.968224504096,1.312336,2.3711564,0.93444228712,-1.565858,1.789552,0,128.6, -16.6, -0.9,0,0,1102,1024,1024,1024,12,0,0,0,139,0,0,63,3.895,3.885,0,0,0,0,4.236,81.68,43.968224504096,1.312336,6,P-GPS,
4500,2022-08-11 22:46:27,-34.922734055646,-56.1514156563032,0.984252,1.2795276,42.360612904096,43.640140504096,1.64042,2.3711564,0.7276410994,2.3519685792,8,2,7.765,43.968224504096,1.312336,2.3711564,0.93444228712,-1.789552,2.23694,0,128.4, -6, -0.8,0,0,1040,1024,1024,1024,2,0,0,0,139,0,0,63,3.895,3.885,0,0,0,0,4.236,81.68,43.640140504096,0.984252,6,P-GPS,
4600,2022-08-11 22:46:27,-34.922734723904,-56.1514148253158,0.984252,1.5748032,42.065337304096,43.640140504096,1.968504,3.019869,0.88483598632,2.70016740924,8,2,7.765,43.968224504096,1.312336,3.019869,0.93444228712,-2.013246,2.23694,0,128.3, -0.5, -1,0,0,1024,1024,1024,1024,0,0,0,0,139,0,0,63,3.895,3.885,0,0,0,0,4.236,81.68,43.640140504096,0.984252,6,P-GPS,
4700,2022-08-11 22:46:27,-34.9227353436455,-56.1514140141836,0.984252,1.6732284,41.966912104096,43.640140504096,1.968504,2.8632832,1.1125820566,3.03183736736,8,2,7.765,43.968224504096,1.312336,3.019869,1.1125820566,-1.789552,2.23694,0,127.8, 8.3, -0.7,0,0,1024,1024,1024,1024,0,0,0,0,139,0,0,63,3.895,3.885,0,0,0,0,4.236,81.68,43.640140504096,0.984252,6,P-GPS,
4800,2022-08-11 22:46:27,-34.9227359790435,-56.1514132058662,0.984252,1.968504,41.671636504096,43.640140504096,1.968504,2.3711564,1.38829400768,3.3668308164,8,2,7.765,43.968224504096,1.312336,3.019869,1.38829400768,-1.565858,1.789552,0,127.7, 11.4, -0.9,0,0,1024,1024,1024,1024,0,0,0,0,139,0,0,63,3.895,3.885,0,0,0,0,4.236,81.68,43.640140504096,0.984252,6,P-GPS,
4900,2022-08-11 22:46:27,-34.9227369094725,-56.1514122803178,0.984252,2.2637796,41.376360904096,43.640140504096,1.968504,2.3711564,1.79862866648,3.8048885732,8,4,7.765,43.968224504096,1.312336,3.019869,1.79862866648,-1.11847,1.342164,0,126.2, 10.1, -0.8,0,0,1041,1024,1024,1024,3,0,0,0,139,0,0,63,3.895,3.885,0,0,0,0,4.236,81.68,43.640140504096,0.984252,6,P-GPS,
5000,2022-08-11 22:46:27,-34.9227374929379,-56.1514115915426,0.984252,2.2637796,41.376360904096,43.640140504096,1.968504,2.3711564,2.0750000664,4.1011484252,8,4,7.765,43.968224504096,1.312336,3.019869,2.0750000664,-0.894776,0.671082,0,125.7, 7.4, -1.2,0,0,1195,1024,1024,1024,26,0,0,0,139,0,0,63,3.895,3.885,0,0,0,0,4.236,81.68,43.640140504096,0.984252,6,P-GPS,"Baja velocidad de la tarjeta SD. Puede afectar a su uso normal. Sustituye la tarjeta SD (Code: 10028)"
5100,2022-08-11 22:46:27,-34.9227379809077,-56.1514110199781,0.984252,2.5590552,41.081085304096,43.640140504096,1.968504,0.6263432,2.30932422088,4.3479988268,8,4,7.765,43.968224504096,1.312336,3.019869,2.30932422088,-0.447388,0.447388,0,125.7, 5.3, -1.2,0,0,1275,1024,1024,1024,38,0,0,0,139,0,0,63,3.895,3.885,0,0,0,0,4.236,81.68,43.640140504096,0.984252,6,P-GPS,
5200,2022-08-11 22:46:28,-34.9227383592196,-56.1514105404755,0.984252,2.5590552,41.081085304096,43.640140504096,1.968504,0.6263432,2.49775598544,4.5470473896,8,4,7.765,43.968224504096,1.312336,3.019869,2.49775598544,-0.447388,0.447388,0,126, 0.5, -1.6,0,0,1275,1024,1024,1024,38,0,0,0,139,0,0,63,3.895,3.885,0,0,0,0,4.236,81.68,43.640140504096,0.984252,6,P-GPS,
5300,2022-08-11 22:46:28,-34.9227386860614,-56.1514100558199,0.984252,2.8871392,40.753001304096,43.640140504096,1.968504,0.4921268,2.67212606976,4.7347770544,8,4,7.774,43.968224504096,1.312336,3.019869,2.67212606976,-0.447388,0.223694,0,124.6, -3.1, -1.1,0,0,1208,1024,1024,1024,28,0,0,0,139,0,0,62,3.89,3.88,0,0,0,0,4.438,81.68,43.640140504096,0.984252,6,P-GPS,
5400,2022-08-11 22:46:28,-34.9227390868019,-56.1514087466732,0.984252,2.952756,40.687384504096,43.640140504096,1.968504,0.8052984,3.00461951872,5.1528216872,8,4,7.774,43.968224504096,1.312336,3.019869,3.00461951872,-0.447388,0.671082,0,124.1, -4.2, -0.8,0,0,1157,1024,1024,1024,20,0,0,0,139,0,0,62,3.89,3.88,0,0,0,0,4.438,81.68,43.640140504096,0.984252,6,P-GPS,
5500,2022-08-11 22:46:28,-34.9227391723188,-56.1514083563709,0.984252,3.0511812,40.588959304096,43.640140504096,1.968504,0.8052984,3.0977363196,5.2736550244,8,4,7.774,43.968224504096,1.312336,3.019869,3.0977363196,-0.447388,0.671082,0,124.8, -2.5, -0.6,0,0,1134,1024,1024,1024,17,0,0,0,139,0,0,62,3.89,3.88,0,0,0,0,4.438,81.68,43.640140504096,0.984252,6,P-GPS,
5600,2022-08-11 22:46:28,-34.9227392589382,-56.1514079490721,0.984252,3.0511812,40.588959304096,43.640140504096,1.968504,1.006623,3.1961287112,5.3995408552,8,4,7.774,43.968224504096,1.312336,3.019869,3.1961287112,-0.447388,0.894776,0,125.1, -1.2, -0.3,0,0,1119,1024,1024,1024,14,0,0,0,139,0,0,62,3.89,3.88,0,0,0,0,4.438,81.68,43.640140504096,0.984252,6,P-GPS,
5700,2022-08-11 22:46:28,-34.9227393621018,-56.1514074880053,0.984252,3.116798,40.523342504096,43.640140504096,1.968504,1.006623,3.3112205784,5.5425198624,8,4,7.774,43.968224504096,1.312336,3.019869,3.3112205784,-0.447388,0.894776,0,125.5, -0.9, -0.4,0,0,1110,1024,1024,1024,13,0,0,0,139,0,0,62,3.89,3.88,0,0,0,0,4.438,81.68,43.640140504096,0.984252,6,P-GPS,"Baja velocidad de la tarjeta SD. Puede afectar a su uso normal. Sustituye la tarjeta SD (Code: 10028)"
5800,2022-08-11 22:46:28,-34.9227391933746,-56.1514071420275,0.984252,3.116798,40.523342504096,43.640140504096,1.968504,0.9395148,3.3307743848,5.6629266904,8,4,7.774,43.968224504096,1.312336,3.019869,3.3307743848,-0.671082,0.671082,0,125.7, -0.6, -0.4,0,0,1110,1024,1024,1024,13,0,0,0,139,0,0,62,3.89,3.88,0,0,0,0,4.438,81.68,43.640140504096,0.984252,6,P-GPS,
5900,2022-08-11 22:46:28,-34.9227394616469,-56.1514066876229,0.984252,3.116798,40.523342504096,43.640140504096,1.968504,0.9395148,3.4941274084,5.8304463808,8,4,7.774,43.968224504096,1.312336,3.019869,3.4941274084,-0.671082,0.671082,0,126, -0.8, -0.8,0,0,1109,1024,1024,1024,13,0,0,0,139,0,0,62,3.89,3.88,0,0,0,0,4.438,81.68,43.640140504096,0.984252,6,P-GPS,
6000,2022-08-11 22:46:28,-34.9227397125763,-56.1514062513112,0.984252,3.4120736,40.228066904096,43.640140504096,1.968504,0.8052984,3.6495407992,5.9898623964,8,4,7.774,43.968224504096,1.312336,3.019869,3.6495407992,-0.447388,0.671082,0,126.2, -1.1, -0.9,0,0,1109,1024,1024,1024,13,0,0,0,139,0,0,62,3.89,3.88,0,0,0,0,4.438,81.68,43.640140504096,0.984252,6,P-GPS,
6100,2022-08-11 22:46:28,-34.9227399672584,-56.1514057786008,0.984252,3.4120736,40.228066904096,43.640140504096,1.968504,0.8052984,3.8136812244,6.1590881236,8,4,7.774,43.968224504096,1.312336,3.019869,3.8136812244,-0.447388,0.671082,0,126.4, -1.4, -0.7,0,0,1109,1024,1024,1024,13,0,0,0,139,0,0,62,3.89,3.88,0,0,0,0,4.438,81.68,43.640140504096,0.984252,6,P-GPS,
6200,2022-08-11 22:46:29,-34.922740241249,-56.1514053814292,0.984252,3.5104988,40.129641704096,43.640140504096,1.968504,0.8052984,3.967847896,6.3143374724,8,4,7.774,43.968224504096,1.312336,3.019869,3.967847896,-0.447388,0.671082,0,126.6, -1.6, -0.1,0,0,1105,1024,1024,1024,12,0,0,0,139,0,0,62,3.89,3.88,0,0,0,0,4.438,81.68,43.640140504096,0.984252,6,P-GPS,
6300,2022-08-11 22:46:29,-34.9227405839909,-56.1514050448238,0.984252,3.7401576,39.899982904096,43.640140504096,1.968504,0.8052984,4.127952888,6.474901782,8,4,7.774,43.968224504096,1.312336,3.019869,4.127952888,-0.447388,0.671082,0,126.7, -1.6, -0.1,0,0,1105,1024,1024,1024,12,0,0,0,139,0,0,62,3.89,3.88,0,0,0,0,4.438,81.68,43.640140504096,0.984252,6,P-GPS,
6400,2022-08-11 22:46:29,-34.9227408832972,-56.1514047699051,0.656168,3.4120736,39.899982904096,43.312056504096,1.968504,0.8052984,4.2639108976,6.6116143848,8,4,7.765,43.968224504096,1.312336,3.019869,4.2639108976,-0.447388,0.671082,0,126.7, -1.6, -0.4,0,0,1105,1024,1024,1024,12,0,0,0,139,0,0,62,3.886,3.877,0,0,0,0,4.293,81.68,43.312056504096,0.656168,6,P-GPS,
6500,2022-08-11 22:46:29,-34.9227411378035,-56.1514045394879,0.656168,3.4120736,39.899982904096,43.312056504096,1.968504,0.8052984,4.3788715312,6.7272639948,8,4,7.765,43.968224504096,1.312336,3.019869,4.3788715312,-0.447388,0.671082,0,126.8, -1.4, -0.8,0,0,1105,1024,1024,1024,12,0,0,0,139,0,0,62,3.886,3.877,0,0,0,0,4.293,81.68,43.312056504096,0.656168,6,P-GPS,
6600,2022-08-11 22:46:29,-34.9227415177985,-56.1514043273178,0.656168,3.7073492,39.604707304096,43.312056504096,1.968504,0.8052984,4.5240487012,6.8797246296,8,4,7.765,43.968224504096,1.312336,3.019869,4.5240487012,-0.447388,0.671082,0,126.9, -1.2, -1.1,0,0,1105,1024,1024,1024,12,0,0,0,139,0,0,62,3.886,3.877,0,0,0,0,4.293,81.68,43.312056504096,0.656168,6,P-GPS,
6700,2022-08-11 22:46:29,-34.9227417958813,-56.1514039175427,0.656168,3.7073492,39.604707304096,43.312056504096,1.968504,0.8052984,4.681594638,7.0388453696,8,4,7.765,43.968224504096,1.312336,3.019869,4.681594638,-0.447388,0.671082,0,127, -1, -1,0,0,1105,1024,1024,1024,12,0,0,0,139,0,0,62,3.886,3.877,0,0,0,0,4.293,81.68,43.312056504096,0.656168,6,P-GPS,
6800,2022-08-11 22:46:29,-34.9227420539962,-56.1514035150646,0.656168,3.7073492,39.604707304096,43.312056504096,1.968504,0.8052984,4.832349236,7.1916997052,8,4,7.765,43.968224504096,1.312336,3.019869,4.832349236,-0.447388,0.671082,0,127.2, -1.2, -0.7,0,0,1102,1024,1024,1024,12,0,0,0,139,0,0,62,3.886,3.877,0,0,0,0,4.293,81.68,43.312056504096,0.656168,6,P-GPS,
6900,2022-08-11 22:46:29,-34.9227423212499,-56.1514030808047,0.656168,3.772966,39.539090504096,43.312056504096,1.968504,0.8052984,4.9921917608,7.3541340936,8,4,7.765,43.968224504096,1.312336,3.019869,4.9921917608,-0.447388,0.671082,0,127.2, -1.2, -0.6,0,0,1102,1024,1024,1024,12,0,0,0,139,0,0,62,3.886,3.877,0,0,0,0,4.293,81.68,43.312056504096,0.656168,6,P-GPS,
7000,2022-08-11 22:46:29,-34.9227425840385,-56.1514026027003,0.656168,4.0026248,39.309431704096,43.312056504096,1.64042,0.8052984,5.1600067268,7.5263453852,8,4,7.765,43.968224504096,1.312336,3.019869,5.1600067268,-0.447388,0.671082,0,127.3, -1.1, -0.7,0,0,1100,1024,1024,1024,12,0,0,0,139,0,0,62,3.886,3.877,0,0,0,0,4.293,81.68,43.312056504096,0.656168,6,P-GPS,
7100,2022-08-11 22:46:29,-34.9227430046281,-56.1514016083869,0.656168,4.10105,39.211006504096,43.312056504096,1.64042,0.8052984,5.4770999128,7.8610238736,8,4,7.765,43.968224504096,1.312336,3.019869,5.4770999128,-0.447388,0.671082,0,127.3, -1, -0.3,0,0,1093,1024,1024,1024,10,0,0,0,139,0,0,62,3.886,3.877,0,0,0,0,4.293,81.68,43.312056504096,0.656168,6,P-GPS,
7200,2022-08-11 22:46:30,-34.9227432366276,-56.1514009700702,0.656168,4.1666668,39.145389704096,43.312056504096,1.64042,0.8052984,5.6719818088,8.0699149564,8,4,7.765,43.968224504096,1.312336,3.019869,5.6719818088,-0.447388,0.671082,0,127.4, -0.9, -0.4,0,0,1056,1024,1024,1024,5,0,0,0,139,0,0,62,3.886,3.877,0,0,0,0,4.293,81.68,43.312056504096,0.656168,6,P-GPS,
7300,2022-08-11 22:46:30,-34.9227434201036,-56.1514002012045,0.656168,4.265092,39.046964504096,43.312056504096,1.64042,0.8052984,5.8837928392,8.3094490848,8,4,7.765,43.968224504096,1.312336,3.019869,5.8837928392,-0.447388,0.671082,0,127.5, -1.1, -0.5,0,0,1024,1024,1024,1024,0,0,0,0,139,0,0,62,3.886,3.877,0,0,0,0,4.293,81.68,43.312056504096,0.656168,6,P-GPS,
7400,2022-08-11 22:46:30,-34.922743561363,-56.1513994753252,0.656168,4.5603676,38.751688904096,43.312056504096,1.64042,0.6263432,6.0777889084,8.53264463,8,4,7.754,43.968224504096,1.312336,3.019869,6.0777889084,-0.447388,0.447388,0,127.5, 0.7, -0.4,0,0,1024,1024,1024,1024,0,0,0,0,139,0,0,62,3.881,3.872,0,0,0,0,4.334,81.68,43.312056504096,0.656168,6,P-GPS,
7500,2022-08-11 22:46:30,-34.9227433713138,-56.1513979958038,0.656168,4.429134,38.882922504096,43.312056504096,1.64042,0.4921268,6.3671589964,8.9806105236,8,4,7.754,43.968224504096,1.312336,3.019869,6.3671589964,-0.223694,0.447388,0,127.5, 2.6, -0.6,0,0,1024,1024,1024,1024,0,0,0,0,139,0,0,62,3.881,3.872,0,0,0,0,4.334,81.68,43.312056504096,0.656168,6,P-GPS,
7600,2022-08-11 22:46:30,-34.9227434244865,-56.1513973179407,0.656168,4.4947508,38.817305704096,43.312056504096,1.64042,0.3131716,6.5373361672,9.1843506876,8,4,7.754,43.968224504096,1.312336,3.019869,6.5373361672,-0.223694,0.223694,0,127.6, 2.5, -0.9,0,0,1024,1024,1024,1024,0,0,0,0,139,0,0,62,3.881,3.872,0,0,0,0,4.334,81.68,43.312056504096,0.656168,6,P-GPS,"Se detectó tarjeta SD de baja velocidad"
7700,2022-08-11 22:46:30,-34.9227434415616,-56.1513965991377,0.656168,4.4947508,38.817305704096,43.312056504096,1.64042,0.3131716,6.7111550704,9.399442558,8,4,7.754,43.968224504096,1.312336,3.019869,6.7111550704,-0.223694,0.223694,0,127.8, 2, -0.6,0,0,1024,1024,1024,1024,0,0,0,0,139,0,0,62,3.881,3.872,0,0,0,0,4.334,81.68,43.312056504096,0.656168,6,P-GPS,
7800,2022-08-11 22:46:30,-34.9227434471691,-56.1513960058005,0.656168,4.593176,38.718880504096,43.312056504096,1.64042,0.223694,6.8545605868,9.5769688104,8,4,7.754,43.968224504096,1.312336,3.019869,6.8545605868,0,0.223694,0,127.8, 1.7, -0.1,0,0,1024,1024,1024,1024,0,0,0,0,139,0,0,62,3.881,3.872,0,0,0,0,4.334,81.68,43.312056504096,0.656168,6,P-GPS,
7900,2022-08-11 22:46:30,-34.9227434099307,-56.1513951030253,0.656168,4.6587928,38.653263704096,43.312056504096,1.64042,0,7.0661747668,9.8473756432,8,4,7.754,43.968224504096,1.312336,3.019869,7.0661747668,0,0,0,127.8, 1.1, 0,0,0,1024,1024,1024,1024,0,0,0,0,139,0,0,62,3.881,3.872,0,0,0,0,4.334,81.68,43.312056504096,0.656168,6,P-GPS,
8000,2022-08-11 22:46:30,-34.9227434422415,-56.15139483267,0.656168,4.6587928,38.653263704096,43.312056504096,1.64042,0,7.1393046904,9.9291013676,8,4,7.754,43.968224504096,1.312336,3.019869,7.1393046904,0,0,0,127.8, 0.6, -0.4,0,0,1024,1024,1024,1024,0,0,0,0,139,0,0,62,3.881,3.872,0,0,0,0,4.334,81.68,43.312056504096,0.656168,6,P-GPS,
8100,2022-08-11 22:46:30,-34.9227434960192,-56.1513948091008,0.656168,4.6587928,38.653263704096,43.312056504096,1.64042,0,7.1562666332,9.9499347016,8,4,7.754,43.968224504096,1.312336,3.019869,7.1562666332,0,0,0,127.8, 0.9, -0.7,0,0,1024,1024,1024,1024,0,0,0,0,139,0,0,62,3.881,3.872,0,0,0,0,4.334,81.68,43.312056504096,0.656168,6,P-GPS,
8200,2022-08-11 22:46:31,-34.9227435295651,-56.1513948537865,0.656168,4.8884516,38.423604904096,43.312056504096,1.64042,0,7.1522968168,9.9680777468,12,4,7.754,43.968224504096,1.312336,3.019869,7.1562666332,0,0,0,127.9, 0, -1,0,0,1024,1024,1024,1024,0,0,0,0,139,0,0,62,3.881,3.872,0,0,0,0,4.334,81.68,43.312056504096,0.656168,6,P-GPS,
8300,2022-08-11 22:46:31,-34.9227436755714,-56.1513959507995,0.656168,4.7900264,38.522030104096,43.312056504096,1.64042,0,6.9174214812,10.300525264,12,4,7.754,43.968224504096,1.312336,3.019869,7.1562666332,0,0,0,127.9, -0.5, -1,0,0,1024,1024,1024,1024,0,0,0,0,139,0,0,62,3.881,3.872,0,0,0,0,4.334,81.68,43.312056504096,0.656168,6,P-GPS,
8400,2022-08-11 22:46:31,-34.9227437318057,-56.1513958640873,0.656168,4.7900264,38.522030104096,43.312056504096,1.64042,0,6.9504923484,10.3335961312,12,4,7.751,43.968224504096,1.312336,3.019869,7.1562666332,0,0,0,127.9, -0.6, -1.1,0,0,1024,1024,1024,1024,0,0,0,0,139,0,0,62,3.877,3.867,0,0,0,0,4.284,81.86,43.312056504096,0.656168,6,P-GPS,
8500,2022-08-11 22:46:31,-34.9227438992846,-56.1513954177085,0.656168,4.8884516,38.423604904096,43.312056504096,1.64042,0,7.0940947152,10.4804465296,12,4,7.751,43.968224504096,1.312336,3.019869,7.1562666332,0,0,0,128.1, -0.6, -0.6,0,0,1024,1024,1024,1024,0,0,0,0,139,0,0,62,3.877,3.867,0,0,0,0,4.284,81.86,43.312056504096,0.656168,6,P-GPS,
8600,2022-08-11 22:46:31,-34.9227441067435,-56.1513949476533,0.656168,4.8884516,38.423604904096,43.312056504096,1.64042,0,7.2521655864,10.6401578208,12,4,7.751,43.968224504096,1.312336,3.019869,7.2521655864,0,0,0,128, -0.1, -1.2,0,0,1024,1024,1024,1024,0,0,0,0,139,0,0,62,3.877,3.867,0,0,0,0,4.284,81.86,43.312056504096,0.656168,6,P-GPS,
8700,2022-08-11 22:46:31,-34.9227443452861,-56.1513944727866,0.656168,4.9540684,38.357988104096,43.312056504096,1.64042,0,7.4181760904,10.806758876,12,4,7.751,43.968224504096,1.312336,3.019869,7.4181760904,0,0,0,128.1, -0.1, -1.6,0,0,1024,1024,1024,1024,0,0,0,0,139,0,0,62,3.877,3.867,0,0,0,0,4.284,81.86,43.312056504096,0.656168,6,P-GPS,
8800,2022-08-11 22:46:31,-34.9227450832611,-56.1513931591523,0.656168,5.2821524,38.029904104096,43.312056504096,1.64042,0,7.8942915912,11.2831040356,12,4,7.751,43.968224504096,1.312336,3.019869,7.8942915912,0,0,0,128, 0.1, -1.5,0,0,1024,1024,1024,890,0,0,0,-20,139,0,0,62,3.877,3.867,0,0,0,0,4.284,81.86,43.312056504096,0.656168,6,P-GPS,
8900,2022-08-11 22:46:31,-34.9227453166155,-56.1513926384192,0.656168,5.2821524,38.029904104096,43.312056504096,1.64042,0,8.0703414656,11.460630288,12,4,7.751,43.968224504096,1.312336,3.019869,8.0703414656,0,0,0,128.1, 0, -1.3,0,0,1024,1024,1024,750,0,0,0,-42,139,0,0,62,3.877,3.867,0,0,0,0,4.284,81.86,43.312056504096,0.656168,6,P-GPS,
9000,2022-08-11 22:46:31,-34.9227455104883,-56.1513921977844,0.656168,5.577428,37.734628504096,43.312056504096,1.64042,0,8.2185698168,11.610236592,12,4,7.751,43.968224504096,1.312336,3.019869,8.2185698168,0,0,0,128.1, 0, -0.8,0,0,1024,1024,1024,750,0,0,0,-42,138.8,0,0,62,3.877,3.867,0,0,0,0,4.284,81.86,43.312056504096,0.656168,6,P-GPS,"Punto de origen actualizado. Altitud de RPO establecida en 40m (Code: 3000001)"
9100,2022-08-11 22:46:32,-34.9227456636614,-56.1513918551045,0.656168,5.577428,37.734628504096,43.312056504096,1.64042,0,8.3344162772,11.7270016876,12,4,7.751,43.968224504096,1.312336,3.019869,8.3344162772,0,0,0,127.8, 0, -0.8,0,0,1024,1024,1024,672,0,0,0,-53,138.2,0,0,62,3.877,3.867,0,0,0,0,4.284,81.86,43.312056504096,0.656168,6,P-GPS,
9200,2022-08-11 22:46:32,-34.9227460374886,-56.1513912146758,0.656168,5.6430448,37.669011704096,43.312056504096,1.64042,0,8.5695868884,11.9621722988,12,4,7.751,43.968224504096,1.312336,3.019869,8.5695868884,0,0,0,127, 0, -0.4,0,0,1024,1024,1024,663,0,0,0,-55,137,0,0,62,3.877,3.867,0,0,0,0,4.284,81.86,43.312056504096,0.656168,6,P-GPS,
9300,2022-08-11 22:46:32,-34.9227461542334,-56.1513908587289,0.656168,5.6430448,37.669011704096,43.312056504096,1.64042,0,8.680938598,12.0768376568,12,4,7.751,43.968224504096,1.312336,3.019869,8.680938598,0,0,0,125.7, -0.2, -0.5,0,0,1024,1024,1024,657,0,0,0,-56,135.5,0,0,62,3.877,3.867,0,0,0,0,4.284,81.86,43.312056504096,0.656168,6,P-GPS,
9400,2022-08-11 22:46:32,-34.9227462516257,-56.1513905225584,0.656168,5.6430448,37.669011704096,43.312056504096,1.64042,0,8.783464848,12.1834977652,12,4,7.745,43.968224504096,1.312336,3.019869,8.783464848,0,0,0,124.2, -0.3, -0.6,0,0,1024,1024,1024,656,0,0,0,-56,133.8,0,0,62,3.874,3.865,0,0,0,0,4.343,81.68,43.312056504096,0.656168,6,P-GPS,
9500,2022-08-11 22:46:32,-34.922746328757,-56.1513901678966,0.656168,5.74147,37.570586504096,43.312056504096,1.64042,0.223694,8.8863519904,12.2932746716,12,4,7.745,43.968224504096,1.312336,3.019869,8.8863519904,0,-0.223694,0,122.5, -0.7, -1,0,0,1024,1024,1024,672,0,0,0,-53,132.2,0,0,62,3.874,3.865,0,0,0,0,4.343,81.68,43.312056504096,0.656168,6,P-GPS,
9600,2022-08-11 22:46:32,-34.9227463355166,-56.1513897961254,0.656168,5.74147,37.570586504096,43.312056504096,1.64042,0.223694,8.9789372952,12.404527956,12,4,7.745,43.968224504096,1.312336,3.019869,8.9789372952,0,-0.223694,0,120.9, -0.6, -1,0,0,1024,1024,1024,910,0,0,0,-17,130.5,0,0,62,3.874,3.865,0,0,0,0,4.343,81.68,43.312056504096,0.656168,6,P-GPS,
9700,2022-08-11 22:46:32,-34.9227464802967,-56.1513895348838,0.656168,5.74147,37.570586504096,43.312056504096,1.64042,0.223694,9.0732614452,12.498852106,12,4,7.745,43.968224504096,1.312336,3.019869,9.0732614452,0,-0.223694,0,119.2, -0.7, -1.3,0,0,1024,1024,1024,1024,0,0,0,0,128.9,0,0,62,3.874,3.865,0,0,0,0,4.343,81.68,43.312056504096,0.656168,6,P-GPS,
9800,2022-08-11 22:46:32,-34.9227466114044,-56.151389348814,0.656168,6.0367456,37.275310904096,43.312056504096,1.64042,0.223694,9.1462601352,12.5722444968,12,4,7.745,43.968224504096,1.312336,3.019869,9.1462601352,0,-0.223694,0,117.9, -0.6, -1.3,0,0,1024,1024,1024,1024,0,0,0,0,128.1,0,0,62,3.874,3.865,0,0,0,0,4.343,81.68,43.312056504096,0.656168,6,P-GPS,
9900,2022-08-11 22:46:32,-34.92274673422,-56.1513892334781,0.656168,6.0367456,37.275310904096,43.312056504096,1.64042,0.223694,9.2001643364,12.6288061784,12,4,7.745,43.968224504096,1.312336,3.019869,9.2001643364,0,-0.223694,0,117.3, -0.4, -1.5,0,0,1024,1024,1024,1024,0,0,0,0,127.7,0,0,62,3.874,3.865,0,0,0,0,4.343,81.68,43.312056504096,0.656168,6,P-GPS,
10000,2022-08-11 22:46:32,-34.9227468526062,-56.1513896485375,0.656168,5.9711288,37.340927704096,43.312056504096,1.64042,0.223694,9.1236223392,12.7602694372,12,4,7.745,43.968224504096,1.312336,3.019869,9.2001643364,0,-0.223694,0,117, -0.4, -1.6,0,0,1024,1024,1024,1024,0,0,0,0,127.6,0,0,62,3.874,3.865,0,0,0,0,4.343,81.68,43.312056504096,0.656168,6,P-GPS,
10100,2022-08-11 22:46:32,-34.9227469464551,-56.1513895034807,0.656168,5.9711288,37.340927704096,43.312056504096,1.64042,0.223694,9.1788388764,12.8155187828,12,4,7.745,43.968224504096,1.312336,3.019869,9.2001643364,0,-0.223694,0,117, -0.4, -1.5,0,0,1024,1024,1024,1024,0,0,0,0,127.6,0,0,62,3.874,3.865,0,0,0,0,4.343,81.68,43.312056504096,0.656168,6,P-GPS,
10200,2022-08-11 22:46:33,-34.9227470234088,-56.1513893861674,0.656168,6.0367456,37.275310904096,43.312056504096,1.64042,0,9.2237207676,12.8604662908,12,4,7.745,43.968224504096,1.312336,3.019869,9.2237207676,0,0,0,117, -0.1, -1,0,0,1024,1024,1024,1024,0,0,0,0,127.6,0,0,62,3.874,3.865,0,0,0,0,4.343,81.68,43.312056504096,0.656168,6,P-GPS,
10300,2022-08-11 22:46:33,-34.9227470928701,-56.1513893084827,0.656168,6.0367456,37.275310904096,43.312056504096,1.64042,0,9.2573493776,12.894849494,12,4,7.745,43.968224504096,1.312336,3.019869,9.2573493776,0,0,0,117, -0.1, -0.9,0,0,1024,1024,1024,1024,0,0,0,0,127.6,0,0,62,3.874,3.865,0,0,0,0,4.343,81.68,43.312056504096,0.656168,6,P-GPS,
10400,2022-08-11 22:46:33,-34.9227471600565,-56.1513892479963,0.656168,6.0367456,37.275310904096,43.312056504096,1.64042,0.223694,9.2863520032,12.9253284976,12,4,7.745,43.968224504096,1.312336,3.019869,9.2863520032,0,-0.223694,0,117, -0.1, -0.8,0,0,1024,1024,1024,841,0,0,0,-28,127.6,0,0,62,3.874,3.865,0,0,0,0,4.343,81.68,43.312056504096,0.656168,6,P-GPS,
10500,2022-08-11 22:46:33,-34.9227471657772,-56.1513895137151,0.656168,5.9711288,37.340927704096,43.312056504096,1.64042,0.223694,9.2231302164,13.0048560592,12,4,7.739,43.968224504096,1.312336,3.019869,9.2863520032,0,-0.223694,0,117.1, -0.2, -0.9,0,0,1024,1024,1024,772,0,0,0,-38,127.6,0,0,62,3.871,3.861,0,0,0,0,4.339,81.86,43.312056504096,0.656168,6,P-GPS,
10600,2022-08-11 22:46:33,-34.9227472193644,-56.1513894555377,0.656168,6.0367456,37.275310904096,43.312056504096,1.64042,0.223694,9.24868796,13.031004354,12,4,7.739,43.968224504096,1.312336,3.019869,9.2863520032,0,-0.223694,0,116.9, -0.1, -1,0,0,1024,1024,1024,869,0,0,0,-23,127.2,0,0,62,3.871,3.861,0,0,0,0,4.339,81.86,43.312056504096,0.656168,6,P-GPS,
10700,2022-08-11 22:46:33,-34.9227472503911,-56.1513893966003,0.656168,6.0367456,37.275310904096,43.312056504096,1.64042,0.223694,9.2696197192,13.0519689216,12,4,7.739,43.968224504096,1.312336,3.019869,9.2863520032,0,-0.223694,0,116.3, -0.2, -1,0,0,1024,1024,1024,1024,0,0,0,0,126.4,0,0,62,3.871,3.861,0,0,0,0,4.339,81.86,43.312056504096,0.656168,6,P-GPS,
10800,2022-08-11 22:46:33,-34.9227472760196,-56.1513893822336,0.656168,6.0367456,37.275310904096,43.312056504096,1.64042,0.223694,9.2785764124,13.0622707592,12,4,7.739,43.968224504096,1.312336,3.019869,9.2863520032,0,-0.223694,0,115.6, -0.1, -0.8,0,0,1024,1024,1024,1024,0,0,0,0,125.8,0,0,62,3.871,3.861,0,0,0,0,4.339,81.86,43.312056504096,0.656168,6,P-GPS,
10900,2022-08-11 22:46:33,-34.9227472013766,-56.151389718425,0.656168,5.9711288,37.340927704096,43.312056504096,1.64042,0.223694,9.1812995064,13.1664374292,12,4,7.739,43.968224504096,1.312336,3.019869,9.2863520032,0,-0.223694,0,115.1, -0.3, -0.5,0,0,1024,1024,1024,1024,0,0,0,0,125.6,0,0,62,3.871,3.861,0,0,0,0,4.339,81.86,43.312056504096,0.656168,6,P-GPS,
11000,2022-08-11 22:46:33,-34.9227472297425,-56.1513897343015,0.656168,5.9711288,37.340927704096,43.312056504096,1.64042,0.223694,9.1835960944,13.1778547524,12,4,7.739,43.968224504096,1.312336,3.019869,9.2863520032,0,-0.223694,0,115, -0.6, -0.4,0,0,1024,1024,1024,760,0,0,0,-40,125.5,0,0,62,3.871,3.861,0,0,0,0,4.339,81.86,43.312056504096,0.656168,6,P-GPS,
11100,2022-08-11 22:46:33,-34.9227472678871,-56.1513896981418,0.656168,5.9711288,37.340927704096,43.312056504096,1.64042,0.223694,9.2005580372,13.1954728632,12,4,7.739,43.968224504096,1.312336,3.019869,9.2863520032,0,-0.223694,0,114.9, -0.8, -0.5,0,0,1024,1024,1024,605,0,0,0,-63,125.3,0,0,62,3.871,3.861,0,0,0,0,4.339,81.86,43.312056504096,0.656168,6,P-GPS,
11200,2022-08-11 22:46:34,-34.9227472929733,-56.1513896657854,0.656168,5.9711288,37.340927704096,43.312056504096,1.64042,0.223694,9.2137798224,13.2087930736,12,4,7.739,43.968224504096,1.312336,3.019869,9.2863520032,0,-0.223694,0,114.3, -0.7, -0.5,0,0,1024,1024,1024,561,0,0,0,-70,124,0,0,62,3.871,3.861,0,0,0,0,4.339,81.86,43.312056504096,0.656168,6,P-GPS,
11300,2022-08-11 22:46:34,-34.9227472264058,-56.1513896221367,0.656168,5.9711288,37.340927704096,43.312056504096,1.64042,0.223694,9.2099412396,13.2363521296,12,4,7.739,43.968224504096,1.312336,3.019869,9.2863520032,0,-0.223694,0,112.6, -0.6, -0.6,0,0,1024,1024,1024,525,0,0,0,-76,121.9,0,0,62,3.871,3.861,0,0,0,0,4.339,81.86,43.312056504096,0.656168,6,P-GPS,
11400,2022-08-11 22:46:34,-34.9227472565841,-56.1513895917472,0.656168,5.9711288,37.340927704096,43.312056504096,1.64042,0.223694,9.2237863844,13.250656592,12,4,7.739,43.968224504096,1.312336,3.019869,9.2863520032,0,-0.223694,0,110.4, -0.7, -0.4,0,0,1024,1024,1024,528,0,0,0,-75,119.4,0,0,62,3.871,3.861,0,0,0,0,4.339,81.86,43.312056504096,0.656168,6,P-GPS,
11500,2022-08-11 22:46:34,-34.9227473205608,-56.1513895616424,0.656168,5.9711288,37.340927704096,43.312056504096,1.64042,0.223694,9.2448493772,13.2756565928,12,4,7.729,43.968224504096,1.312336,3.019869,9.2863520032,0,-0.223694,0,107.8, -1.1, -0.3,0,0,1024,1024,1024,534,0,0,0,-74,116.5,0,0,62,3.868,3.859,0,0,0,0,4.385,81.86,43.312056504096,0.656168,6,P-GPS,
11600,2022-08-11 22:46:34,-34.9227473739363,-56.1513895312033,0.656168,5.9711288,37.340927704096,43.312056504096,1.64042,0.223694,9.2637142072,13.2971460948,12,4,7.729,43.968224504096,1.312336,3.019869,9.2863520032,0,-0.223694,0,105, -1.1, -0.6,0,0,1024,1024,1024,534,0,0,0,-74,113.7,0,0,62,3.868,3.859,0,0,0,0,4.385,81.86,43.312056504096,0.656168,6,P-GPS,
11700,2022-08-11 22:46:34,-34.9227473661442,-56.1513894755231,0.656168,6.0367456,37.275310904096,43.312056504096,1.64042,0.223694,9.2754596144,13.3140424208,12,4,7.729,43.968224504096,1.312336,3.019869,9.2863520032,0,-0.223694,0,102.2, -1.1, -0.9,0,0,1024,1024,1024,611,0,0,0,-63,110.8,0,0,62,3.868,3.859,0,0,0,0,4.385,81.86,43.312056504096,0.656168,6,P-GPS,
11800,2022-08-11 22:46:34,-34.9227473897273,-56.1513894521629,0.656168,6.0367456,37.275310904096,43.312056504096,1.64042,0.223694,9.2861879612,13.32513166,12,4,7.729,43.968224504096,1.312336,3.019869,9.2863520032,0,-0.223694,0,99.4, -0.9, -0.8,0,0,1024,1024,1024,611,0,0,0,-63,108,0,0,62,3.868,3.859,0,0,0,0,4.385,81.86,43.312056504096,0.656168,6,P-GPS,
11900,2022-08-11 22:46:34,-34.9227474027988,-56.1513894537981,0.656168,6.0367456,37.275310904096,43.312056504096,1.64042,0.223694,9.2886157828,13.3299216864,12,4,7.729,43.968224504096,1.312336,3.019869,9.2886157828,0,-0.223694,0,96.6, -1.1, -0.9,0,0,1024,1024,1024,857,0,0,0,-25,105.4,0,0,62,3.868,3.859,0,0,0,0,4.385,81.86,43.312056504096,0.656168,6,P-GPS,
12000,2022-08-11 22:46:34,-34.9227474087182,-56.151389477443,0.656168,6.0367456,37.275310904096,43.312056504096,1.64042,0.223694,9.2841866488,13.3373363848,12,4,7.729,43.968224504096,1.312336,3.019869,9.2886157828,0,-0.223694,0,94.4, -0.9, -1.1,0,0,1024,1024,1024,965,0,0,0,-9,103.9,0,0,62,3.868,3.859,0,0,0,0,4.385,81.86,43.312056504096,0.656168,6,P-GPS,
12100,2022-08-11 22:46:34,-34.9227474049647,-56.1513895426235,0.656168,5.9711288,37.340927704096,43.312056504096,1.64042,0.223694,9.2676840236,13.3568901912,12,4,7.729,43.968224504096,1.312336,3.019869,9.2886157828,0,-0.223694,0,93.3, -1.5, -0.7,0,0,1024,1024,1024,891,0,0,0,-20,103.4,0,0,62,3.868,3.859,0,0,0,0,4.385,81.86,43.312056504096,0.656168,6,P-GPS,
12200,2022-08-11 22:46:35,-34.9227472892947,-56.1513897930613,0.984252,6.2992128,37.340927704096,43.640140504096,1.64042,0.223694,9.1823493752,13.4428481992,12,4,7.729,43.968224504096,1.312336,3.019869,9.2886157828,0,-0.223694,0,93, -1.5, -0.4,0,0,1024,1024,1024,666,0,0,0,-54,103.2,0,0,62,3.868,3.859,0,0,0,0,4.385,81.86,43.640140504096,0.984252,6,P-GPS,
12300,2022-08-11 22:46:35,-34.9227472737333,-56.1513899168344,0.984252,6.2992128,37.340927704096,43.640140504096,1.64042,0.223694,9.1492456996,13.480315392,12,4,7.729,43.968224504096,1.312336,3.019869,9.2886157828,0,-0.223694,0,92.8, -1.6, -0.3,0,0,1024,1024,1024,669,0,0,0,-54,102.8,0,0,62,3.868,3.859,0,0,0,0,4.385,81.86,43.640140504096,0.984252,6,P-GPS,
12400,2022-08-11 22:46:35,-34.9227472671364,-56.1513900414748,0.984252,6.2992128,37.340927704096,43.640140504096,1.64042,0.223694,9.1179136776,13.5176841596,12,4,7.729,43.968224504096,1.312336,3.019869,9.2886157828,0,-0.223694,0,92, -1.6, -0.5,0,0,1024,1024,1024,978,0,0,0,-7,101.5,0,0,62,3.868,3.859,0,0,0,0,4.385,81.86,43.640140504096,0.984252,6,P-GPS,
12500,2022-08-11 22:46:35,-34.9227472711375,-56.1513901767151,0.984252,6.2992128,37.340927704096,43.640140504096,1.64042,0.223694,9.0863848052,13.5581697252,12,4,7.724,43.968224504096,1.312336,3.019869,9.2886157828,0,-0.223694,0,90.5, -1.6, -0.4,0,0,1024,1024,1024,1024,0,0,0,0,100.1,0,0,62,3.865,3.856,0,0,0,0,4.376,81.86,43.640140504096,0.984252,6,P-GPS,
12600,2022-08-11 22:46:35,-34.9227472162036,-56.151390600486,0.984252,6.2007876,37.439352904096,43.640140504096,1.64042,0.223694,8.9731958252,13.686516186,12,4,7.724,43.968224504096,1.312336,3.019869,9.2886157828,0,-0.223694,0,89.3, -1.5, -0.7,0,0,1024,1024,1024,1024,0,0,0,0,99.4,0,0,62,3.865,3.856,0,0,0,0,4.376,81.86,43.640140504096,0.984252,6,P-GPS,
12700,2022-08-11 22:46:35,-34.9227471894694,-56.1513906672755,0.984252,6.2007876,37.439352904096,43.640140504096,1.64042,0.223694,8.9513782392,13.7087602812,12,4,7.724,43.968224504096,1.312336,3.019869,9.2886157828,0,-0.223694,0,88.9, -1.7, -0.7,0,0,1024,1024,1024,834,0,0,0,-29,99.2,0,0,62,3.865,3.856,0,0,0,0,4.376,81.86,43.640140504096,0.984252,6,P-GPS,
12800,2022-08-11 22:46:35,-34.9227471790441,-56.1513907392188,0.984252,6.2007876,37.439352904096,43.640140504096,1.64042,0.223694,8.9319556664,13.7306106756,12,4,7.724,43.968224504096,1.312336,3.019869,9.2886157828,0,-0.223694,0,88.7, -1.7, -0.9,0,0,1024,1024,1024,687,0,0,0,-51,99,0,0,62,3.865,3.856,0,0,0,0,4.376,81.86,43.640140504096,0.984252,6,P-GPS,
12900,2022-08-11 22:46:35,-34.9227471960434,-56.1513908290394,0.984252,6.2007876,37.439352904096,43.640140504096,1.64042,0.223694,8.9144031724,13.7581697316,12,4,7.724,43.968224504096,1.312336,3.019869,9.2886157828,0,-0.223694,0,88.3, -2, -0.6,0,0,1024,1024,1024,819,0,0,0,-31,98.2,0,0,62,3.865,3.856,0,0,0,0,4.376,81.86,43.640140504096,0.984252,6,P-GPS,
13000,2022-08-11 22:46:35,-34.922747169293,-56.1513909332111,0.984252,6.2007876,37.439352904096,43.640140504096,1.64042,0.223694,8.8837601268,13.790846898,12,4,7.724,43.968224504096,1.312336,3.019869,9.2886157828,0,-0.223694,0,87.3, -1.7, -1,0,0,1024,1024,1024,1024,0,0,0,0,96.9,0,0,62,3.865,3.856,0,0,0,0,4.376,81.86,43.640140504096,0.984252,6,P-GPS,
13100,2022-08-11 22:46:35,-34.9227470755125,-56.1513910707423,0.984252,6.2007876,37.439352904096,43.640140504096,1.64042,0.223694,8.8302824348,13.8443573984,12,4,7.724,43.968224504096,1.312336,3.019869,9.2886157828,0,-0.223694,0,86.1, -1.9, -1.2,0,0,1024,1024,1024,1024,0,0,0,0,96.2,0,0,62,3.865,3.856,0,0,0,0,4.376,81.86,43.640140504096,0.984252,6,P-GPS,
13200,2022-08-11 22:46:36,-34.922747016058,-56.1513911844509,0.984252,6.2007876,37.439352904096,43.640140504096,1.64042,0.223694,8.7900921448,13.884678922,12,5,7.724,43.968224504096,1.312336,3.019869,9.2886157828,0,-0.223694,0,85.6, -1.6, -1.3,0,0,1024,1024,1024,1024,0,0,0,0,95.8,0,0,62,3.865,3.856,0,0,0,0,4.376,81.86,43.640140504096,0.984252,6,P-GPS,
13300,2022-08-11 22:46:36,-34.9227470067596,-56.1513912778841,0.984252,6.2007876,37.439352904096,43.640140504096,1.64042,0.223694,8.7658795456,13.9128613376,12,5,7.724,43.968224504096,1.312336,3.019869,9.2886157828,0,-0.223694,0,85.3, -1.6, -1.1,0,0,1024,1024,1024,1024,0,0,0,0,95.8,0,0,62,3.865,3.856,0,0,0,0,4.376,81.86,43.640140504096,0.984252,6,P-GPS,
13400,2022-08-11 22:46:36,-34.922746873053,-56.1513914306936,0.984252,6.2007876,37.439352904096,43.640140504096,1.64042,0.223694,8.6999018532,13.9796920484,12,5,7.724,43.968224504096,1.312336,3.019869,9.2886157828,0,-0.223694,0,85.2, -1.9, -0.8,0,0,1024,1024,1024,1024,0,0,0,0,95.8,0,0,62,3.865,3.856,0,0,0,0,4.376,81.86,43.640140504096,0.984252,6,P-GPS,
13500,2022-08-11 22:46:36,-34.9227468006849,-56.1513915177089,0.984252,6.1351708,37.504969704096,43.640140504096,1.64042,0.223694,8.6631564452,14.0167655404,12,5,7.719,43.968224504096,1.312336,3.019869,9.2886157828,0,-0.223694,0,85.2, -2, -0.2,0,0,1024,1024,1024,1024,0,0,0,0,95.8,0,0,62,3.863,3.853,0,0,0,0,4.373,81.86,43.640140504096,0.984252,6,P-GPS,
13600,2022-08-11 22:46:36,-34.9227467307742,-56.1513915957514,0.984252,6.1351708,37.504969704096,43.640140504096,1.64042,0.223694,8.629101326,14.051345594,12,5,7.719,43.968224504096,1.312336,3.019869,9.2886157828,0,-0.223694,0,85.2, -1.8, 0,0,0,1024,1024,1024,1024,0,0,0,0,95.8,0,0,62,3.863,3.853,0,0,0,0,4.373,81.86,43.640140504096,0.984252,6,P-GPS,
13700,2022-08-11 22:46:36,-34.9227466596845,-56.1513916744549,0.984252,6.1351708,37.504969704096,43.640140504096,1.64042,0.223694,8.5946196976,14.0863849652,12,5,7.719,43.968224504096,1.312336,3.019869,9.2886157828,0,-0.223694,0,85.2, -1.8, 0.1,0,0,1024,1024,1024,1024,0,0,0,0,95.8,0,0,62,3.863,3.853,0,0,0,0,4.373,81.86,43.640140504096,0.984252,6,P-GPS,
13800,2022-08-11 22:46:36,-34.9227466039575,-56.1513917483076,0.984252,6.1351708,37.504969704096,43.640140504096,1.64042,0.223694,8.5647312452,14.1164046512,12,5,7.719,43.968224504096,1.312336,3.019869,9.2886157828,0,-0.223694,0,85.2, -1.6, -0.3,0,0,1024,1024,1024,1024,0,0,0,0,95.8,0,0,62,3.863,3.853,0,0,0,0,4.373,81.86,43.640140504096,0.984252,6,P-GPS,
13900,2022-08-11 22:46:36,-34.9227464765122,-56.1513918550209,0.984252,5.905512,37.734628504096,43.640140504096,1.64042,0,8.5111223196,14.1728022908,12,5,7.719,43.968224504096,1.312336,3.019869,9.2886157828,0,0,0,85.3, -1.4, -0.4,0,0,1024,1024,1024,1024,0,0,0,0,95.8,0,0,62,3.863,3.853,0,0,0,0,4.373,81.86,43.640140504096,0.984252,6,P-GPS,
14000,2022-08-11 22:46:36,-34.9227464276328,-56.1513919245897,0.984252,5.905512,37.734628504096,43.640140504096,1.64042,0,8.483760114,14.2002301132,12,5,7.719,43.968224504096,1.312336,3.019869,9.2886157828,0,0,0,85.2, -1.1, -0.7,0,0,1024,1024,1024,1024,0,0,0,0,95.8,0,0,62,3.863,3.853,0,0,0,0,4.373,81.86,43.640140504096,0.984252,6,P-GPS,
14100,2022-08-11 22:46:36,-34.9227463588669,-56.1513919997981,0.984252,5.905512,37.734628504096,43.640140504096,1.64042,0,8.4506564384,14.23392434,12,5,7.719,43.968224504096,1.312336,3.019869,9.2886157828,0,0,0,85.2, -1, -0.7,0,0,1024,1024,1024,1024,0,0,0,0,95.8,0,0,62,3.863,3.853,0,0,0,0,4.373,81.86,43.640140504096,0.984252,6,P-GPS,
14200,2022-08-11 22:46:37,-34.9227462849697,-56.1513920797528,0.984252,5.905512,37.734628504096,43.640140504096,1.64042,0.223694,8.4152889832,14.2699479632,12,5,7.719,43.968224504096,1.312336,3.019869,9.2886157828,0,-0.223694,0,85.2, -0.9, -0.7,0,0,1024,1024,1024,1024,0,0,0,0,95.8,0,0,62,3.863,3.853,0,0,0,0,4.373,81.86,43.640140504096,0.984252,6,P-GPS,
14300,2022-08-11 22:46:37,-34.9227460413708,-56.1513922585452,0.984252,5.905512,37.734628504096,43.640140504096,1.64042,0.223694,8.3189963292,14.373688124,12,5,7.719,43.968224504096,1.312336,3.019869,9.2886157828,0,-0.223694,0,85.2, -1.6, -0.3,0,0,1024,1024,1024,1024,0,0,0,0,95.8,0,0,62,3.863,3.853,0,0,0,0,4.373,81.86,43.640140504096,0.984252,6,P-GPS,
14400,2022-08-11 22:46:37,-34.9227459932861,-56.1513923620534,0.984252,5.905512,37.734628504096,43.640140504096,1.64042,0.223694,8.2836944908,14.409285238,12,5,7.719,43.968224504096,1.312336,3.019869,9.2886157828,0,-0.223694,0,85.3, -1.6, -0.5,0,0,1024,1024,1024,1024,0,0,0,0,95.8,0,0,62,3.863,3.853,0,0,0,0,4.373,81.86,43.640140504096,0.984252,6,P-GPS,
14500,2022-08-11 22:46:37,-34.9227459981193,-56.1513924739805,0.984252,5.905512,37.734628504096,43.640140504096,1.64042,0.223694,8.2580711304,14.4428154228,12,5,7.712,43.968224504096,1.312336,3.019869,9.2886157828,0,-0.223694,0,85.2, -1.8, -0.4,0,0,1024,1024,1024,1024,0,0,0,0,95.8,0,0,62,3.862,3.852,0,0,0,0,4.409,81.86,43.640140504096,0.984252,6,P-GPS,
14600,2022-08-11 22:46:37,-34.9227459969631,-56.1513925577828,0.984252,5.8070868,37.833053704096,43.640140504096,1.64042,0.223694,8.237861156,14.4678810404,12,5,7.712,43.968224504096,1.312336,3.019869,9.2886157828,0,-0.223694,0,85.3, -1.5, -0.5,0,0,1024,1024,1024,1024,0,0,0,0,95.8,0,0,62,3.862,3.852,0,0,0,0,4.409,81.86,43.640140504096,0.984252,6,P-GPS,
14700,2022-08-11 22:46:37,-34.9227460598178,-56.1513926299742,0.984252,5.8070868,37.833053704096,43.640140504096,1.64042,0.223694,8.2346131244,14.4993771044,12,5,7.712,43.968224504096,1.312336,3.019869,9.2886157828,0,-0.223694,0,85.3, -1.5, -0.9,0,0,1024,1024,1024,1024,0,0,0,0,95.8,0,0,62,3.862,3.852,0,0,0,0,4.409,81.86,43.640140504096,0.984252,6,P-GPS,
14800,2022-08-11 22:46:37,-34.9227460351159,-56.1513927129432,0.984252,5.8070868,37.833053704096,43.640140504096,1.64042,0.223694,8.2094490816,14.5257878664,12,5,7.712,43.968224504096,1.312336,3.019869,9.2886157828,0,-0.223694,0,85.4, -1.4, -1.3,0,0,1024,1024,1024,1024,0,0,0,0,95.8,0,0,62,3.862,3.852,0,0,0,0,4.409,81.86,43.640140504096,0.984252,6,P-GPS,
14900,2022-08-11 22:46:37,-34.9227459870654,-56.1513928411413,0.984252,5.8070868,37.833053704096,43.640140504096,1.64042,0.223694,8.1683729648,14.5679466604,12,5,7.712,43.968224504096,1.312336,3.019869,9.2886157828,0,-0.223694,0,85.4, -1.7, -0.7,0,0,1024,1024,1024,1024,0,0,0,0,95.8,0,0,62,3.862,3.852,0,0,0,0,4.409,81.86,43.640140504096,0.984252,6,P-GPS,
15000,2022-08-11 22:46:37,-34.9227459285506,-56.1513929431736,0.984252,5.8070868,37.833053704096,43.640140504096,1.64042,0.223694,8.1311682392,14.6052170028,12,5,7.712,43.968224504096,1.312336,3.019869,9.2886157828,0,-0.223694,0,85.4, -1.8, 0.2,0,0,1024,1024,1024,1024,0,0,0,0,95.8,0,0,62,3.862,3.852,0,0,0,0,4.409,81.86,43.640140504096,0.984252,6,P-GPS,
15100,2022-08-11 22:46:38,-34.9227457953031,-56.1513931410241,0.984252,5.8070868,37.833053704096,43.640140504096,1.64042,0.223694,8.0545934336,14.6817918084,12,5,7.712,43.968224504096,1.312336,3.019869,9.2886157828,0,-0.223694,0,85.3, -1.4, 0.4,0,0,1024,1024,1024,1024,0,0,0,0,95.8,0,0,62,3.862,3.852,0,0,0,0,4.409,81.86,43.640140504096,0.984252,6,P-GPS,
15200,2022-08-11 22:46:38,-34.9227457428656,-56.1513932076909,0.984252,5.8070868,37.833053704096,43.640140504096,1.64042,0,8.0271328028,14.7094492896,12,5,7.712,43.968224504096,1.312336,3.019869,9.2886157828,0,0,0,85.3, -1.4, 0,0,0,1024,1024,1024,1024,0,0,0,0,95.8,0,0,62,3.862,3.852,0,0,0,0,4.409,81.86,43.640140504096,0.984252,6,P-GPS,
15300,2022-08-11 22:46:38,-34.922745696906,-56.1513932691542,0.984252,5.8070868,37.833053704096,43.640140504096,1.64042,0,8.0023296524,14.7343180568,12,5,7.712,43.968224504096,1.312336,3.019869,9.2886157828,0,0,0,85.4, -1, -0.3,0,0,1024,1024,1024,1024,0,0,0,0,95.8,0,0,62,3.862,3.852,0,0,0,0,4.409,81.86,43.640140504096,0.984252,6,P-GPS,
15400,2022-08-11 22:46:38,-34.9227456622869,-56.1513933109561,0.984252,5.8070868,37.833053704096,43.640140504096,1.64042,0,7.9847115416,14.7521002096,12,5,7.712,43.968224504096,1.312336,3.019869,9.2886157828,0,0,0,85.3, -0.6, -0.2,0,0,1024,1024,1024,1024,0,0,0,0,95.8,0,0,62,3.862,3.852,0,0,0,0,4.409,81.86,43.640140504096,0.984252,6,P-GPS,
15500,2022-08-11 22:46:38,-34.9227456385508,-56.1513933304087,0.984252,5.8070868,37.833053704096,43.640140504096,1.64042,0,7.9748362132,14.7625332808,12,5,7.712,43.968224504096,1.312336,3.019869,9.2886157828,0,0,0,85.2, -0.9, -0.3,0,0,1024,1024,1024,1024,0,0,0,0,95.8,0,0,62,3.862,3.852,0,0,0,0,4.409,81.86,43.640140504096,0.984252,6,P-GPS,
15600,2022-08-11 22:46:38,-34.9227455999322,-56.1513933081376,0.984252,5.8070868,37.833053704096,43.640140504096,1.64042,0,7.9715225648,14.7781172708,12,5,7.71,43.968224504096,1.312336,3.019869,9.2886157828,0,0,0,85.2, -0.8, -0.9,0,0,1024,1024,1024,1024,0,0,0,0,95.8,0,0,62,3.858,3.848,0,0,0,0,4.364,81.86,43.640140504096,0.984252,6,P-GPS,
15700,2022-08-11 22:46:38,-34.9227455959393,-56.1513934004163,0.984252,5.8070868,37.833053704096,43.640140504096,1.64042,0,7.9487535352,14.8057419436,12,5,7.71,43.968224504096,1.312336,3.019869,9.2886157828,0,0,0,85.1, -0.9, -1.1,0,0,1024,1024,1024,1024,0,0,0,0,95.8,0,0,62,3.858,3.848,0,0,0,0,4.364,81.86,43.640140504096,0.984252,6,P-GPS,
15800,2022-08-11 22:46:38,-34.922745576665,-56.1513934913497,0.984252,5.8070868,37.833053704096,43.640140504096,1.64042,0,7.922900516,14.8338587424,12,5,7.71,43.968224504096,1.312336,3.019869,9.2886157828,0,0,0,85.1, -1.1, -1,0,0,1024,1024,1024,1024,0,0,0,0,95.8,0,0,62,3.858,3.848,0,0,0,0,4.364,81.86,43.640140504096,0.984252,6,P-GPS,
15900,2022-08-11 22:46:38,-34.922745533052,-56.1513935829493,0.984252,5.74147,37.898670504096,43.640140504096,1.64042,0,7.8914700688,14.8655516568,12,5,7.71,43.968224504096,1.312336,3.019869,9.2886157828,0,0,0,85.2, -1.1, -0.8,0,0,1024,1024,1024,1024,0,0,0,0,95.8,0,0,62,3.858,3.848,0,0,0,0,4.364,81.86,43.640140504096,0.984252,6,P-GPS,
16000,2022-08-11 22:46:38,-34.9227454358681,-56.1513937659942,0.984252,5.5118112,38.128329304096,43.640140504096,1.64042,0.223694,7.8264766284,14.930774756,12,5,7.71,43.968224504096,1.312336,3.019869,9.2886157828,0,-0.223694,0,85.3, -1.6, -0.3,0,0,1024,1024,1024,1024,0,0,0,0,95.8,0,0,62,3.858,3.848,0,0,0,0,4.364,81.86,43.640140504096,0.984252,6,P-GPS,
16100,2022-08-11 22:46:38,-34.9227453611144,-56.1513939030108,0.984252,5.5118112,38.128329304096,43.640140504096,1.64042,0.223694,7.7773624536,14.9800201644,12,5,7.71,43.968224504096,1.312336,3.019869,9.2886157828,0,-0.223694,0,85.3, -1.6, 0.1,0,0,1024,1024,1024,1024,0,0,0,0,95.8,0,0,62,3.858,3.848,0,0,0,0,4.364,81.86,43.640140504096,0.984252,6,P-GPS,
16200,2022-08-11 22:46:39,-34.9227453139058,-56.1513940234456,0.984252,5.5118112,38.128329304096,43.640140504096,1.64042,0,7.7383204576,15.0199479872,16,5,7.71,43.968224504096,1.312336,3.019869,9.2886157828,0,0,0,85.3, -1.4, 0,0,0,1024,1024,1024,1024,0,0,0,0,95.8,0,0,62,3.858,3.848,0,0,0,0,4.364,81.86,43.640140504096,0.984252,6,P-GPS,
16300,2022-08-11 22:46:39,-34.9227453019758,-56.1513941416078,0.984252,5.5118112,38.128329304096,43.640140504096,1.64042,0,7.7077430288,15.0555451012,16,5,7.71,43.968224504096,1.312336,3.019869,9.2886157828,0,0,0,85.3, -1.2, -0.3,0,0,1024,1024,1024,1024,0,0,0,0,95.8,0,0,62,3.858,3.848,0,0,0,0,4.364,81.86,43.640140504096,0.984252,6,P-GPS,
16400,2022-08-11 22:46:39,-34.9227452874468,-56.1513943518502,0.984252,5.5118112,38.128329304096,43.640140504096,1.64042,0.223694,7.6549543132,15.1186684628,16,5,7.71,43.968224504096,1.312336,3.019869,9.2886157828,0,-0.223694,0,85.3, -1.4, -0.7,0,0,1024,1024,1024,1024,0,0,0,0,95.8,0,0,62,3.858,3.848,0,0,0,0,4.364,81.86,43.640140504096,0.984252,6,P-GPS,
16500,2022-08-11 22:46:39,-34.9227452187151,-56.151394425831,0.984252,5.5118112,38.128329304096,43.640140504096,1.64042,0,7.6220802964,15.1521330308,16,5,7.71,43.968224504096,1.312336,3.019869,9.2886157828,0,0,0,85.2, -1.3, -1,0,0,1024,1024,1024,1024,0,0,0,0,95.8,0,0,62,3.858,3.848,0,0,0,0,4.364,81.86,43.640140504096,0.984252,6,P-GPS,
16600,2022-08-11 22:46:39,-34.9227451390272,-56.1513944771018,0.984252,5.5118112,38.128329304096,43.640140504096,1.64042,0,7.5920606104,15.1850070476,16,5,7.704,43.968224504096,1.312336,3.019869,9.2886157828,0,0,0,85.3, -1.2, -1,0,0,1024,1024,1024,1024,0,0,0,0,95.8,0,0,62,3.855,3.847,0,0,0,0,4.414,81.86,43.640140504096,0.984252,6,P-GPS,
16700,2022-08-11 22:46:39,-34.9227450755667,-56.1513945257684,0.984252,5.4461944,38.193946104096,43.640140504096,1.64042,0,7.5663388248,15.2123364448,16,5,7.704,43.968224504096,1.312336,3.019869,9.2886157828,0,0,0,85.3, -1.4, -0.8,0,0,1024,1024,1024,1024,0,0,0,0,95.8,0,0,62,3.855,3.847,0,0,0,0,4.414,81.86,43.640140504096,0.984252,6,P-GPS,
16800,2022-08-11 22:46:39,-34.9227448998462,-56.1513945821904,0.984252,5.4461944,38.193946104096,43.640140504096,1.64042,0,7.5136813428,15.2786422212,16,5,7.704,43.968224504096,1.312336,3.019869,9.2886157828,0,0,0,85.3, -1.3, -0.7,0,0,1024,1024,1024,1024,0,0,0,0,95.8,0,0,62,3.855,3.847,0,0,0,0,4.414,81.86,43.640140504096,0.984252,6,P-GPS,
16900,2022-08-11 22:46:39,-34.9227448343062,-56.151394714466,0.984252,5.4461944,38.193946104096,43.640140504096,1.64042,0.223694,7.4677495828,15.3248692568,16,5,7.704,43.968224504096,1.312336,3.019869,9.2886157828,0,-0.223694,0,85.3, -1.4, -0.5,0,0,1024,1024,1024,1024,0,0,0,0,95.8,0,0,62,3.855,3.847,0,0,0,0,4.414,81.86,43.640140504096,0.984252,6,P-GPS,
17000,2022-08-11 22:46:39,-34.9227447710591,-56.1513948576994,0.984252,5.4461944,38.193946104096,43.640140504096,1.64042,0.223694,7.4197508936,15.373524114,16,5,7.704,43.968224504096,1.312336,3.019869,9.2886157828,0,-0.223694,0,85.3, -1.6, -0.1,0,0,1024,1024,1024,1024,0,0,0,0,95.8,0,0,62,3.855,3.847,0,0,0,0,4.414,81.86,43.640140504096,0.984252,6,P-GPS,
17100,2022-08-11 22:46:39,-34.9227447077794,-56.1513950323986,0.984252,5.4461944,38.193946104096,43.640140504096,1.64042,0.223694,7.3643046976,15.4306763468,16,5,7.704,43.968224504096,1.312336,3.019869,9.2886157828,0,-0.223694,0,85.3, -1.8, -0.2,0,0,1024,1024,1024,1024,0,0,0,0,95.8,0,0,62,3.855,3.847,0,0,0,0,4.414,81.86,43.640140504096,0.984252,6,P-GPS,
17200,2022-08-11 22:46:40,-34.9227446549608,-56.1513952274985,0.984252,5.4461944,38.193946104096,43.640140504096,1.64042,0.223694,7.30643068,15.49212648,16,5,7.704,43.968224504096,1.312336,3.019869,9.2886157828,0,-0.223694,0,85.3, -2.1, -0.5,0,0,1024,1024,1024,1024,0,0,0,0,95.8,0,0,62,3.855,3.847,0,0,0,0,4.414,81.86,43.640140504096,0.984252,6,P-GPS,
17300,2022-08-11 22:46:40,-34.9227446085029,-56.151395743279,0.984252,5.3477692,38.292371304096,43.640140504096,1.64042,0,7.1749346128,15.6473430204,16,5,7.704,43.968224504096,1.312336,3.019869,9.2886157828,0,0,0,85.3, -2.4, -1.1,0,0,1024,1024,1024,1024,0,0,0,0,95.8,0,0,62,3.855,3.847,0,0,0,0,4.414,81.86,43.640140504096,0.984252,6,P-GPS,
17400,2022-08-11 22:46:40,-34.9227445627062,-56.1513960176517,0.984252,5.3477692,38.292371304096,43.640140504096,1.968504,0,7.1005251616,15.731135674,16,5,7.704,43.968224504096,1.312336,3.019869,9.2886157828,0,0,0,85.4, -2.3, -0.8,0,0,1024,1024,1024,1024,0,0,0,0,95.8,0,0,62,3.855,3.847,0,0,0,0,4.414,81.86,43.640140504096,0.984252,6,P-GPS,
