time(millisecond),datetime(utc),latitude,longitude,height_above_takeoff(feet),height_above_ground_at_drone_location(feet),ground_elevation_at_drone_location(feet),altitude_above_seaLevel(feet),height_sonar(feet),speed(mph),distance(feet),mileage(feet),satellites,gpslevel,voltage(v),max_altitude(feet),max_ascent(feet),max_speed(mph),max_distance(feet), xSpeed(mph), ySpeed(mph), zSpeed(mph), compass_heading(degrees), pitch(degrees), roll(degrees),isPhoto,isVideo,rc_elevator,rc_aileron,rc_throttle,rc_rudder,rc_elevator(percent),rc_aileron(percent),rc_throttle(percent),rc_rudder(percent),gimbal_heading(degrees),gimbal_pitch(degrees),gimbal_roll(degrees),battery_percent,voltageCell1,voltageCell2,voltageCell3,voltageCell4,voltageCell5,voltageCell6,current(A),battery_temperature(f),altitude(feet),ascent(feet),flycStateRaw,flycState,message
512900,,-34.9263716004557,-56.1557385700616,133.530188,133.530188,-0.266613525592,169.32000607441,41.338584,0,0,0,25,5,0,169.32000607441,133.530188,0,0,0,0,0,44.7, 4.2, 1.6,0,0,1024,1024,1024,1024,0,0,0,0,58.7,-13.4,0,58,3.886,3.877,0,0,0,0,0,111.2,169.32000607441,133.530188,6,P-GPS,
513000,,-34.9263715531396,-56.1557386012829,133.530188,133.530188,-0.266613525592,169.32000607441,41.338584,0,0.0196276253,0.0196276253,25,5,0,169.32000607441,133.530188,0,0.0196276253,0,0,0,44.7, 4.5, 2.2,0,0,1024,1024,1024,1024,0,0,0,0,58.7,-13.4,0,58,3.886,3.877,0,0,0,0,0,111.2,169.32000607441,133.530188,6,P-GPS,
513100,2022-10-28 21:16:12,-34.9263715025927,-56.1557386238733,133.530188,133.530188,-0.266613525592,169.32000607441,41.338584,0,0.039166011752,0.039268702044,25,5,0,169.32000607441,133.530188,0,0.039166011752,0,0,0,44.7, 4.7, 2.3,0,0,1024,1024,1024,1024,0,0,0,0,58.7,-13.4,0,58,3.886,3.877,0,0,0,0,0,111.2,169.32000607441,133.530188,6,P-GPS,
513200,2022-10-28 21:16:12,-34.9263714223951,-56.1557386080119,133.530188,133.4973796,-0.233805125592,169.32000607441,41.338584,0,0.06594980526,0.068911091444,25,5,0,169.32000607441,133.530188,0,0.06594980526,0,0,0,44.7, 4.9, 1.9,0,0,1024,1024,1024,1024,0,0,0,0,58.7,-13.4,0,58,3.886,3.877,0,0,0,0,0,111.2,169.32000607441,133.530188,6,P-GPS,
513300,2022-10-28 21:16:12,-34.9263713387582,-56.1557385547226,133.858272,133.8254636,-0.233805125592,169.64809007441,41.338584,0,0.095590226156,0.103338585984,25,5,0,169.64809007441,133.858272,0,0.095590226156,0,0,0,44.7, 4.8, 1.8,0,0,1024,1024,1024,1024,0,0,0,0,58.7,-13.4,0,58,3.886,3.877,0,0,0,0,0,111.2,169.64809007441,133.858272,6,P-GPS,
513400,2022-10-28 21:16:12,-34.9263713323487,-56.1557385732798,133.858272,133.8254636,-0.233805125592,169.64809007441,41.338584,0,0.097823493944,0.109362208224,25,5,0,169.64809007441,133.858272,0,0.097823493944,0,0,0,44.7, 4.1, 1.7,0,0,1024,1024,1024,1024,0,0,0,0,58.7,-13.4,0,58,3.886,3.877,0,0,0,0,0,111.2,169.64809007441,133.858272,6,P-GPS,
513500,2022-10-28 21:16:12,-34.9263713361006,-56.1557385943448,133.858272,133.8254636,-0.233805125592,169.64809007441,41.338584,0,0.096723100208,0.11581037116,25,5,0,169.64809007441,133.858272,0,0.097823493944,0,0,0,44.6, 3.7, 1.6,0,0,1024,1024,1024,1024,0,0,0,0,58.7,-13.4,0,58,3.886,3.877,0,0,0,0,0,111.2,169.64809007441,133.858272,6,P-GPS,
513600,2022-10-28 21:16:12,-34.9263713700765,-56.1557386115646,133.858272,133.8254636,-0.233805125592,169.64809007441,41.338584,0,0.0849655539,0.129234256104,25,5,0,169.64809007441,133.858272,0,0.097823493944,0,0,0,44.7, 3.6, 1.8,0,0,1024,1024,1024,1024,0,0,0,0,58.7,-13.4,0,58,3.886,3.877,0,0,0,0,0,111.2,169.64809007441,133.858272,6,P-GPS,
513700,2022-10-28 21:16:12,-34.9263715379235,-56.155738580197,133.858272,133.858272,-0.266613525592,169.64809007441,41.338584,0,0.023015420684,0.19118767016,25,5,0,169.64809007441,133.858272,0,0.097823493944,0,0,0,44.6, 3.3, 1.6,0,0,1024,1024,1024,1024,0,0,0,0,58.7,-13.4,0,58,3.886,3.877,0,0,0,0,0,111.2,169.64809007441,133.858272,6,P-GPS,
513800,2022-10-28 21:16:13,-34.9263715588196,-56.1557386019098,133.858272,133.858272,-0.266613525592,169.64809007441,41.338584,0,0.0179311357444,0.201203418512,25,5,0,169.64809007441,133.858272,0,0.097823493944,0,0,0,44.6, 3, 1.6,0,0,1024,1024,1024,1024,0,0,0,0,58.7,-13.4,0,58,3.886,3.877,0,0,0,0,0,111.2,169.64809007441,133.858272,6,P-GPS,"Setting new Return-To-Home altitude to 100m (328 ft). Data Recorder File Index is 66. Setting new Maximum Flight Altitude to 120m (394 ft)"
513900,2022-10-28 21:16:13,-34.9263715667404,-56.1557386346148,133.858272,133.858272,-0.266613525592,169.64809007441,41.338584,0,256.524286424,0.211404534324,25,5,0,169.64809007441,133.858272,0,256.524286424,0,0,0,44.7, 3.5, 2.2,0,0,1024,1024,1024,1024,0,0,0,0,58.7,-13.4,0,58,3.886,3.877,0,0,0,0,0,111.2,169.64809007441,133.858272,6,P-GPS,
514000,2022-10-28 21:16:13,-34.9263715483976,-56.1557387095333,133.858272,133.858272,-0.266613525592,169.64809007441,41.338584,0,256.522974088,0.234792986516,25,5,0,169.64809007441,133.858272,0,256.524286424,0,0,0,44.6, 3.1, 2.6,0,0,1024,1024,1024,1024,0,0,0,0,58.7,-13.4,0,58,3.886,3.877,0,0,0,0,0,111.2,169.64809007441,133.858272,6,P-GPS,
514100,2022-10-28 21:16:13,-34.9263715970685,-56.1557388311792,133.858272,133.858272,-0.266613525592,169.64809007441,41.338584,0,256.548892724,0.275283473376,25,5,0,169.64809007441,133.858272,0,256.548892724,0,0,0,44.6, 2.9, 2.5,0,0,1024,1024,1024,1024,0,0,0,0,58.7,-13.4,0,58,3.886,3.877,0,0,0,0,0,111.2,169.64809007441,133.858272,6,P-GPS,
514200,2022-10-28 21:16:13,-34.9263715476681,-56.1557388964429,133.858272,133.858272,-0.266613525592,169.64809007441,41.338584,0,256.536097448,0.301854012284,25,5,0,169.64809007441,133.858272,0,256.548892724,0,0,0,44.6, 2.8, 2.9,0,0,1024,1024,1024,1024,0,0,0,0,58.7,-13.4,0,58,3.886,3.877,0,0,0,0,0,111.2,169.64809007441,133.858272,6,P-GPS,
514300,2022-10-28 21:16:13,-34.9263714902947,-56.1557389443406,133.858272,133.8254636,-0.233805125592,169.64809007441,41.338584,0,256.51903708,0.327220482912,25,5,0,169.64809007441,133.858272,0,256.548892724,0,0,0,44.6, 4.7, 3.3,0,0,1024,1024,1024,1024,0,0,0,0,58.7,-13.4,0,58,3.886,3.877,0,0,0,0,0,111.2,169.64809007441,133.858272,6,P-GPS,
514400,2022-10-28 21:16:13,-34.9263714377155,-56.1557389708181,133.858272,133.8254636,-0.233805125592,169.64809007441,41.338584,0,256.502304796,0.34797573292,25,5,0,169.64809007441,133.858272,0,256.548892724,0,0,0,44.8, 4.8, 3.2,0,0,1024,1024,1024,1024,0,0,0,0,58.7,-13.4,0,58,3.886,3.877,0,0,0,0,0,111.2,169.64809007441,133.858272,6,P-GPS,
514500,2022-10-28 21:16:13,-34.9263713789352,-56.1557390360818,133.858272,133.8254636,-0.233805125592,169.64809007441,41.338584,0,256.485900596,0.37697507768,25,5,0,169.64809007441,133.858272,0,256.548892724,0,0,0,44.6, 4.8, 3.2,0,0,1024,1024,1024,1024,0,0,0,0,58.7,-13.4,0,58,3.886,3.877,0,0,0,0,0,111.2,169.64809007441,133.858272,6,P-GPS,
514600,2022-10-28 21:16:13,-34.9263713011868,-56.1557390163543,133.858272,133.8254636,-0.233805125592,169.64809007441,41.338584,0,256.457029204,0.40594817572,25,5,0,169.64809007441,133.858272,0,256.548892724,0,0,0,44.7, 4.4, 2.6,0,0,1024,1024,1024,1024,0,0,0,0,58.7,-13.4,0,58,3.886,3.877,0,0,0,0,0,111.2,169.64809007441,133.858272,6,P-GPS,N/A
514700,2022-10-28 21:16:13,-34.9263712202596,-56.1557389793652,133.858272,133.8254636,-0.233805125592,169.64809007441,41.338584,0,256.425861224,0.43748032896,25,5,0,169.64809007441,133.858272,0,256.548892724,0,0,0.223694,44.7, 5, 2.8,0,0,1024,1024,1024,1024,0,0,0,0,58.7,-13.4,0,58,3.886,3.877,0,0,0,0,0,111.2,169.64809007441,133.858272,6,P-GPS,
514800,2022-10-28 21:16:14,-34.9263711361537,-56.1557389000582,133.858272,133.8254636,-0.233805125592,169.64809007441,41.338584,0,256.390428152,0.47626970028,25,5,7.759,169.64809007441,133.858272,0,256.548892724,0,0,0,44.6, 5.6, 3,0,0,1024,1024,1024,1024,0,0,0,0,58.7,-13.4,0,58,3.884,3.877,0,0,0,0,3.976,111.2,169.64809007441,133.858272,6,P-GPS,
515200,2022-10-28 21:16:14,-34.9263708094749,-56.1557385957449,133.858272,133.8254636,-0.233805125592,169.64809007441,41.338584,0,256.252960956,0.62624345836,25,5,7.759,169.64809007441,133.858272,0,256.548892724,0,0,0.223694,44.8, 6.8, 2.7,0,0,1024,1024,1024,1024,0,0,0,0,58.7,-13.4,0,58,3.884,3.877,0,0,0,0,3.976,111.2,169.64809007441,133.858272,6,P-GPS,
515300,2022-10-28 21:16:14,-34.9263707732062,-56.1557384654474,133.858272,133.8254636,-0.233805125592,169.64809007441,41.338584,0.223694,256.230979328,0.667404877,25,5,7.759,169.64809007441,133.858272,0.223694,256.548892724,0,0.223694,0,44.8, 7.2, 2.2,0,0,1024,1024,1024,1024,0,0,0,0,58.7,-13.4,0,58,3.884,3.877,0,0,0,0,3.976,111.2,169.64809007441,133.858272,6,P-GPS,
515400,2022-10-28 21:16:14,-34.9263708491307,-56.1557382423846,133.858272,133.8254636,-0.233805125592,169.64809007441,41.338584,0.223694,256.242134184,0.73965225464,25,5,7.759,169.64809007441,133.858272,0.223694,256.548892724,0,0.223694,0,44.7, 7.3, 1.1,0,0,1024,1024,1024,1024,0,0,0,0,58.7,-13.4,0,58,3.884,3.877,0,0,0,0,3.976,111.2,169.64809007441,133.858272,6,P-GPS,
515500,2022-10-28 21:16:14,-34.9263708455872,-56.1557381053789,133.858272,133.8254636,-0.233805125592,169.64809007441,41.338584,0.223694,256.231307412,0.78065619296,25,5,7.759,169.64809007441,133.858272,0.223694,256.548892724,0,0.223694,0,44.7, 6.9, 0.7,0,0,1024,1024,1024,1024,0,0,0,0,58.7,-13.4,0,58,3.884,3.877,0,0,0,0,3.976,111.2,169.64809007441,133.858272,6,P-GPS,
515600,2022-10-28 21:16:14,-34.9263708366243,-56.1557379985704,133.858272,133.8254636,-0.233805125592,169.64809007441,41.338584,0,256.22048064,0.81277233572,25,5,7.759,169.64809007441,133.858272,0.223694,256.548892724,0,0,0,44.8, 7.3, 0.6,0,0,1024,1024,1024,1024,0,0,0,0,58.7,-13.4,0,58,3.884,3.877,0,0,0,0,3.976,111.2,169.64809007441,133.858272,6,P-GPS,
515700,2022-10-28 21:16:14,-34.926370812393,-56.1557379303392,133.858272,133.8254636,-0.233805125592,169.64809007441,41.338584,0,256.207029196,0.83501643092,25,5,7.759,169.64809007441,133.858272,0.223694,256.548892724,0,0,0,44.8, 7.1, 1.8,0,0,1024,1024,1024,1024,0,0,0,0,58.7,-13.4,0,58,3.884,3.877,0,0,0,0,3.976,111.2,169.64809007441,133.858272,6,P-GPS,
515800,2022-10-28 21:16:15,-34.9263708051497,-56.1557379360443,133.858272,133.8254636,-0.233805125592,169.64809007441,41.338584,0,256.205060692,0.83816275648,25,5,7.753,169.64809007441,133.858272,0.223694,256.548892724,0,0,0,44.7, 7, 2.1,0,0,1024,1024,1024,1024,0,0,0,0,58.7,-13.4,0,58,3.878,3.872,0,0,0,0,4.111,111.02,169.64809007441,133.858272,6,P-GPS,
515900,2022-10-28 21:16:15,-34.926370770288,-56.1557379079368,133.858272,133.8254636,-0.233805125592,169.64809007441,41.338584,0,256.190624996,0.85340881996,25,5,7.753,169.64809007441,133.858272,0.223694,256.548892724,0,0,0,44.6, 6.7, 2,0,0,1024,1024,1024,1024,0,0,0,0,58.7,-13.4,0,58,3.878,3.872,0,0,0,0,4.111,111.02,169.64809007441,133.858272,6,P-GPS,N/A
516000,2022-10-28 21:16:15,-34.9263707503819,-56.1557378595166,133.858272,133.8254636,-0.233805125592,169.64809007441,41.338584,0,256.180126308,0.86961288872,25,5,7.753,169.64809007441,133.858272,0.223694,256.548892724,0,0,0,44.7, 6.8, 2.4,0,0,1024,1024,1024,1024,0,0,0,0,58.7,-13.4,0,58,3.878,3.872,0,0,0,0,4.111,111.02,169.64809007441,133.858272,6,P-GPS,
516100,2022-10-28 21:16:15,-34.9263707290688,-56.1557378193511,133.858272,133.8254636,-0.233805125592,169.64809007441,41.338584,0,256.16962762,0.8839239128,25,5,7.753,169.64809007441,133.858272,0.223694,256.548892724,0,0,0,44.8, 6.8, 2.4,0,0,1024,1024,1024,1024,0,0,0,0,58.7,-13.4,0,58,3.878,3.872,0,0,0,0,4.111,111.02,169.64809007441,133.858272,6,P-GPS,"Error de calibración del estabilizador"
516200,2022-10-28 21:16:15,-34.9263706683604,-56.1557377584341,133.858272,133.8254636,-0.233805125592,169.64809007441,41.338584,0,256.144037068,0.91260501608,25,5,7.753,169.64809007441,133.858272,0.223694,256.548892724,0,0,0.223694,44.7, 6.4, 2,0,0,1024,1024,1024,1024,0,0,0,0,58.7,-13.4,0,58,3.878,3.872,0,0,0,0,4.111,111.02,169.64809007441,133.858272,6,P-GPS,
516300,2022-10-28 21:16:15,-34.926370627037,-56.1557377454357,133.858272,133.8254636,-0.233805125592,169.64809007441,41.338584,0,256.128289036,0.92817588272,25,5,7.753,169.64809007441,133.858272,0.223694,256.548892724,0,0,0.223694,44.7, 6.5, 2,0,0,1024,1024,1024,1024,0,0,0,0,58.7,-13.4,0,58,3.878,3.872,0,0,0,0,4.111,111.02,169.64809007441,133.858272,6,P-GPS,
516400,2022-10-28 21:16:15,-34.9263705846193,-56.1557377906376,133.858272,133.8254636,-0.233805125592,169.64809007441,41.338584,0,256.116478012,0.94872706448,25,5,7.753,169.64809007441,133.858272,0.223694,256.548892724,0,0,0,44.7, 6.3, 1.4,0,0,1024,1024,1024,1024,0,0,0,0,58.7,-13.4,0,58,3.878,3.872,0,0,0,0,4.111,111.02,169.64809007441,133.858272,6,P-GPS,
516500,2022-10-28 21:16:15,-34.9263705317796,-56.1557378592032,133.858272,133.8254636,-0.233805125592,169.64809007441,41.338584,0,256.102698484,0.97687667168,25,5,7.753,169.64809007441,133.858272,0.223694,256.548892724,0,0,0,44.7, 6.3, 2.4,0,0,1024,1024,1024,1024,0,0,0,0,58.7,-13.4,0,58,3.878,3.872,0,0,0,0,4.111,111.02,169.64809007441,133.858272,6,P-GPS,
516600,2022-10-28 21:16:15,-34.9263704633067,-56.155737936922,133.858272,133.7926552,-0.200996725592,169.64809007441,41.338584,0,256.083669612,1.01100068852,25,5,7.753,169.64809007441,133.858272,0.223694,256.548892724,0,0,0,44.8, 6.8, 2.9,0,0,1024,1024,1024,1024,0,0,0,0,58.7,-13.4,0,58,3.878,3.872,0,0,0,0,4.111,111.02,169.64809007441,133.858272,6,P-GPS,
516700,2022-10-28 21:16:16,-34.9263703392323,-56.1557381532765,133.858272,133.7926552,-0.200996725592,169.64809007441,41.338584,0,256.055126304,1.08998034984,25,5,7.753,169.64809007441,133.858272,0.223694,256.548892724,0,0,0,44.8, 6.7, 3.4,0,0,1024,1024,1024,1024,0,0,0,0,58.7,-13.4,0,58,3.878,3.872,0,0,0,0,4.111,111.02,169.64809007441,133.858272,6,P-GPS,
516800,2022-10-28 21:16:16,-34.9263702570024,-56.1557382319148,133.858272,133.7926552,-0.200996725592,169.64809007441,41.338584,0,256.031504256,1.12810699148,25,5,7.753,169.64809007441,133.858272,0.223694,256.548892724,0,0,0,44.8, 6.5, 3.5,0,0,1024,1024,1024,1024,0,0,0,0,58.7,-13.4,0,58,3.878,3.872,0,0,0,0,4.111,111.02,169.64809007441,133.858272,6,P-GPS,
516900,2022-10-28 21:16:16,-34.9263701857678,-56.1557383036569,133.858272,133.7926552,-0.200996725592,169.64809007441,41.338584,0,256.011163048,1.1618110608,25,5,7.752,169.64809007441,133.858272,0.223694,256.548892724,0,0,0,44.8, 6.8, 3.9,0,0,1024,1024,1024,1024,0,0,0,0,58.7,-13.4,0,57,3.878,3.872,0,0,0,0,4.395,111.02,169.64809007441,133.858272,6,P-GPS,
517000,2022-10-28 21:16:16,-34.9263701562734,-56.1557383529756,133.858272,133.7926552,-0.200996725592,169.64809007441,41.338584,0,256.004273284,1.18007221624,25,5,7.752,169.64809007441,133.858272,0.223694,256.548892724,0,0,0,44.8, 6.4, 3.9,0,0,1024,1024,1024,1024,0,0,0,0,58.7,-13.4,0,57,3.878,3.872,0,0,0,0,4.395,111.02,169.64809007441,133.858272,6,P-GPS,
517100,2022-10-28 21:16:16,-34.9263702208379,-56.1557383589733,133.858272,133.7926552,-0.200996725592,169.64809007441,41.338584,0,256.027567248,1.20369754508,25,5,7.752,169.64809007441,133.858272,0.223694,256.548892724,0,0,0,44.8, 6.6, 3.7,0,0,1024,1024,1024,1024,0,0,0,0,58.7,-13.4,0,57,3.878,3.872,0,0,0,0,4.395,111.02,169.64809007441,133.858272,6,P-GPS,
517200,2022-10-28 21:16:16,-34.9263702353246,-56.155738399912,133.858272,133.7926552,-0.200996725592,169.64809007441,41.338584,0,256.035441264,1.21703415968,25,5,7.752,169.64809007441,133.858272,0.223694,256.548892724,0,0,0,44.8, 6.7, 3.4,0,0,1024,1024,1024,1024,0,0,0,0,58.7,-13.4,0,57,3.878,3.872,0,0,0,0,4.395,111.02,169.64809007441,133.858272,6,P-GPS,
517300,2022-10-28 21:16:16,-34.9263702417341,-56.1557384382803,133.858272,133.7926552,-0.200996725592,169.64809007441,41.338584,0,256.040690608,1.22874675848,25,5,7.752,169.64809007441,133.858272,0.223694,256.548892724,0,0,0,44.8, 6.3, 3.2,0,0,1024,1024,1024,1024,0,0,0,0,58.7,-13.4,0,57,3.878,3.872,0,0,0,0,4.395,111.02,169.64809007441,133.858272,6,P-GPS,
517400,2022-10-28 21:16:16,-34.9263702014008,-56.1557384738274,133.858272,133.7926552,-0.200996725592,169.64809007441,41.338584,0,256.028879584,1.24690292704,25,5,7.752,169.64809007441,133.858272,0.223694,256.548892724,0,0,0,44.8, 6.5, 4.3,0,0,1024,1024,1024,1024,0,0,0,0,58.7,-13.4,0,57,3.878,3.872,0,0,0,0,4.395,111.02,169.64809007441,133.858272,6,P-GPS,
517500,2022-10-28 21:16:16,-34.9263702343345,-56.1557384704001,133.858272,133.7926552,-0.200996725592,169.64809007441,41.338584,0,256.040362524,1.25896329488,25,5,7.752,169.64809007441,133.858272,0.223694,256.548892724,0,0,0,44.8, 6.7, 4.1,0,0,1024,1024,1024,1024,0,0,0,0,58.7,-13.4,0,57,3.878,3.872,0,0,0,0,4.395,111.02,169.64809007441,133.858272,6,P-GPS,
517600,2022-10-28 21:16:16,-34.9263701735219,-56.1557385020603,133.858272,133.7926552,-0.200996725592,169.64809007441,41.338584,0,256.021005568,1.2830873114,25,5,7.752,169.64809007441,133.858272,0.223694,256.548892724,0,0,0,44.8, 6.7, 4.2,0,0,1024,1024,1024,1024,0,0,0,0,58.7,-13.4,0,57,3.878,3.872,0,0,0,0,4.395,111.02,169.64809007441,133.858272,6,P-GPS,
517700,2022-10-28 21:16:17,-34.9263701224539,-56.1557385256538,133.530188,133.4645712,-0.200996725592,169.32000607441,41.338584,0,256.004601368,1.30301185272,25,5,7.752,169.64809007441,133.858272,0.223694,256.548892724,0,0,0,44.8, 6.4, 4.5,0,0,1024,1024,1024,1024,0,0,0,0,58.7,-13.4,0,57,3.878,3.872,0,0,0,0,4.395,111.02,169.32000607441,133.530188,6,P-GPS,
517800,2022-10-28 21:16:17,-34.9263700700831,-56.15573854442,133.530188,133.4645712,-0.200996725592,169.32000607441,41.338584,0,255.987212916,1.32292655152,25,5,7.752,169.64809007441,133.858272,0.223694,256.548892724,0,0,0,44.9, 6.7, 3.9,0,0,1024,1024,1024,1024,0,0,0,0,58.7,-13.4,0,57,3.878,3.872,0,0,0,0,4.395,111.02,169.32000607441,133.530188,6,P-GPS,
517900,2022-10-28 21:16:17,-34.9263699558054,-56.1557385646491,133.530188,133.4645712,-0.200996725592,169.32000607441,41.338584,0,255.94817092,1.36505581796,25,5,7.748,169.64809007441,133.858272,0.223694,256.548892724,0,0,0,44.8, 7, 4,0,0,1024,1024,1024,1024,0,0,0,0,58.7,-13.4,0,57,3.875,3.869,0,0,0,0,4.409,111.02,169.32000607441,133.530188,6,P-GPS,
518000,2022-10-28 21:16:17,-34.926369915889,-56.1557385643774,133.530188,133.4645712,-0.200996725592,169.32000607441,41.338584,0,255.934063308,1.37961946672,25,5,7.748,169.64809007441,133.858272,0.223694,256.548892724,0,0,0,44.8, 6.7, 3.8,0,0,1024,1024,1024,1024,0,0,0,0,58.7,-13.4,0,57,3.875,3.869,0,0,0,0,4.409,111.02,169.32000607441,133.530188,6,P-GPS,
518100,2022-10-28 21:16:17,-34.9263698848313,-56.1557385544301,133.530188,133.4645712,-0.200996725592,169.32000607441,41.338584,0,255.922252284,1.39133534636,25,5,7.748,169.64809007441,133.858272,0.223694,256.548892724,0,0,0,44.9, 7.2, 4.1,0,0,1447,1024,1024,1024,64,0,0,0,58.7,-13.4,0,57,3.875,3.869,0,0,0,0,4.409,111.02,169.32000607441,133.530188,6,P-GPS,
518200,2022-10-28 21:16:17,-34.9263699026009,-56.1557385294572,133.530188,133.4645712,-0.200996725592,169.32000607441,41.338584,0,255.92684546,1.40122707896,25,5,7.748,169.64809007441,133.858272,0.223694,256.548892724,0,0,0,44.9, 7, 3.4,0,0,1684,1024,1024,1024,100,0,0,0,58.7,-13.4,0,57,3.875,3.869,0,0,0,0,4.409,111.02,169.32000607441,133.530188,6,P-GPS,
518300,2022-10-28 21:16:17,-34.9263699200057,-56.155738489856,133.530188,133.4645712,-0.200996725592,169.32000607441,41.338584,0,255.9301263,1.41466868044,25,5,7.748,169.64809007441,133.858272,0.223694,256.548892724,0,0,0,44.6, -1.3, 2.7,0,0,1684,1024,1024,1024,100,0,0,0,58.7,-13.4,0,57,3.875,3.869,0,0,0,0,4.409,111.02,169.32000607441,133.530188,6,P-GPS,
518400,2022-10-28 21:16:17,-34.9263700034342,-56.1557383343975,133.530188,133.4645712,-0.200996725592,169.32000607441,41.338584,0.3131716,255.948827088,1.47024611004,25,5,7.748,169.64809007441,133.858272,0.3131716,256.548892724,0.223694,0.223694,0,44.2, -11.7, 2.9,0,0,1684,1024,1024,1024,100,0,0,0,58.7,-13.4,0,57,3.875,3.869,0,0,0,0,4.409,111.02,169.32000607441,133.530188,6,P-GPS,
518500,2022-10-28 21:16:17,-34.9263697700325,-56.1557380187785,133.530188,133.4645712,-0.200996725592,169.32000607441,41.338584,0.3131716,255.843840208,1.5973917834,25,5,7.748,169.64809007441,133.858272,0.3131716,256.548892724,0.894776,0.894776,0,44.3, -15.5, 3.1,0,0,1684,1024,1024,1024,100,0,0,0,58.7,-13.4,0,57,3.875,3.869,0,0,0,0,4.409,111.02,169.32000607441,133.530188,6,P-GPS,
518600,2022-10-28 21:16:17,-34.9263692857724,-56.1557374512161,133.530188,133.4317628,-0.168188325592,169.32000607441,41.338584,1.901399,255.631897944,1.84242459964,25,5,7.748,169.64809007441,133.858272,1.901399,256.548892724,1.342164,1.342164,0,44.4, -15.8, 3.4,0,0,1684,1024,1024,1024,100,0,0,0,58.7,-13.4,0,57,3.875,3.869,0,0,0,0,4.409,111.02,169.32000607441,133.530188,6,P-GPS,
518700,2022-10-28 21:16:17,-34.9263686195955,-56.1557366871311,133.530188,133.4317628,-0.168188325592,169.32000607441,41.338584,2.684328,255.341871688,2.1760663426,25,5,7.748,169.64809007441,133.858272,2.684328,256.548892724,2.013246,1.789552,0,44.4, -15.8, 3.4,0,0,1684,1024,1024,1024,100,0,0,0,58.7,-13.4,0,57,3.875,3.869,0,0,0,0,4.409,111.02,169.32000607441,133.530188,6,P-GPS,
518800,2022-10-28 21:16:18,-34.9263676915648,-56.1557357581,133.530188,133.4317628,-0.168188325592,169.32000607441,41.338584,3.3330406,254.947842804,2.61410441436,25,5,7.748,169.64809007441,133.858272,3.3330406,256.548892724,2.460634,2.23694,0,44.2, -15.8, 4,0,0,1684,1024,1024,1024,100,0,0,0,58.7,-13.4,0,57,3.875,3.869,0,0,0,0,4.409,111.02,169.32000607441,133.530188,6,P-GPS,
518900,2022-10-28 21:16:18,-34.9263665993869,-56.155734557377,133.530188,133.3989544,-0.135379925592,169.32000607441,41.338584,3.9593838,254.476386096,3.15057096696,25,5,7.743,169.64809007441,133.858272,3.9593838,256.548892724,2.908022,2.684328,0,44.1, -15.4, 4,0,0,1684,1024,1024,1024,100,0,0,0,58.7,-13.4,0,57,3.878,3.872,0,0,0,0,4.545,111.02,169.32000607441,133.530188,6,P-GPS,
519000,2022-10-28 21:16:18,-34.9263651672942,-56.1557329809122,133.530188,133.366146,-0.102571525592,169.32000607441,41.338584,4.7646822,253.858603924,3.8543964488,25,5,7.743,169.64809007441,133.858272,4.7646822,256.548892724,3.579104,3.131716,0,44.2, -14.7, 3.6,0,0,1684,1024,1024,1024,100,0,0,0,58.7,-13.4,0,57,3.878,3.872,0,0,0,0,4.545,111.02,169.32000607441,133.530188,6,P-GPS,
519100,2022-10-28 21:16:18,-34.9263635847072,-56.15573123854,133.530188,133.366146,-0.102571525592,169.32000607441,41.338584,5.3910254,253.176189204,4.6322508044,25,5,7.743,169.64809007441,133.858272,5.3910254,256.548892724,4.026492,3.579104,0,44.2, -14.1, 4,0,0,1684,1024,1024,1024,100,0,0,0,58.7,-13.4,0,57,3.878,3.872,0,0,0,0,4.545,111.02,169.32000607441,133.530188,6,P-GPS,
519200,2022-10-28 21:16:18,-34.9263612602271,-56.1557287939194,133.530188,133.3005292,-0.036954725592,169.32000607441,41.338584,6.0173686,252.183078936,5.7520999216,25,5,7.743,169.64809007441,133.858272,6.0173686,256.548892724,4.47388,4.026492,0,43.9, -14.1, 4.7,0,0,1684,1024,1024,1024,100,0,0,0,58.7,-13.4,0,57,3.878,3.872,0,0,0,0,4.545,111.02,169.32000607441,133.530188,6,P-GPS,
519300,2022-10-28 21:16:18,-34.9263592470535,-56.1557265813683,133.858272,133.5958048,-0.0041463255920009,169.64809007441,41.338584,6.6437118,251.31726526,6.7407810556,25,5,7.743,169.64809007441,133.858272,6.6437118,256.548892724,4.921268,4.47388,0,44, -14.2, 5.1,0,0,1684,1024,1024,1024,100,0,0,0,58.7,-13.4,0,57,3.878,3.872,0,0,0,0,4.545,111.02,169.64809007441,133.858272,6,P-GPS,
519400,2022-10-28 21:16:18,-34.9263569792172,-56.1557241014722,133.858272,133.5629964,0.028662074407998,169.64809007441,41.338584,7.2924244,250.343840032,7.8520671804,25,5,7.743,169.64809007441,133.858272,7.2924244,256.548892724,5.368656,4.921268,0,44.2, -14.3, 5.4,0,0,1684,1024,1024,1024,100,0,0,0,58.7,-13.4,0,57,3.878,3.872,0,0,0,0,4.545,111.02,169.64809007441,133.858272,6,P-GPS,
519500,2022-10-28 21:16:18,-34.9263546619284,-56.1557215247776,133.858272,133.530188,0.061470474408001,169.64809007441,41.338584,7.7621818,249.347777008,8.9961288968,25,5,7.743,169.64809007441,133.858272,7.7621818,256.548892724,5.59235,5.368656,0,44.1, -14, 5.4,0,0,1684,1024,1024,1024,100,0,0,0,58.7,-13.4,0,57,3.878,3.872,0,0,0,0,4.545,111.02,169.64809007441,133.858272,6,P-GPS,
519600,2022-10-28 21:16:18,-34.9263519134276,-56.15571838167,133.530188,133.1692956,0.094278874408,169.32000607441,41.338584,8.388525,248.162081432,10.3707680484,25,5,7.743,169.64809007441,133.858272,8.388525,256.548892724,6.039738,5.816044,0,44.1, -13.6, 5.4,0,0,1684,1024,1024,1024,100,0,0,0,58.7,-13.4,0,57,3.878,3.872,0,0,0,0,4.545,111.02,169.32000607441,133.530188,6,P-GPS,
519700,2022-10-28 21:16:18,-34.9263493140141,-56.1557153773653,133.530188,133.1364872,0.127087274408,169.32000607441,41.338584,8.8582824,247.040362236,11.67732977,25,5,7.743,169.64809007441,133.858272,8.8582824,256.548892724,6.487126,6.039738,0,44.1, -13.3, 5,0,0,1684,1024,1024,1024,100,0,0,0,58.7,-13.4,0,57,3.878,3.872,0,0,0,0,4.545,111.02,169.32000607441,133.530188,6,P-GPS,
519800,2022-10-28 21:16:19,-34.9263464764569,-56.1557121373339,133.530188,133.0708704,0.192704074408,169.32000607441,41.338584,9.3280398,245.820545924,13.0955056684,25,5,7.743,169.64809007441,133.858272,9.3280398,256.548892724,6.71082,6.487126,0,44.3, -13.1, 5.1,0,0,1684,1024,1024,1024,100,0,0,0,58.7,-13.4,0,57,3.878,3.872,0,0,0,0,4.545,111.02,169.32000607441,133.530188,6,P-GPS,
519900,2022-10-28 21:16:19,-34.9263436374928,-56.1557089007714,133.530188,133.0708704,0.192704074408,169.32000607441,41.338584,9.8201666,244.602698116,14.5133206744,25,5,7.739,169.64809007441,133.858272,9.8201666,256.548892724,7.158208,6.71082,0,44.1, -13.2, 5.2,0,0,1684,1024,1024,1024,100,0,0,0,58.7,-13.4,0,57,3.871,3.865,0,0,0,0,4.404,111.02,169.32000607441,133.530188,6,P-GPS,
520000,2022-10-28 21:16:19,-34.9263404566336,-56.1557052985921,133.530188,133.0052536,0.258320874408,169.32000607441,41.338584,10.1333382,243.242133768,16.096949334,25,5,7.739,169.64809007441,133.858272,10.1333382,256.548892724,7.381902,6.934514,0,44.2, -13.5, 5.3,0,0,1684,1024,1024,1024,100,0,0,0,58.7,-13.4,0,57,3.871,3.865,0,0,0,0,4.404,111.02,169.32000607441,133.530188,6,P-GPS,
520100,2022-10-28 21:16:19,-34.9263373207455,-56.1557018545148,133.530188,132.9724452,0.291129274408,169.32000607441,41.338584,10.6030956,241.910112728,17.6365819292,25,5,7.739,169.64809007441,133.858272,10.6030956,256.548892724,7.605596,7.381902,0,44.3, -13.8, 5.4,0,0,1684,1024,1024,1024,100,0,0,0,58.7,-13.4,0,57,3.871,3.865,0,0,0,0,4.404,111.02,169.32000607441,133.530188,6,P-GPS,
520200,2022-10-28 21:16:19,-34.9263339588034,-56.1556979363299,133.202104,132.6443612,0.291129274408,168.99192207441,41.338584,10.9162672,240.471136304,19.3331371016,25,5,7.739,169.64809007441,133.858272,10.9162672,256.548892724,7.82929,7.605596,0,44.1, -14.3, 5.6,0,0,1684,1024,1024,1024,100,0,0,0,58.7,-13.4,0,57,3.871,3.865,0,0,0,0,4.404,111.02,168.99192207441,133.202104,6,P-GPS,
520300,2022-10-28 21:16:19,-34.9263306517853,-56.1556940589688,133.202104,132.6115528,0.323937674408,168.99192207441,41.338584,11.5426104,239.057422348,21.0067920108,25,5,7.739,169.64809007441,133.858272,11.5426104,256.548892724,8.276678,8.052984,0,43.9, -15.3, 5.3,0,0,1684,1024,1024,1024,100,0,0,0,58.7,-13.4,0,57,3.871,3.865,0,0,0,0,4.404,111.02,168.99192207441,133.202104,6,P-GPS,
520400,2022-10-28 21:16:19,-34.9263270191306,-56.1556898254784,133.202104,132.5787444,0.356746074408,168.99192207441,41.338584,11.855782,237.510178204,22.839895744,25,5,7.739,169.64809007441,133.858272,11.855782,256.548892724,8.500372,8.276678,0,43.8, -14.8, 4.7,0,0,1684,1024,1024,1024,100,0,0,0,58.7,-13.4,0,57,3.871,3.865,0,0,0,0,4.404,111.02,168.99192207441,133.202104,6,P-GPS,
520500,2022-10-28 21:16:19,-34.9263233978881,-56.1556857095902,133.202104,132.545936,0.389554474408,168.99192207441,41.338584,12.5044946,235.97769784,24.6458669304,25,5,7.739,169.64809007441,133.858272,12.5044946,256.548892724,8.94776,8.724066,0,44, -13.5, 4.8,0,0,1684,1024,1024,1024,100,0,0,0,58.7,-13.4,0,57,3.871,3.865,0,0,0,0,4.404,111.02,168.99192207441,133.202104,6,P-GPS,
520600,2022-10-28 21:16:19,-34.9263195071836,-56.1556811665203,132.87402,132.217852,0.389554474408,168.66383807441,41.338584,12.8176662,234.328747656,26.6110244736,25,5,7.739,169.64809007441,133.858272,12.8176662,256.548892724,9.171454,8.94776,0,44, -13.1, 4.5,0,0,1684,1024,1024,1024,100,0,0,0,58.7,-13.4,0,57,3.871,3.865,0,0,0,0,4.404,111.02,168.66383807441,132.87402,6,P-GPS,
520700,2022-10-28 21:16:19,-34.9263157136647,-56.1556767080759,132.87402,132.217852,0.389554474408,168.66383807441,41.338584,13.2874236,232.724416896,28.5331045876,25,5,7.739,169.64809007441,133.858272,13.2874236,256.548892724,9.395148,9.395148,0,44, -13.1, 4.1,0,0,1684,1024,1024,1024,100,0,0,0,58.7,-13.4,0,57,3.871,3.865,0,0,0,0,4.404,111.02,168.66383807441,132.87402,6,P-GPS,
520800,2022-10-28 21:16:20,-34.9263116480784,-56.1556718488751,132.87402,132.217852,0.389554474408,168.66383807441,41.338584,13.6005952,231.005912904,30.609909116,25,5,7.739,169.64809007441,133.858272,13.6005952,256.548892724,9.618842,9.618842,0,44.1, -12.5, 4.3,0,0,1684,1024,1024,1024,100,0,0,0,58.7,-13.4,0,57,3.871,3.865,0,0,0,0,4.404,111.02,168.66383807441,132.87402,6,P-GPS,
520900,2022-10-28 21:16:20,-34.9263076842633,-56.1556671440878,132.87402,132.217852,0.389554474408,168.66383807441,41.338584,13.9137668,229.337933848,32.6278553748,25,5,7.737,169.64809007441,133.858272,13.9137668,256.548892724,9.842536,9.842536,-0.223694,44, -12.7, 4.1,0,0,1684,1024,1024,1024,100,0,0,0,58.7,-13.4,0,57,3.869,3.862,0,0,0,0,4.669,111.02,168.66383807441,132.87402,6,P-GPS,
521000,2022-10-28 21:16:20,-34.92630337798,-56.1556620206661,132.87402,132.1850436,0.422362874408,168.66383807441,41.338584,14.2269384,227.531503344,34.82283576,25,5,7.737,169.64809007441,133.858272,14.2269384,256.548892724,10.06623,10.06623,-0.223694,44.1, -12.6, 3.9,0,0,1684,1024,1024,1024,100,0,0,0,58.7,-13.4,0,57,3.869,3.862,0,0,0,0,4.669,111.02,168.66383807441,132.87402,6,P-GPS,
521100,2022-10-28 21:16:20,-34.9262992086943,-56.1556570517415,132.87402,132.217852,0.389554474408,168.66383807441,41.338584,14.4058936,225.788721136,36.949476248,25,5,7.737,169.64809007441,133.858272,14.4058936,256.548892724,10.289924,10.06623,-0.223694,44.1, -12.4, 4.1,0,0,1684,1024,1024,1024,100,0,0,0,58.7,-13.4,0,57,3.869,3.862,0,0,0,0,4.669,111.02,168.66383807441,132.87402,6,P-GPS,
521200,2022-10-28 21:16:20,-34.9262948001707,-56.1556517650977,132.87402,132.217852,0.389554474408,168.66383807441,41.338584,14.7190652,223.95177882,39.205053748,25,5,7.737,169.64809007441,133.858272,14.7190652,256.548892724,10.513618,10.289924,-0.223694,44.1, -12.5, 4.2,0,0,1684,1024,1024,1024,100,0,0,0,58.7,-13.4,0,57,3.869,3.862,0,0,0,0,4.669,111.02,168.66383807441,132.87402,6,P-GPS,
521300,2022-10-28 21:16:20,-34.9262905558985,-56.1556465943425,132.87402,132.2506604,0.356746074408,168.66383807441,41.338584,15.1888226,222.187014984,41.393702112,25,5,7.737,169.64809007441,133.858272,15.1888226,256.548892724,10.737312,10.737312,-0.223694,44.1, -12.8, 3.8,0,0,1684,1024,1024,1024,100,0,0,0,58.7,-13.4,0,57,3.869,3.862,0,0,0,0,4.669,111.02,168.66383807441,132.87402,6,P-GPS,
521400,2022-10-28 21:16:20,-34.9262859820293,-56.1556410812087,132.87402,132.2834688,0.323937674408,168.66383807441,41.338584,15.5019942,220.295938808,43.74015888,25,5,7.737,169.64809007441,133.858272,15.5019942,256.548892724,10.961006,10.961006,-0.223694,44.1, -12.7, 3.6,0,0,1684,1024,1024,1024,100,0,0,0,58.7,-13.4,0,57,3.869,3.862,0,0,0,0,4.669,111.02,168.66383807441,132.87402,6,P-GPS,
521500,2022-10-28 21:16:20,-34.9262815526095,-56.1556357402726,132.87402,132.3162772,0.291129274408,168.66383807441,41.338584,15.65858,218.473104104,46.012468664,25,5,7.737,169.64809007441,133.858272,15.65858,256.548892724,10.961006,11.1847,-0.447388,44.2, -12.5, 3.3,0,0,1684,1024,1024,1024,100,0,0,0,58.7,-13.4,0,57,3.869,3.862,0,0,0,0,4.669,111.02,168.66383807441,132.87402,6,P-GPS,
521600,2022-10-28 21:16:20,-34.9262767861409,-56.1556300067196,132.87402,132.381894,0.225512474408,168.66383807441,41.338584,15.8151658,216.521660472,48.455054044,25,5,7.737,169.64809007441,133.858272,15.8151658,256.548892724,11.1847,11.1847,-0.223694,44.2, -12.4, 3,0,0,1684,1024,1024,1024,100,0,0,0,58.7,-13.4,0,57,3.869,3.862,0,0,0,0,4.669,111.02,168.66383807441,132.87402,6,P-GPS,
521700,2022-10-28 21:16:21,-34.9262721616205,-56.1556244530965,132.87402,132.4147024,0.192704074408,168.66383807441,41.338584,16.1283374,214.638130228,50.822836272,25,5,7.737,169.64809007441,133.858272,16.1283374,256.548892724,11.408394,11.408394,-0.447388,44.2, -11.9, 3.1,0,0,1684,1024,1024,1024,100,0,0,0,58.7,-13.4,0,57,3.869,3.862,0,0,0,0,4.669,111.02,168.66383807441,132.87402,6,P-GPS,
521800,2022-10-28 21:16:21,-34.9262670310578,-56.1556183499717,132.87402,132.4803192,0.127087274408,168.66383807441,41.338584,16.441509,212.562014676,53.437665752,25,5,7.737,169.64809007441,133.858272,16.441509,256.548892724,11.632088,11.632088,-0.447388,44.3, -12, 3.2,0,0,1684,1024,1024,1024,100,0,0,0,58.7,-13.4,0,57,3.869,3.862,0,0,0,0,4.669,111.02,168.66383807441,132.87402,6,P-GPS,
521900,2022-10-28 21:16:21,-34.9262622702692,-56.1556126397825,132.87402,132.5131276,0.094278874408,168.66383807441,41.338584,16.77705,210.64469178,55.873689452,25,5,7.731,169.64809007441,133.858272,16.77705,256.548892724,11.855782,11.855782,-0.447388,44.3, -11.9, 3.6,0,0,1684,1024,1024,1024,100,0,0,0,58.7,-13.4,0,57,3.869,3.862,0,0,0,0,4.887,111.02,168.66383807441,132.87402,6,P-GPS,
522000,2022-10-28 21:16:21,-34.9262573374649,-56.1556067141895,132.87402,132.6115528,-0.0041463255920009,168.66383807441,41.338584,16.77705,208.669298016,58.399936252,25,5,7.731,169.64809007441,133.858272,16.77705,256.548892724,11.855782,11.855782,-0.447388,44.2, -11.3, 2.7,0,0,1684,1024,1024,1024,100,0,0,0,58.7,-13.4,0,57,3.869,3.862,0,0,0,0,4.887,111.02,168.66383807441,132.87402,6,P-GPS,
522100,2022-10-28 21:16:21,-34.9262526057538,-56.1556010017694,133.202104,133.038062,-0.102571525592,168.99192207441,41.338584,16.9336358,206.78478352,60.829070188,25,5,7.731,169.64809007441,133.858272,16.9336358,256.548892724,11.855782,12.079476,-0.671082,44.3, -12, 2.2,0,0,1682,1024,1024,1024,100,0,0,0,58.7,-13.4,0,57,3.869,3.862,0,0,0,0,4.887,111.02,168.99192207441,133.202104,6,P-GPS,
522200,2022-10-28 21:16:21,-34.926247831156,-56.1555950815367,133.202104,133.1036788,-0.168188325592,168.99192207441,41.338584,17.2468074,204.890754588,63.312994152,25,5,7.731,169.64809007441,133.858272,17.2468074,256.548892724,12.079476,12.30317,-0.447388,44.3, -12.8, 2.5,0,0,1393,1024,1024,1024,56,0,0,0,58.7,-13.4,0,57,3.869,3.862,0,0,0,0,4.887,111.02,168.99192207441,133.202104,6,P-GPS,
522300,2022-10-28 21:16:21,-34.9262430136193,-56.1555891777036,133.202104,133.202104,-0.266613525592,168.99192207441,41.338584,17.2468074,202.994429068,65.804792132,25,5,7.731,169.64809007441,133.858272,17.2468074,256.548892724,12.079476,12.30317,-0.447388,44.5, -10.3, 2.1,0,0,1024,1024,1024,1024,0,0,0,0,58.7,-13.4,0,57,3.869,3.862,0,0,0,0,4.887,111.02,168.99192207441,133.202104,6,P-GPS,
522400,2022-10-28 21:16:21,-34.9262379095287,-56.1555828976949,133.202104,133.3333376,-0.397847125592,168.99192207441,41.338584,17.2468074,200.998694096,68.44980534,25,5,7.731,169.64809007441,133.858272,17.2468074,256.548892724,12.079476,12.30317,-0.447388,44.5, 0.1, 1.7,0,0,1024,1024,1024,1024,0,0,0,0,58.7,-13.4,0,57,3.869,3.862,0,0,0,0,4.887,111.02,168.99192207441,133.202104,6,P-GPS,
522500,2022-10-28 21:16:21,-34.9262331101786,-56.1555769893113,133.202104,133.4317628,-0.496272325592,168.99192207441,41.338584,16.9336358,199.135833144,70.937994396,25,5,7.731,169.64809007441,133.858272,17.2468074,256.548892724,11.855782,12.079476,-0.447388,44.8, 20.2, 1.4,0,0,1024,1024,1024,1024,0,0,0,0,58.7,-13.4,0,57,3.869,3.862,0,0,0,0,4.887,111.02,168.99192207441,133.202104,6,P-GPS,
522600,2022-10-28 21:16:21,-34.9262282085882,-56.1555710146451,133.202104,133.5629964,-0.627505925592,168.99192207441,41.338584,15.8151658,197.248693976,73.4662097,25,5,7.731,169.64809007441,133.858272,17.2468074,256.548892724,11.1847,11.1847,-0.223694,45.3, 22.6, 1.2,0,0,1024,1024,1024,975,0,0,0,-7,58.7,-13.4,0,57,3.869,3.862,0,0,0,0,4.887,111.02,168.99192207441,133.202104,6,P-GPS,
522700,2022-10-28 21:16:22,-34.9262238658798,-56.155565751527,133.202104,133.6614216,-0.725931125592,168.99192207441,41.338584,14.5624794,195.589245104,75.699805572,25,5,7.731,169.64809007441,133.858272,17.2468074,256.548892724,10.289924,10.289924,-0.223694,45.5, 23, 1.3,0,0,1024,1024,1024,551,0,0,0,-72,58.7,-13.4,0,57,3.869,3.862,0,0,0,0,4.887,111.02,168.99192207441,133.202104,6,P-GPS,
522800,2022-10-28 21:16:22,-34.9262196321338,-56.1555606824708,133.530188,134.1207392,-0.857164725592,169.32000607441,41.338584,14.5624794,193.98294584,77.864503804,25,5,7.731,169.64809007441,133.858272,17.2468074,256.548892724,9.618842,9.618842,-0.223694,45.5, 19.5, 0.7,0,0,1024,1024,1024,456,0,0,0,-86,58.5,-13.4,0,57,3.869,3.862,0,0,0,0,4.887,111.02,169.32000607441,133.530188,6,P-GPS,
522900,2022-10-28 21:16:22,-34.9262158625856,-56.1555561966164,133.530188,134.2191644,-0.955589925592,169.32000607441,41.338584,12.6610804,192.56234212,79.785763708,25,5,7.731,169.64809007441,133.858272,17.2468074,256.548892724,8.94776,8.94776,-0.447388,44.1, 17.4, -0.5,0,0,1024,1024,1024,456,0,0,0,-86,57.1,-13.4,0,57,3.869,3.862,0,0,0,0,4.887,111.02,169.32000607441,133.530188,6,P-GPS,
523000,2022-10-28 21:16:22,-34.9262123591642,-56.1555516443227,133.858272,134.6128652,-1.021206725592,169.64809007441,41.338584,11.855782,191.247381448,81.65354592,25,5,7.743,169.64809007441,133.858272,17.2468074,256.548892724,8.500372,8.276678,-0.447388,42.3, 17.4, -0.7,0,0,1024,1024,1024,456,0,0,0,-86,54.7,-13.4,0,57,3.866,3.862,0,0,0,0,4.559,111.02,169.64809007441,133.858272,6,P-GPS,
523100,2022-10-28 21:16:22,-34.9262090952414,-56.1555477373312,134.186356,134.9737576,-1.054015125592,169.97617407441,41.338584,11.2294388,190.032158312,83.322181144,25,5,7.743,169.97617407441,134.186356,17.2468074,256.548892724,8.052984,7.82929,-0.447388,39.7, 17, -1.5,0,0,1024,1024,1024,505,0,0,0,-79,52,-13.4,0,57,3.866,3.862,0,0,0,0,4.559,111.02,169.97617407441,134.186356,6,P-GPS,
523200,2022-10-28 21:16:22,-34.9262059994781,-56.1555441158933,134.186356,135.006566,-1.086823525592,169.97617407441,41.338584,10.4465098,188.8861609,84.887141824,25,5,7.743,169.97617407441,134.186356,17.2468074,256.548892724,7.605596,7.158208,-0.447388,36.9, 17, -2.5,0,0,1024,1024,1024,506,0,0,0,-78,49.3,-13.4,0,57,3.866,3.862,0,0,0,0,4.559,111.02,169.97617407441,134.186356,6,P-GPS,
523300,2022-10-28 21:16:22,-34.9262032343542,-56.1555409746299,134.51444,135.3674584,-1.119631925592,170.30425807441,41.338584,9.6635808,187.868116248,86.265750792,25,5,7.743,170.30425807441,134.51444,17.2468074,256.548892724,7.158208,6.487126,-0.447388,34, 17.2, -3,0,0,1024,1024,1024,464,0,0,0,-85,46.7,-13.4,0,57,3.866,3.862,0,0,0,0,4.559,111.02,170.30425807441,134.51444,6,P-GPS,
523400,2022-10-28 21:16:22,-34.9262005009653,-56.1555380701888,134.51444,135.4002668,-1.152440325592,170.30425807441,41.338584,9.0372376,186.866147712,87.588257396,25,5,7.743,170.30425807441,134.51444,17.2468074,256.548892724,6.71082,6.039738,-0.223694,31, 16.9, -3.6,0,0,1024,1024,1024,364,0,0,0,-100,44.2,-13.4,0,57,3.866,3.862,0,0,0,0,4.559,111.02,170.30425807441,134.51444,6,P-GPS,
523500,2022-10-28 21:16:22,-34.9261986173376,-56.1555361823943,134.842524,135.7283508,-1.152440325592,170.63234207441,41.338584,8.388525,186.178155564,88.478021204,25,5,7.743,170.63234207441,134.842524,17.2468074,256.548892724,6.263432,5.59235,-0.223694,28.3, 16.3, -4.4,0,0,1024,1024,1024,364,0,0,0,-100,41.5,-13.4,0,57,3.866,3.862,0,0,0,0,4.559,111.02,170.63234207441,134.842524,6,P-GPS,
523600,2022-10-28 21:16:22,-34.9261962908253,-56.155533693828,134.842524,135.7283508,-1.152440325592,170.63234207441,41.338584,7.7621818,185.331042676,89.606958248,25,5,7.743,170.63234207441,134.842524,17.2468074,256.548892724,5.816044,5.144962,-0.223694,25.5, 16.1, -4.7,0,0,1024,1024,1024,364,0,0,0,-100,38.4,-13.4,0,57,3.866,3.862,0,0,0,0,4.559,111.02,170.63234207441,134.842524,6,P-GPS,
523700,2022-10-28 21:16:22,-34.9261942332537,-56.1555315515017,134.842524,135.7283508,-1.152440325592,170.63234207441,41.338584,7.1358386,184.583995408,90.59383492,25,5,7.743,170.63234207441,134.842524,17.2468074,256.548892724,5.368656,4.697574,0,22.2, 16.1, -5,0,0,1024,1024,1024,407,0,0,0,-93,35.2,-13.4,0,57,3.866,3.862,0,0,0,0,4.559,111.02,170.63234207441,134.842524,6,P-GPS,
523800,2022-10-28 21:16:23,-34.9261922665624,-56.1555295772468,135.170608,136.0892432,-1.185248725592,170.96042607441,41.338584,6.5094954,183.872053128,91.523296892,25,5,7.743,170.96042607441,135.170608,17.2468074,256.548892724,4.921268,4.250186,0,18.8, 16.2, -6,0,0,1024,1024,1024,407,0,0,0,-93,32,-13.4,0,57,3.866,3.862,0,0,0,0,4.559,111.02,170.96042607441,135.170608,6,P-GPS,
523900,2022-10-28 21:16:23,-34.9261909249851,-56.1555281253078,135.170608,136.0892432,-1.185248725592,170.96042607441,41.338584,5.8607828,183.387801144,92.177824472,24,5,7.743,170.96042607441,135.170608,17.2468074,256.548892724,4.47388,3.802798,0,15.7, 16.3, -6.9,0,0,1024,1024,1012,477,0,0,-2,-83,28.9,-13.4,0,57,3.866,3.862,0,0,0,0,4.559,111.02,170.96042607441,135.170608,6,P-GPS,
524000,2022-10-28 21:16:23,-34.9261891148328,-56.1555263535893,135.170608,136.1220516,-1.218057125592,170.96042607441,41.338584,5.4133948,182.735242068,93.024609276,24,5,7.735,170.96042607441,135.170608,17.2468074,256.548892724,4.250186,3.35541,0,12.6, 16.2, -7.5,0,0,1024,1024,885,527,0,0,-21,-75,26,-13.4,0,57,3.87,3.864,0,0,0,0,4.705,111.02,170.96042607441,135.170608,6,P-GPS,
524100,2022-10-28 21:16:23,-34.9261875576234,-56.1555248548799,135.170608,136.1220516,-1.218057125592,170.96042607441,41.338584,4.7870516,182.174874596,93.748034496,24,5,7.735,170.96042607441,135.170608,17.2468074,256.548892724,3.802798,2.908022,0,9.8, 15.6, -8,0,0,1024,1024,796,654,0,0,-35,-56,23.4,-13.4,0,57,3.87,3.864,0,0,0,0,4.705,111.02,170.96042607441,135.170608,6,P-GPS,
524200,2022-10-28 21:16:23,-34.926186154973,-56.1555235105423,135.170608,136.0892432,-1.185248725592,170.96042607441,41.338584,4.2949248,181.671265656,94.398953152,24,5,7.735,170.96042607441,135.170608,17.2468074,256.548892724,3.35541,2.684328,0.223694,7.2, 15.8, -8.3,0,0,1024,1024,800,767,0,0,-34,-39,21.1,-13.4,0,57,3.87,3.864,0,0,0,0,4.705,111.02,170.96042607441,135.170608,6,P-GPS,
524300,2022-10-28 21:16:23,-34.9261848593048,-56.1555220052409,135.170608,136.1220516,-1.218057125592,170.96042607441,41.338584,3.6685816,181.208667216,95.051840312,24,5,7.735,170.96042607441,135.170608,17.2468074,256.548892724,2.908022,2.23694,0.671082,5.1, 15.7, -9.1,0,0,1024,1024,804,850,0,0,-33,-26,19.2,-13.4,0,57,3.87,3.864,0,0,0,0,4.705,111.02,170.96042607441,135.170608,6,P-GPS,
524400,2022-10-28 21:16:23,-34.9261837761941,-56.1555209047991,134.842524,135.7939676,-1.218057125592,170.63234207441,41.338584,3.1764548,180.82185618,95.566276024,24,5,7.735,170.96042607441,135.170608,17.2468074,256.548892724,2.460634,2.013246,0.894776,3.4, 15.4, -9.6,0,0,1024,1024,834,953,0,0,-29,-11,17.9,-13.4,0,57,3.87,3.864,0,0,0,0,4.705,111.02,170.63234207441,134.842524,6,P-GPS,
524500,2022-10-28 21:16:23,-34.9261829012637,-56.1555200082131,134.842524,135.7939676,-1.218057125592,170.63234207441,41.338584,2.684328,180.509520212,95.983270788,24,5,7.735,170.96042607441,135.170608,17.2468074,256.548892724,2.013246,1.789552,1.11847,2.2, 15.4, -9.9,0,0,1024,1024,835,1012,0,0,-29,-2,17,-13.6,0,57,3.87,3.864,0,0,0,0,4.705,111.02,170.63234207441,134.842524,6,P-GPS,
524600,2022-10-28 21:16:23,-34.9261822058009,-56.1555192513587,134.842524,135.7939676,-1.218057125592,170.63234207441,41.338584,2.0579848,180.262144876,96.323165812,24,5,7.735,170.96042607441,135.170608,17.2468074,256.548892724,1.565858,1.342164,1.11847,1.4, 15.3, -10.4,0,0,1024,1024,835,1012,0,0,-29,-2,16.4,-14.2,0,57,3.87,3.864,0,0,0,0,4.705,111.02,170.63234207441,134.842524,6,P-GPS,
524700,2022-10-28 21:16:23,-34.9261818447292,-56.1555184752954,134.842524,135.826776,-1.250865525592,170.63234207441,41.338584,1.6105968,180.137144872,96.590226188,24,5,7.735,170.96042607441,135.170608,17.2468074,256.548892724,1.342164,0.894776,0.894776,1.4, 13, -9.4,0,0,1024,1024,801,1013,0,0,-34,-2,16.2,-15.3,0,57,3.87,3.864,0,0,0,0,4.705,111.02,170.63234207441,134.842524,6,P-GPS,
524800,2022-10-28 21:16:24,-34.9261814396245,-56.1555180450221,134.51444,135.4658836,-1.218057125592,170.30425807441,41.338584,1.2974252,179.99344408,96.786092336,24,5,7.735,170.96042607441,135.170608,17.2468074,256.548892724,1.11847,0.671082,0.894776,1.6, 10.9, -7.1,0,0,1024,1024,563,1024,0,0,-70,0,16.1,-16.5,0,57,3.87,3.864,0,0,0,0,4.705,111.02,170.30425807441,134.51444,6,P-GPS,
524900,2022-10-28 21:16:24,-34.9261811499959,-56.1555177282015,134.51444,135.4658836,-1.218057125592,170.30425807441,41.338584,1.11847,179.890753788,96.928152708,24,5,7.735,170.96042607441,135.170608,17.2468074,256.548892724,0.894776,0.671082,1.11847,1.8, 9.7, -5.8,0,0,1024,1024,364,1024,0,0,-100,0,16.1,-17.8,0,57,3.87,3.864,0,0,0,0,4.705,111.02,170.30425807441,134.51444,6,P-GPS,
525000,2022-10-28 21:16:24,-34.9261809418157,-56.1555174580587,134.186356,135.170608,-1.250865525592,169.97617407441,41.338584,0.8052984,179.817262972,97.0390451,24,5,7.737,170.96042607441,135.170608,17.2468074,256.548892724,0.671082,0.447388,1.565858,1.8, 9.2, -5.7,0,0,1024,1024,364,1024,0,0,-100,0,16.1,-19.2,0,57,3.87,3.863,0,0,0,0,4.159,111.02,169.97617407441,134.186356,6,P-GPS,
525100,2022-10-28 21:16:24,-34.9261807808993,-56.1555172362224,133.858272,134.842524,-1.250865525592,169.64809007441,41.338584,0.8052984,179.76050444,97.12762778,24,5,7.737,170.96042607441,135.170608,17.2468074,256.548892724,0.671082,0.447388,2.23694,1.7, 8.3, -5.5,0,0,1024,1024,364,1024,0,0,-100,0,16.1,-20.6,0,57,3.87,3.863,0,0,0,0,4.159,111.02,169.64809007441,133.858272,6,P-GPS,
525200,2022-10-28 21:16:24,-34.9261808634419,-56.1555169825131,133.202104,134.186356,-1.250865525592,168.99192207441,41.338584,0.4921268,179.79331284,97.209320696,24,5,7.737,170.96042607441,135.170608,17.2468074,256.548892724,0.447388,0.223694,3.131716,1.5, 8.3, -3.5,0,0,1024,1024,364,1024,0,0,-100,0,16.1,-22,0,57,3.87,3.863,0,0,0,0,4.159,111.02,168.99192207441,133.202104,6,P-GPS,
525300,2022-10-28 21:16:24,-34.9261807661522,-56.15551681976,132.545936,133.530188,-1.250865525592,168.33575407441,41.338584,0.4921268,179.759192104,97.269360068,24,5,7.737,170.96042607441,135.170608,17.2468074,256.548892724,0.447388,0.223694,3.802798,1.3, 7.9, -3.1,0,0,1024,1024,364,1024,0,0,-100,0,16.1,-23.4,0,57,3.87,3.863,0,0,0,0,4.159,111.02,168.33575407441,132.545936,6,P-GPS,
525400,2022-10-28 21:16:24,-34.926180677669,-56.1555165969937,131.889768,132.87402,-1.250865525592,167.67958607441,41.338584,0.3131716,179.729008376,97.343507052,24,5,7.737,170.96042607441,135.170608,17.2468074,256.548892724,0.223694,0.223694,4.697574,1.4, 7.1, -3.5,0,0,1024,1024,364,1024,0,0,-100,0,16.1,-24.8,0,57,3.87,3.863,0,0,0,0,4.159,111.02,167.67958607441,131.889768,6,P-GPS,
525500,2022-10-28 21:16:24,-34.9261806282685,-56.1555164040237,130.905516,131.9225764,-1.283673925592,166.69533407441,41.338584,0.3131716,179.71293226,97.403874508,24,5,7.737,170.96042607441,135.170608,17.2468074,256.548892724,0.223694,0.223694,5.59235,1.6, 4.5, -3.6,0,0,1024,1024,487,1024,0,0,-81,0,16.1,-26.2,0,57,3.87,3.863,0,0,0,0,4.159,111.02,166.69533407441,130.905516,6,P-GPS,
525600,2022-10-28 21:16:24,-34.9261805285296,-56.1555160108753,130.249348,131.2664084,-1.283673925592,166.03916607441,41.338584,0.3131716,179.680451944,97.527234092,24,5,7.737,170.96042607441,135.170608,17.2468074,256.548892724,0.223694,0.223694,6.263432,1.8, 2.8, -2.8,0,0,1024,1024,487,1024,0,0,-81,0,16.1,-27.5,0,57,3.87,3.863,0,0,0,0,4.159,111.02,166.03916607441,130.249348,6,P-GPS,
525700,2022-10-28 21:16:25,-34.9261805084672,-56.1555158569306,129.265096,130.2821564,-1.283673925592,165.05491407441,41.338584,0,179.674874516,97.57382202,24,5,7.737,170.96042607441,135.170608,17.2468074,256.548892724,0,0,6.487126,2, 1, -2.4,0,0,1033,1024,594,1024,1,0,-65,0,16.1,-28.6,0,57,3.87,3.863,0,0,0,0,4.159,111.02,165.05491407441,129.265096,6,P-GPS,
525800,2022-10-28 21:16:25,-34.9261805072686,-56.1555156486831,128.280844,129.2979044,-1.283673925592,164.07066207441,41.338584,0.223694,179.676514936,97.63615798,24,5,7.737,170.96042607441,135.170608,17.2468074,256.548892724,0.223694,0,6.039738,2.5, -1, -2.4,0,0,1042,1024,598,1016,3,0,-65,-1,16.1,-29.5,0,57,3.87,3.863,0,0,0,0,4.159,111.02,164.07066207441,128.280844,6,P-GPS,
525900,2022-10-28 21:16:25,-34.9261804604216,-56.155515456664,127.296592,128.3136524,-1.283673925592,163.08641007441,41.338584,0.223694,179.661423072,97.695869268,24,5,7.737,170.96042607441,135.170608,17.2468074,256.548892724,0.223694,0,5.368656,2.7, 1.5, -1.4,0,0,1044,1024,579,1019,3,0,-67,-1,16.1,-30.1,0,57,3.87,3.863,0,0,0,0,4.159,111.02,163.08641007441,127.296592,6,P-GPS,
526000,2022-10-28 21:16:25,-34.9261803254561,-56.1555151856173,126.640424,127.6574844,-1.283673925592,162.43024207441,41.338584,0.447388,179.615163228,97.790685544,24,5,7.786,170.96042607441,135.170608,17.2468074,256.548892724,0.447388,0,4.697574,2.4, 5.1, -3.2,0,0,1029,1024,592,1024,1,0,-65,0,16.1,-30.5,0,57,3.888,3.883,0,0,0,0,2.678,110.84,162.43024207441,126.640424,6,P-GPS,
526100,2022-10-28 21:16:25,-34.9261802178485,-56.155515014014,125.984256,127.0013164,-1.283673925592,161.77407407441,41.338584,0.223694,179.577761652,97.855318092,24,5,7.786,170.96042607441,135.170608,17.2468074,256.548892724,0.223694,0,4.250186,2.2, 6, -3.6,0,0,1024,1024,647,1024,0,0,-57,0,16.1,-30.6,0,57,3.888,3.883,0,0,0,0,2.678,110.84,161.77407407441,125.984256,6,P-GPS,
526200,2022-10-28 21:16:25,-34.9261801151393,-56.1555147980578,125.656172,126.6732324,-1.283673925592,161.44599007441,41.338584,0.223694,179.54232858,97.930121244,24,5,7.786,170.96042607441,135.170608,17.2468074,256.548892724,0.223694,0,3.802798,2.2, 5.2, -2.9,0,0,1024,1024,811,1024,0,0,-32,0,16.1,-30.6,0,57,3.888,3.883,0,0,0,0,2.678,110.84,161.44599007441,125.656172,6,P-GPS,
526300,2022-10-28 21:16:25,-34.9261800499495,-56.1555145887419,125.000004,126.0170644,-1.283673925592,160.78982207441,41.338584,0.223694,179.52100312,97.99705038,24,5,7.786,170.96042607441,135.170608,17.2468074,256.548892724,0.223694,0,3.35541,2.2, 4.2, -3.3,0,0,1024,1024,821,1024,0,0,-31,0,16.1,-30.6,0,57,3.888,3.883,0,0,0,0,2.678,110.84,160.78982207441,125.000004,6,P-GPS,
526400,2022-10-28 21:16:25,-34.926180039788,-56.1555141835786,124.67192,125.6889804,-1.283673925592,160.46173807441,41.338584,0,179.521659288,98.11844146,24,5,7.786,170.96042607441,135.170608,17.2468074,256.548892724,0,0,2.908022,1.9, 5.3, -3,0,0,1024,1024,821,1024,0,0,-31,0,16.1,-30.6,0,57,3.888,3.883,0,0,0,0,2.678,110.84,160.46173807441,124.67192,6,P-GPS,
526500,2022-10-28 21:16:25,-34.9261800384852,-56.1555139566249,124.343836,125.3608964,-1.283673925592,160.13365407441,41.338584,0,179.523627792,98.186354848,24,5,7.786,170.96042607441,135.170608,17.2468074,256.548892724,0,0,2.23694,1.8, 5.1, -3.1,0,0,1024,1024,807,1024,0,0,-33,0,16.1,-30.6,0,57,3.888,3.883,0,0,0,0,2.678,110.84,160.13365407441,124.343836,6,P-GPS,
526600,2022-10-28 21:16:25,-34.9261800192044,-56.1555137470229,124.015752,125.0328124,-1.283673925592,159.80557007441,41.338584,0,179.519034616,98.249346976,24,5,7.786,170.96042607441,135.170608,17.2468074,256.548892724,0,0,1.789552,1.7, 5.3, -2.8,0,0,1024,1024,364,1024,0,0,-100,0,16.1,-30.6,0,57,3.888,3.883,0,0,0,0,2.678,110.84,159.80557007441,124.015752,6,P-GPS,
526700,2022-10-28 21:16:26,-34.9261800032587,-56.1555135552859,124.015752,125.0328124,-1.283673925592,159.80557007441,41.338584,0,179.515425692,98.30708976,24,5,7.786,170.96042607441,135.170608,17.2468074,256.548892724,0,0,1.789552,1.7, 6.1, -3.5,0,0,1024,1024,364,1024,0,0,-100,0,16.1,-30.6,0,57,3.888,3.883,0,0,0,0,2.678,110.84,159.80557007441,124.015752,6,P-GPS,
526800,2022-10-28 21:16:26,-34.9261799982561,-56.1555133793973,123.687668,124.7375368,-1.316482325592,159.47748607441,41.338584,0,179.515425692,98.3595832,24,5,7.786,170.96042607441,135.170608,17.2468074,256.548892724,0,0,2.23694,1.7, 6.1, -3.9,0,0,1024,1024,364,1024,0,0,-100,0,16.1,-30.6,0,57,3.888,3.883,0,0,0,0,2.678,110.84,159.47748607441,123.687668,6,P-GPS,
526900,2022-10-28 21:16:26,-34.9261800178496,-56.1555131811597,123.0315,124.0813688,-1.316482325592,158.82131807441,41.338584,0.223694,179.524940128,98.419294488,24,5,7.786,170.96042607441,135.170608,17.2468074,256.548892724,0,0.223694,2.908022,1.7, 4.7, -5,0,0,1024,1024,364,1024,0,0,-100,0,16.1,-30.6,0,57,3.888,3.883,0,0,0,0,2.678,110.84,158.82131807441,123.0315,6,P-GPS,
527000,2022-10-28 21:16:26,-34.9261800210283,-56.155513081403,122.375332,123.4252008,-1.316482325592,158.16515007441,41.338584,0.223694,179.527236716,98.449150132,24,5,7.786,170.96042607441,135.170608,17.2468074,256.548892724,0,0.223694,3.802798,1.8, 4.2, -4.7,0,0,1078,1024,364,1024,8,0,-100,0,16.1,-30.6,0,57,3.888,3.883,0,0,0,0,2.678,110.84,158.16515007441,122.375332,6,P-GPS,
527100,2022-10-28 21:16:26,-34.9261800263435,-56.1555130019732,121.719164,122.7690328,-1.316482325592,157.50898207441,41.338584,0.223694,179.530189472,98.473100264,24,5,7.713,170.96042607441,135.170608,17.2468074,256.548892724,0,0.223694,4.697574,1.9, 2.9, -4.9,0,0,1684,1024,364,1024,100,0,-100,0,16.1,-30.6,0,57,3.867,3.86,0,0,0,0,4.948,110.84,157.50898207441,121.719164,6,P-GPS,
527200,2022-10-28 21:16:26,-34.9261800502621,-56.1555129349932,120.734912,121.7847808,-1.316482325592,156.52473007441,41.338584,0,179.539703908,98.495081892,24,5,7.713,170.96042607441,135.170608,17.2468074,256.548892724,0,0,5.368656,1.8, 2.1, -3.8,0,0,1684,1024,364,1024,100,0,-100,0,16.1,-30.6,0,57,3.867,3.86,0,0,0,0,4.948,110.84,156.52473007441,120.734912,6,P-GPS,
527300,2022-10-28 21:16:26,-34.9261801752745,-56.1555130484759,119.422576,120.4724448,-1.316482325592,155.21239407441,41.338584,0,179.583995248,98.551840424,24,5,7.713,170.96042607441,135.170608,17.2468074,256.548892724,0,0,5.816044,2.1, -10.7, -2.2,0,0,1684,1024,364,1024,100,0,-100,0,16.1,-30.6,0,57,3.867,3.86,0,0,0,0,4.948,110.84,155.21239407441,119.422576,6,P-GPS,
527400,2022-10-28 21:16:26,-34.9261799961196,-56.1555130113197,118.438324,119.4881928,-1.316482325592,154.22814207441,41.338584,0,179.519034616,98.618113392,24,5,7.713,170.96042607441,135.170608,17.2468074,256.548892724,0.671082,0,6.263432,2.3, -18.2, -2.9,0,0,1684,1024,364,1024,100,0,-100,0,16.1,-30.6,0,57,3.867,3.86,0,0,0,0,4.948,110.84,154.22814207441,118.438324,6,P-GPS,
527500,2022-10-28 21:16:26,-34.926179599613,-56.1555130033145,117.454072,118.5039408,-1.316482325592,153.24389007441,41.338584,1.342164,179.374677656,98.762798436,24,5,7.713,170.96042607441,135.170608,17.2468074,256.548892724,1.342164,0,6.71082,2.4, -20.8, -2.9,0,0,1684,1024,364,1024,100,0,-100,0,16.1,-30.6,0,57,3.867,3.86,0,0,0,0,4.948,110.84,153.24389007441,117.454072,6,P-GPS,
527600,2022-10-28 21:16:26,-34.9261788699659,-56.1555130381106,116.141736,117.1587964,-1.283673925592,151.93155407441,41.338584,2.013246,179.107945364,99.029202644,24,5,7.713,170.96042607441,135.170608,17.2468074,256.548892724,2.013246,0,6.934514,2.2, -19.4, -3.6,0,0,1684,1024,450,1024,100,0,-87,0,16.1,-30.6,0,57,3.867,3.86,0,0,0,0,4.948,110.84,151.93155407441,116.141736,6,P-GPS,
527700,2022-10-28 21:16:26,-34.9261778811226,-56.1555131834912,115.157484,116.1745444,-1.283673925592,150.94730207441,41.338584,2.908022,178.746068712,99.392719716,24,5,7.713,170.96042607441,135.170608,17.2468074,256.548892724,2.908022,0,7.158208,2.1, -18.8, -1,0,0,1684,1024,532,1024,100,0,-75,0,16.1,-30.6,0,57,3.867,3.86,0,0,0,0,4.948,110.84,150.94730207441,115.157484,6,P-GPS,
527800,2022-10-28 21:16:27,-34.926176566851,-56.1555133585687,114.173232,115.157484,-1.250865525592,149.96305007441,41.338584,3.579104,178.264769484,99.875003196,24,5,7.713,170.96042607441,135.170608,17.2468074,256.548892724,3.579104,-0.223694,6.934514,1.7, -22.1, -3,0,0,1684,1024,702,1024,100,0,-49,0,16.1,-30.6,0,57,3.867,3.86,0,0,0,0,4.948,110.84,149.96305007441,114.173232,6,P-GPS,
527900,2022-10-28 21:16:27,-34.9261749348114,-56.1555135659882,113.517064,114.4685076,-1.218057125592,149.30688207441,41.338584,4.697574,177.66732852,100.473756496,24,5,7.713,170.96042607441,135.170608,17.2468074,256.548892724,4.697574,-0.223694,6.487126,2.4, -17.1, 5.7,0,0,1684,1024,716,1024,100,0,-47,0,16.1,-30.6,0,57,3.867,3.86,0,0,0,0,4.948,110.84,149.30688207441,113.517064,6,P-GPS,
528000,2022-10-28 21:16:27,-34.9261727529049,-56.155513625364,112.860896,113.7795312,-1.185248725592,148.65071407441,41.338584,5.368656,176.871068652,101.270016364,24,5,7.713,170.96042607441,135.170608,17.2468074,256.548892724,5.368656,0,5.816044,2.9, -15.7, 2.4,0,0,1684,1024,803,1024,100,0,-33,0,16.1,-30.6,0,57,3.867,3.86,0,0,0,0,4.948,110.84,148.65071407441,112.860896,6,P-GPS,
528100,2022-10-28 21:16:27,-34.9261703015886,-56.1555135310275,112.204728,113.0905548,-1.152440325592,147.99454607441,41.338584,6.487126,175.978680172,102.164701432,24,5,7.774,170.96042607441,135.170608,17.2468074,256.548892724,6.487126,0.223694,4.921268,1.7, -15.5, -2.3,0,0,1684,1024,813,1024,100,0,-32,0,16.1,-30.6,0,57,3.878,3.875,0,0,0,0,2.673,110.84,147.99454607441,112.204728,6,P-GPS,
528200,2022-10-28 21:16:27,-34.9261671182282,-56.1555134942057,111.876644,112.7296624,-1.119631925592,147.66646207441,41.338584,7.381902,174.818575148,103.326118792,24,5,7.774,170.96042607441,135.170608,17.2468074,256.548892724,7.381902,0.223694,3.579104,1.5, -10.2, -4.7,0,0,1684,1024,821,1024,100,0,-31,0,16.1,-30.6,0,57,3.878,3.875,0,0,0,0,2.673,110.84,147.66646207441,111.876644,6,P-GPS,
528300,2022-10-28 21:16:27,-34.9261638606627,-56.1555134998193,111.220476,112.0078776,-1.054015125592,147.01029407441,41.338584,7.82929,173.630582984,104.514767124,24,5,7.774,170.96042607441,135.170608,17.2468074,256.548892724,7.82929,0,2.460634,1.5, -9.1, -3.9,0,0,1684,1024,821,1024,100,0,-31,0,16.1,-30.6,0,57,3.878,3.875,0,0,0,0,2.673,110.84,147.01029407441,111.220476,6,P-GPS,
528400,2022-10-28 21:16:27,-34.9261603671944,-56.1555134742,110.892392,111.6141768,-0.988398325592,146.68221007441,41.338584,8.276678,172.35728898,105.789373464,24,5,7.774,170.96042607441,135.170608,17.2468074,256.548892724,8.276678,0,1.789552,1.8, -9.7, -3.1,0,0,1684,1024,942,1024,100,0,-12,0,16.1,-30.6,0,57,3.878,3.875,0,0,0,0,2.673,110.84,146.68221007441,110.892392,6,P-GPS,
528500,2022-10-28 21:16:27,-34.9261568637209,-56.1555134713827,110.564308,111.2532844,-0.955589925592,146.35412607441,41.338584,8.724066,171.080386052,107.067588728,24,5,7.774,170.96042607441,135.170608,17.2468074,256.548892724,8.724066,0,1.11847,2, -11.1, -2.1,0,0,1684,1024,946,1024,100,0,-12,0,16.1,-30.6,0,57,3.878,3.875,0,0,0,0,2.673,110.84,146.35412607441,110.564308,6,P-GPS,
528600,2022-10-28 21:16:27,-34.9261525030866,-56.155513245551,110.564308,111.1876676,-0.889973125592,146.35412607441,41.338584,9.171454,169.49311566,108.660108464,24,5,7.774,170.96042607441,135.170608,17.2468074,256.548892724,9.171454,0,0.894776,2, -11.8, -0.9,0,0,1684,1024,943,1024,100,0,-12,0,16.1,-30.6,0,57,3.878,3.875,0,0,0,0,2.673,110.84,146.35412607441,110.564308,6,P-GPS,
528700,2022-10-28 21:16:27,-34.9261485669941,-56.1555131845517,110.236224,110.7939668,-0.824356325592,146.02604207441,41.338584,9.618842,168.059060496,110.096132132,24,5,7.774,170.96042607441,135.170608,17.2468074,256.548892724,9.618842,0,0.671082,1.8, -12.7, -0.3,0,0,1684,1024,524,1024,100,0,-76,0,16.1,-30.6,0,57,3.878,3.875,0,0,0,0,2.673,110.84,146.02604207441,110.236224,6,P-GPS,
528800,2022-10-28 21:16:28,-34.9261442389808,-56.1555131561516,110.236224,110.72835,-0.758739525592,146.02604207441,41.338584,10.06623,166.481632624,111.675200424,24,5,7.774,170.96042607441,135.170608,17.2468074,256.548892724,10.06623,0,0.447388,2, -13.7, -1,0,0,1684,1024,364,1024,100,0,-100,0,16.1,-30.6,0,57,3.878,3.875,0,0,0,0,2.673,110.84,146.02604207441,110.236224,6,P-GPS,
528900,2022-10-28 21:16:28,-34.9261400111754,-56.1555131454141,110.236224,110.6627332,-0.693122725592,146.02604207441,41.338584,10.289924,164.940622076,113.217851392,24,5,7.774,170.96042607441,135.170608,17.2468074,256.548892724,10.289924,0,0.894776,2.2, -14.7, -0.6,0,0,1684,1024,364,1024,100,0,-100,0,16.1,-30.6,0,57,3.878,3.875,0,0,0,0,2.673,110.84,146.02604207441,110.236224,6,P-GPS,
