time(millisecond),datetime(utc),latitude,longitude,height_above_takeoff(feet),height_above_ground_at_drone_location(feet),ground_elevation_at_drone_location(feet),altitude_above_seaLevel(feet),height_sonar(feet),speed(mph),distance(feet),mileage(feet),satellites,gpslevel,voltage(v),max_altitude(feet),max_ascent(feet),max_speed(mph),max_distance(feet), xSpeed(mph), ySpeed(mph), zSpeed(mph), compass_heading(degrees), pitch(degrees), roll(degrees),isPhoto,isVideo,rc_elevator,rc_aileron,rc_throttle,rc_rudder,rc_elevator(percent),rc_aileron(percent),rc_throttle(percent),rc_rudder(percent),gimbal_heading(degrees),gimbal_pitch(degrees),gimbal_roll(degrees),battery_percent,voltageCell1,voltageCell2,voltageCell3,voltageCell4,voltageCell5,voltageCell6,current(A),battery_temperature(f),altitude(feet),ascent(feet),flycStateRaw,flycState,message
0,2022-08-15 23:35:08,0,0,0,,,3.28084E-5,0.328084,0,0,0,0,0,0,3.28084E-5,0,0,0,0,0,0,30, 2.7, -0.1,0,0,364,364,364,1684,-100,-100,-100,100,30.1,0,0,83,4.175,4.166,0,0,0,0,0,91.58,3.28084E-5,0,6,P-GPS,"Sin señal GPS. La aeronave no puede hacer vuelo estacionario. Vuela con cuidado (Code: 30008). Señal débil del GPS. Vuelo estacionario inestable. Vuela con cuidado (Code: 30002)"
100,2022-08-15 23:35:08,0,0,0,,,3.28084E-5,0.328084,0,0,0,0,0,0,3.28084E-5,0,0,0,0,0,0,30, 2.7, -0.1,0,0,364,364,364,1684,-100,-100,-100,100,30.1,0,0,83,4.175,4.166,0,0,0,0,0,91.58,3.28084E-5,0,41,Motors_Started,
200,2022-08-15 23:35:08,0,0,0,,,3.28084E-5,0.328084,0,0,0,0,0,0,3.28084E-5,0,0,0,0,0,0,30.1, 2.7, -0.1,0,0,364,364,364,1684,-100,-100,-100,100,30.1,0,0,83,4.175,4.166,0,0,0,0,0,91.58,3.28084E-5,0,41,Motors_Started,
300,2022-08-15 23:35:09,0,0,0,,,3.28084E-5,0.328084,0,0,0,0,0,0,3.28084E-5,0,0,0,0,0,0,30.1, 2.7, -0.1,0,0,467,414,499,1567,-84,-92,-80,82,30.1,0,0,83,4.175,4.166,0,0,0,0,0,91.58,3.28084E-5,0,41,Motors_Started,
400,2022-08-15 23:35:09,0,0,0,,,3.28084E-5,0.328084,0,0,0,0,0,0,3.28084E-5,0,0,0,0,0,0,30.1, 2.7, -0.1,0,0,1024,1024,1024,1024,0,0,0,0,30.1,0,0,83,4.175,4.166,0,0,0,0,0,91.58,3.28084E-5,0,41,Motors_Started,
500,2022-08-15 23:35:09,0,0,0,,,3.28084E-5,0.328084,0,0,0,0,0,0,3.28084E-5,0,0,0,0,0,0,30, 2.7, -0.1,0,0,1024,1024,1024,1024,0,0,0,0,30.1,0,0,83,4.175,4.166,0,0,0,0,0,91.58,3.28084E-5,0,41,Motors_Started,"Setting new Return-To-Home altitude to 15m (49 ft). Data Recorder File Index is 74. Setting new Maximum Flight Altitude to 30m (98 ft)"
600,2022-08-15 23:35:09,0,0,0,,,3.28084E-5,0.328084,0,0,0,0,0,0,3.28084E-5,0,0,0,0,0,0,30.1, 2.7, -0.1,0,0,1024,1024,1024,1024,0,0,0,0,30.1,0,0,83,4.175,4.166,0,0,0,0,0,91.58,3.28084E-5,0,41,Motors_Started,
700,2022-08-15 23:35:09,0,0,0,,,3.28084E-5,0.328084,0,0,0,0,0,0,3.28084E-5,0,0,0,0,0,0,30.1, 2.7, -0.1,0,0,1024,1024,1024,1024,0,0,0,0,30.1,0,0,83,4.175,4.166,0,0,0,0,0,91.58,3.28084E-5,0,41,Motors_Started,
800,2022-08-15 23:35:09,0,0,0,,,3.28084E-5,0.328084,0,0,0,0,0,0,3.28084E-5,0,0,0,0,0,0,30, 2.7, -0.1,0,0,1024,1024,1123,1024,0,0,15,0,30.1,0,0,83,4.175,4.166,0,0,0,0,0,91.58,3.28084E-5,0,41,Motors_Started,
900,2022-08-15 23:35:09,0,0,0,,,3.28084E-5,0.328084,0,0,0,0,0,0,3.28084E-5,0,0,0,0,0,0,30.1, 2.7, -0.1,0,0,1024,1024,1517,1024,0,0,75,0,30.1,0,0,83,4.175,4.166,0,0,0,0,0,91.58,3.28084E-5,0,41,Motors_Started,
1000,2022-08-15 23:35:09,0,0,0,,,3.28084E-5,0.328084,0,0,0,0,0,0,3.28084E-5,0,0,0,0,0,0,30.1, 2.7, -0.1,0,0,1024,1024,1684,1024,0,0,100,0,30.1,0,0,83,4.175,4.166,0,0,0,0,0,91.58,3.28084E-5,0,41,Motors_Started,
1100,2022-08-15 23:35:09,0,0,0,,,3.28084E-5,0.328084,0,0,0,0,0,0,3.28084E-5,0,0,0,0,0,0,30.1, 2.7, -0.1,0,0,1024,1024,1684,1024,0,0,100,0,30.1,0,0,83,4.175,4.166,0,0,0,0,0,91.58,3.28084E-5,0,41,Motors_Started,
1200,2022-08-15 23:35:09,0,0,0,,,3.28084E-5,0.328084,0,0,0,0,0,8.352,3.28084E-5,0,0,0,0,0,0,30.1, 2.7, -0.1,0,0,1024,1024,1684,1024,0,0,100,0,30.1,0,0,83,4.175,4.166,0,0,0,0,0.925,91.58,3.28084E-5,0,10,Assisted_Takeoff,
1300,2022-08-15 23:35:10,0,0,0,,,3.28084E-5,0.328084,0,0,0,0,0,8.352,3.28084E-5,0,0,0,0,0,0,30.3, 2.7, -0.1,0,0,1024,1024,1684,1024,0,0,100,0,30.1,0,0,83,4.175,4.166,0,0,0,0,0.925,91.58,3.28084E-5,0,10,Assisted_Takeoff,
1400,2022-08-15 23:35:10,0,0,0,,,3.28084E-5,0.328084,0,0,0,0,0,8.352,3.28084E-5,0,0,0,0,0,0,30.3, 2.7, -0.1,0,0,1024,1024,1635,1024,0,0,93,0,30.2,0,0,83,4.175,4.166,0,0,0,0,0.925,91.58,3.28084E-5,0,10,Assisted_Takeoff,
1500,2022-08-15 23:35:10,0,0,0,,,3.28084E-5,0.328084,0,0,0,0,0,8.352,3.28084E-5,0,0,0,0,0,0,30.6, 2.5, -0.1,0,0,1024,1024,1650,1024,0,0,95,0,30.3,0,0,83,4.175,4.166,0,0,0,0,0.925,91.58,3.28084E-5,0,10,Assisted_Takeoff,
1600,2022-08-15 23:35:10,0,0,0,,,3.28084E-5,0.328084,0,0,0,0,0,8.352,3.28084E-5,0,0,0,0,0,0,31.2, 0, 0,0,0,1024,1024,1643,1024,0,0,94,0,30.6,0,0,83,4.175,4.166,0,0,0,0,0.925,91.58,3.28084E-5,0,10,Assisted_Takeoff,
1700,2022-08-15 23:35:10,0,0,0,,,3.28084E-5,0.328084,0,0,0,0,0,8.352,3.28084E-5,0,0,0,0,0,-0.223694,32.2, -1.9, 0,0,0,1024,1024,1643,1024,0,0,94,0,31.4,0,0,83,4.175,4.166,0,0,0,0,0.925,91.58,3.28084E-5,0,10,Assisted_Takeoff,"Señal débil del GPS. Vuelo estacionario inestable. Vuela con cuidado (Code: 30002)"
1800,2022-08-15 23:35:10,0,0,0,,,3.28084E-5,0.328084,0,0,0,0,0,8.352,3.28084E-5,0,0,0,0,0,-0.671082,32, -0.7, 0.3,0,0,1024,1024,1408,1024,0,0,58,0,31.6,0,0,83,4.175,4.166,0,0,0,0,0.925,91.58,3.28084E-5,0,6,P-GPS,
1900,2022-08-15 23:35:10,0,0,0,,,3.28084E-5,0.656168,0,0,0,0,0,8.352,3.28084E-5,0,0,0,0,0,-1.11847,31.7, 0, -0.3,0,0,1024,1024,1024,1024,0,0,0,0,31.6,0,0,83,4.175,4.166,0,0,0,0,0.925,91.58,3.28084E-5,0,6,P-GPS,
2000,2022-08-15 23:35:10,0,0,0.328084,,,0.3281168084,0.656168,0,0,0,0,0,8.352,0.3281168084,0.328084,0,0,0,0,-1.11847,31.6, 0.5, 0,0,0,1024,1024,1024,1024,0,0,0,0,31.6,0,0,83,4.175,4.166,0,0,0,0,0.925,91.58,0.3281168084,0.328084,6,P-GPS,
2100,2022-08-15 23:35:10,0,0,0.328084,,,0.3281168084,0.656168,0,0,0,0,0,8.352,0.3281168084,0.328084,0,0,0,0,-1.11847,31.7, 0.5, 0.1,0,0,1024,1024,1024,1024,0,0,0,0,31.6,0,0,83,4.175,4.166,0,0,0,0,0.925,91.58,0.3281168084,0.328084,6,P-GPS,"Vuela con cuidado (sin GPS)"
2200,2022-08-15 23:35:10,0,0,0.328084,,,0.3281168084,0.984252,0,0,0,0,0,8.295,0.3281168084,0.328084,0,0,0,0,-1.11847,31.6, 0.4, 0,0,0,1024,1024,1024,1024,0,0,0,0,31.6,0,0,83,4.129,4.117,0,0,0,0,2.336,91.58,0.3281168084,0.328084,6,P-GPS,
2300,2022-08-15 23:35:11,0,0,0.656168,,,0.6562008084,0.984252,0,0,0,0,0,8.295,0.6562008084,0.656168,0,0,0,0,-1.11847,31.6, 0.3, 0,0,0,1024,1024,1024,1024,0,0,0,0,31.6,0,0,83,4.129,4.117,0,0,0,0,2.336,91.58,0.6562008084,0.656168,6,P-GPS,
2400,2022-08-15 23:35:11,0,0,0.656168,,,0.6562008084,1.312336,0,0,0,0,0,8.295,0.6562008084,0.656168,0,0,0,0,-0.894776,31.6, 0.2, 0,0,0,1024,1024,1024,1024,0,0,0,0,31.6,0,0,83,4.129,4.117,0,0,0,0,2.336,91.58,0.6562008084,0.656168,6,P-GPS,
2500,2022-08-15 23:35:11,0,0,0.984252,,,0.9842848084,1.312336,0,0,0,0,0,8.295,0.9842848084,0.984252,0,0,0,0,-0.671082,31.6, 0.3, 0,0,0,1024,1024,1024,1024,0,0,0,0,31.6,0,0,83,4.129,4.117,0,0,0,0,2.336,91.58,0.9842848084,0.984252,6,P-GPS,
2600,2022-08-15 23:35:11,0,0,0.984252,,,0.9842848084,1.312336,0,0,0,0,0,8.295,0.9842848084,0.984252,0,0,0,0,-0.447388,31.6, 0.3, 0,0,0,1024,1024,1024,1024,0,0,0,0,31.6,0,0,83,4.129,4.117,0,0,0,0,2.336,91.58,0.9842848084,0.984252,6,P-GPS,
2700,2022-08-15 23:35:11,0,0,0.984252,,,0.9842848084,1.64042,0,0,0,0,0,8.295,0.9842848084,0.984252,0,0,0,0,-0.447388,31.6, 0.3, 0.1,0,0,1024,1024,1024,1024,0,0,0,0,31.6,0,0,83,4.129,4.117,0,0,0,0,2.336,91.58,0.9842848084,0.984252,6,P-GPS,
2800,2022-08-15 23:35:11,0,0,0.984252,,,0.9842848084,1.64042,0,0,0,0,0,8.295,0.9842848084,0.984252,0,0,0,0,-0.223694,31.6, 0.3, 0.1,0,0,1024,1024,1024,1024,0,0,0,0,31.6,0,0,83,4.129,4.117,0,0,0,0,2.336,91.58,0.9842848084,0.984252,6,P-GPS,
2900,2022-08-15 23:35:11,0,0,0.984252,,,0.9842848084,1.64042,0,0,0,0,0,8.295,0.9842848084,0.984252,0,0,0,0,0,31.6, 0.3, 0.2,0,0,1024,1024,1024,1024,0,0,0,0,31.6,0,0,83,4.129,4.117,0,0,0,0,2.336,91.58,0.9842848084,0.984252,6,P-GPS,
3000,2022-08-15 23:35:11,0,0,0.984252,,,0.9842848084,1.64042,0,0,0,0,0,8.295,0.9842848084,0.984252,0,0,0,0,0,31.6, 0.3, 0.1,0,0,1024,1024,1024,910,0,0,0,-17,31.6,0,0,83,4.129,4.117,0,0,0,0,2.336,91.58,0.9842848084,0.984252,6,P-GPS,
3100,2022-08-15 23:35:11,0,0,0.984252,,,0.9842848084,1.64042,0,0,0,0,0,8.295,0.9842848084,0.984252,0,0,0,0,0,31.6, 0.4, 0.1,0,0,1024,1024,1024,433,0,0,0,-90,31.5,0,0,83,4.129,4.117,0,0,0,0,2.336,91.58,0.9842848084,0.984252,6,P-GPS,
3200,2022-08-15 23:35:11,0,0,1.312336,,,1.3123688084,1.64042,0,0,0,0,0,8.253,1.3123688084,1.312336,0,0,0,0,0,31.4, 0.4, 0.1,0,0,1024,1024,1024,364,0,0,0,-100,30.8,0,0,83,4.13,4.12,0,0,0,0,4.144,91.58,1.3123688084,1.312336,6,P-GPS,
3300,2022-08-15 23:35:12,0,0,1.312336,,,1.3123688084,1.64042,0,0,0,0,0,8.253,1.3123688084,1.312336,0,0,0,0,0,29.9, 0.4, 0.2,0,0,1024,1024,1024,364,0,0,0,-100,27.6,0,0,83,4.13,4.12,0,0,0,0,4.144,91.58,1.3123688084,1.312336,6,P-GPS,
3400,2022-08-15 23:35:12,0,0,1.312336,,,1.3123688084,1.64042,0,0,0,0,0,8.253,1.3123688084,1.312336,0,0,0,0,0,26, 0.5, 0,0,0,1024,1024,1024,364,0,0,0,-100,23.1,0,0,83,4.13,4.12,0,0,0,0,4.144,91.58,1.3123688084,1.312336,6,P-GPS,
3500,2022-08-15 23:35:12,0,0,1.312336,,,1.3123688084,1.64042,0,0,0,0,0,8.253,1.3123688084,1.312336,0,0,0,0,0,21.4, 0.4, -0.2,0,0,1024,1024,1024,364,0,0,0,-100,18.3,0,0,83,4.13,4.12,0,0,0,0,4.144,91.58,1.3123688084,1.312336,6,P-GPS,
3600,2022-08-15 23:35:12,0,0,1.312336,,,1.3123688084,1.64042,0,0,0,0,0,8.253,1.3123688084,1.312336,0,0,0,0,0,16.8, 0.4, -0.3,0,0,1024,1024,1024,364,0,0,0,-100,13.5,0,0,83,4.13,4.12,0,0,0,0,4.144,91.58,1.3123688084,1.312336,6,P-GPS,
3700,2022-08-15 23:35:12,0,0,1.312336,,,1.3123688084,1.64042,0,0,0,0,0,8.253,1.3123688084,1.312336,0,0,0,0,0,12, 0.4, -0.5,0,0,1024,1024,1024,364,0,0,0,-100,8.7,0,0,83,4.13,4.12,0,0,0,0,4.144,91.58,1.3123688084,1.312336,6,P-GPS,
3800,2022-08-15 23:35:12,0,0,1.312336,,,1.3123688084,1.64042,0,0,0,0,0,8.253,1.3123688084,1.312336,0,0,0,0,0,7.3, 0.3, -0.5,0,0,1024,1024,1024,364,0,0,0,-100,3.9,0,0,83,4.13,4.12,0,0,0,0,4.144,91.58,1.3123688084,1.312336,6,P-GPS,
3900,2022-08-15 23:35:12,0,0,1.312336,,,1.3123688084,1.64042,0,0,0,0,0,8.253,1.3123688084,1.312336,0,0,0,0,0,2.5, 0.2, -0.6,0,0,1024,1024,1024,364,0,0,0,-100,359.2,0,0,83,4.13,4.12,0,0,0,0,4.144,91.58,1.3123688084,1.312336,6,P-GPS,
4000,2022-08-15 23:35:12,0,0,1.312336,,,1.3123688084,1.64042,0,0,0,0,0,8.253,1.3123688084,1.312336,0,0,0,0,0,357.9, 0.2, -0.5,0,0,1024,1024,1024,364,0,0,0,-100,354.4,0,0,83,4.13,4.12,0,0,0,0,4.144,91.58,1.3123688084,1.312336,6,P-GPS,
4100,2022-08-15 23:35:12,0,0,1.312336,,,1.3123688084,1.64042,0,0,0,0,0,8.253,1.3123688084,1.312336,0,0,0,0,0,353.1, 0.1, -0.2,0,0,1024,1024,1024,364,0,0,0,-100,349.6,0,0,83,4.13,4.12,0,0,0,0,4.144,91.58,1.3123688084,1.312336,6,P-GPS,
4200,2022-08-15 23:35:12,0,0,1.312336,,,1.3123688084,1.64042,0,0,0,0,0,8.253,1.3123688084,1.312336,0,0,0,0,0,348.3, 0.1, -0.3,0,0,1024,1024,1024,364,0,0,0,-100,344.8,0,0,83,4.13,4.12,0,0,0,0,4.144,91.58,1.3123688084,1.312336,6,P-GPS,
4300,2022-08-15 23:35:13,0,0,1.64042,,,1.6404528084,1.64042,0,0,0,0,0,8.237,1.6404528084,1.64042,0,0,0,0,0,343.5, 0.1, -0.3,0,0,1024,1024,1024,364,0,0,0,-100,340,0,0,83,4.123,4.112,0,0,0,0,4.16,91.58,1.6404528084,1.64042,6,P-GPS,
4400,2022-08-15 23:35:13,0,0,1.64042,,,1.6404528084,1.64042,0,0,0,0,0,8.237,1.6404528084,1.64042,0,0,0,0,0,338.8, 0.1, -0.3,0,0,1024,1024,1024,364,0,0,0,-100,335.2,0,0,83,4.123,4.112,0,0,0,0,4.16,91.58,1.6404528084,1.64042,6,P-GPS,
4500,2022-08-15 23:35:13,0,0,1.64042,,,1.6404528084,1.64042,0,0,0,0,0,8.237,1.6404528084,1.64042,0,0,0,0,0,334, 0.2, -0.2,0,0,1024,1024,1024,364,0,0,0,-100,330.4,0,0,83,4.123,4.112,0,0,0,0,4.16,91.58,1.6404528084,1.64042,6,P-GPS,
4600,2022-08-15 23:35:13,0,0,1.64042,,,1.6404528084,1.64042,0,0,0,0,0,8.237,1.6404528084,1.64042,0,0,0,0,0,329.3, 0.1, -0.3,0,0,1024,1024,1024,364,0,0,0,-100,325.6,0,0,83,4.123,4.112,0,0,0,0,4.16,91.58,1.6404528084,1.64042,6,P-GPS,
4700,2022-08-15 23:35:13,0,0,1.64042,,,1.6404528084,1.64042,0,0,0,0,0,8.237,1.6404528084,1.64042,0,0,0,0,0,324.5, 0, -0.3,0,0,1024,1024,1024,364,0,0,0,-100,320.8,0,0,83,4.123,4.112,0,0,0,0,4.16,91.58,1.6404528084,1.64042,6,P-GPS,
4800,2022-08-15 23:35:13,0,0,1.64042,,,1.6404528084,1.64042,0,0,0,0,0,8.237,1.6404528084,1.64042,0,0,0,0,0,319.6, 0, -0.1,0,0,1024,1024,1024,1024,0,0,0,0,316,0,0,83,4.123,4.112,0,0,0,0,4.16,91.58,1.6404528084,1.64042,6,P-GPS,
4900,2022-08-15 23:35:13,0,0,1.64042,,,1.6404528084,1.64042,0,0,0,0,0,8.237,1.6404528084,1.64042,0,0,0,0,0,314.8, 0, 0,0,0,1024,1024,1024,1024,0,0,0,0,311.3,0,0,83,4.123,4.112,0,0,0,0,4.16,91.58,1.6404528084,1.64042,6,P-GPS,
5000,2022-08-15 23:35:13,0,0,1.64042,,,1.6404528084,1.64042,0,0,0,0,0,8.237,1.6404528084,1.64042,0,0,0,0,0,310.6, -0.1, -0.1,0,0,1024,1024,1024,1024,0,0,0,0,308.6,0,0,83,4.123,4.112,0,0,0,0,4.16,91.58,1.6404528084,1.64042,6,P-GPS,
5100,2022-08-15 23:35:13,0,0,1.64042,,,1.6404528084,1.64042,0,0,0,0,0,8.237,1.6404528084,1.64042,0,0,0,0,0,308.7, -0.2, -0.1,0,0,1024,1024,1024,1024,0,0,0,0,307.4,0,0,83,4.123,4.112,0,0,0,0,4.16,91.58,1.6404528084,1.64042,6,P-GPS,"En vuelo"
5200,2022-08-15 23:35:13,0,0,1.64042,,,1.6404528084,1.64042,0,0,0,0,0,8.237,1.6404528084,1.64042,0,0,0,0,0,307.8, -0.3, 0.2,0,0,1024,1024,1024,1024,0,0,0,0,307.3,0,0,83,4.123,4.112,0,0,0,0,4.16,91.58,1.6404528084,1.64042,6,P-GPS,
5300,2022-08-15 23:35:14,0,0,1.64042,,,1.6404528084,1.64042,0,0,0,0,0,8.229,1.6404528084,1.64042,0,0,0,0,0,307.6, -0.4, 0.4,0,0,1024,1024,1024,1024,0,0,0,0,307.3,0,0,83,4.119,4.107,0,0,0,0,4.217,91.58,1.6404528084,1.64042,6,P-GPS,
5400,2022-08-15 23:35:14,0,0,1.64042,,,1.6404528084,1.64042,0,0,0,0,0,8.229,1.6404528084,1.64042,0,0,0,0,0,307.6, -0.2, 0.3,0,0,1024,1024,1024,1024,0,0,0,0,307.3,0,0,83,4.119,4.107,0,0,0,0,4.217,91.58,1.6404528084,1.64042,6,P-GPS,
5500,2022-08-15 23:35:14,0,0,1.64042,,,1.6404528084,1.64042,0,0,0,0,0,8.229,1.6404528084,1.64042,0,0,0,0,0,307.6, -0.1, 0,0,0,1024,1024,1024,1024,0,0,0,0,307.3,0,0,83,4.119,4.107,0,0,0,0,4.217,91.58,1.6404528084,1.64042,6,P-GPS,
5600,2022-08-15 23:35:14,0,0,1.968504,,,1.9685368084,1.64042,0,0,0,0,0,8.229,1.9685368084,1.968504,0,0,0,0,0,307.6, 0, -0.1,0,0,1024,1024,1024,1024,0,0,0,0,307.3,0,0,83,4.119,4.107,0,0,0,0,4.217,91.58,1.9685368084,1.968504,6,P-GPS,
5700,2022-08-15 23:35:14,0,0,1.968504,,,1.9685368084,1.64042,0,0,0,0,0,8.229,1.9685368084,1.968504,0,0,0,0,0,307.6, 0, -0.4,0,0,1024,1024,1024,1024,0,0,0,0,307.3,0,0,83,4.119,4.107,0,0,0,0,4.217,91.58,1.9685368084,1.968504,6,P-GPS,
5800,2022-08-15 23:35:14,0,0,1.968504,,,1.9685368084,1.64042,0,0,0,0,0,8.229,1.9685368084,1.968504,0,0,0,0,0,307.5, 0, -0.4,0,0,1024,1024,1024,1024,0,0,0,0,307.3,0,0,83,4.119,4.107,0,0,0,0,4.217,91.58,1.9685368084,1.968504,6,P-GPS,
5900,2022-08-15 23:35:14,0,0,1.968504,,,1.9685368084,1.64042,0,0,0,0,0,8.229,1.9685368084,1.968504,0,0,0,0,0,307.5, 0, -0.6,0,0,1024,1024,1024,1024,0,0,0,0,307.3,0,0,83,4.119,4.107,0,0,0,0,4.217,91.58,1.9685368084,1.968504,6,P-GPS,
6000,2022-08-15 23:35:14,0,0,1.968504,,,1.9685368084,1.64042,0,0,0,0,0,8.229,1.9685368084,1.968504,0,0,0,0,0,307.5, 0.1, -0.9,0,0,1024,1024,1024,1024,0,0,0,0,307.3,0,0,83,4.119,4.107,0,0,0,0,4.217,91.58,1.9685368084,1.968504,6,P-GPS,
6100,2022-08-15 23:35:14,0,0,1.968504,,,1.9685368084,1.64042,0,0,0,0,0,8.229,1.9685368084,1.968504,0,0,0,0,0,307.5, 0.1, -0.7,0,0,1024,1024,1024,1024,0,0,0,0,307.3,0,0,83,4.119,4.107,0,0,0,0,4.217,91.58,1.9685368084,1.968504,6,P-GPS,
6200,2022-08-15 23:35:14,0,0,1.968504,,,1.9685368084,1.64042,0,0,0,0,0,8.229,1.9685368084,1.968504,0,0,0,0,0,307.5, -0.3, -0.2,0,0,1024,1024,1024,1024,0,0,0,0,307.3,0,0,83,4.119,4.107,0,0,0,0,4.217,91.58,1.9685368084,1.968504,6,P-GPS,
6300,2022-08-15 23:35:15,0,0,1.968504,,,1.9685368084,1.64042,0,0,0,0,0,8.218,1.9685368084,1.968504,0,0,0,0,0,307.5, 0, 0,0,0,1024,1024,1024,1024,0,0,0,0,307.3,0,0,83,4.114,4.103,0,0,0,0,4.293,91.76,1.9685368084,1.968504,6,P-GPS,
6400,2022-08-15 23:35:15,0,0,2.296588,,,2.2966208084,1.64042,0,0,0,0,0,8.218,2.2966208084,2.296588,0,0,0,0,0,307.5, 0, 0.1,0,0,1024,1024,1024,1024,0,0,0,0,307.3,0,0,83,4.114,4.103,0,0,0,0,4.293,91.76,2.2966208084,2.296588,6,P-GPS,
6500,2022-08-15 23:35:15,0,0,2.296588,,,2.2966208084,1.64042,0,0,0,0,0,8.218,2.2966208084,2.296588,0,0,0,0,0,307.5, 0, 0.4,0,0,1024,1024,1024,1024,0,0,0,0,307.3,0,0,83,4.114,4.103,0,0,0,0,4.293,91.76,2.2966208084,2.296588,6,P-GPS,
6600,2022-08-15 23:35:15,0,0,2.296588,,,2.2966208084,1.64042,0,0,0,0,0,8.218,2.2966208084,2.296588,0,0,0,0,0,307.3, 0, 0.4,0,0,1024,1024,1024,1024,0,0,0,0,307.3,0,0,83,4.114,4.103,0,0,0,0,4.293,91.76,2.2966208084,2.296588,6,P-GPS,
6700,2022-08-15 23:35:15,0,0,2.296588,,,2.2966208084,1.64042,0,0,0,0,0,8.218,2.2966208084,2.296588,0,0,0,0,0,307.4, 0.1, 0.1,0,0,1024,1024,1024,1024,0,0,0,0,307.3,0,0,83,4.114,4.103,0,0,0,0,4.293,91.76,2.2966208084,2.296588,6,P-GPS,
6800,2022-08-15 23:35:15,0,0,2.296588,,,2.2966208084,1.64042,0,0,0,0,0,8.218,2.2966208084,2.296588,0,0,0,0,0,307.4, 0.2, 0.1,0,0,1024,1024,1024,1024,0,0,0,0,307.3,0,0,83,4.114,4.103,0,0,0,0,4.293,91.76,2.2966208084,2.296588,6,P-GPS,
6900,2022-08-15 23:35:15,0,0,2.296588,,,2.2966208084,1.64042,0,0,0,0,0,8.218,2.2966208084,2.296588,0,0,0,0,0,307.4, 0.3, -0.2,0,0,1024,1024,1024,1024,0,0,0,0,307.3,0,0,83,4.114,4.103,0,0,0,0,4.293,91.76,2.2966208084,2.296588,6,P-GPS,
7000,2022-08-15 23:35:15,0,0,2.296588,,,2.2966208084,1.64042,0,0,0,0,0,8.218,2.2966208084,2.296588,0,0,0,0,0,307.4, 0.1, -0.1,0,0,1024,1024,1024,1024,0,0,0,0,307.3,0,0,83,4.114,4.103,0,0,0,0,4.293,91.76,2.2966208084,2.296588,6,P-GPS,
7100,2022-08-15 23:35:15,0,0,2.296588,,,2.2966208084,1.64042,0,0,0,0,0,8.218,2.2966208084,2.296588,0,0,0,0,0,307.5, 0, -0.1,0,0,1024,1024,1024,1024,0,0,0,0,307.3,0,0,83,4.114,4.103,0,0,0,0,4.293,91.76,2.2966208084,2.296588,6,P-GPS,
7200,2022-08-15 23:35:15,0,0,2.296588,,,2.2966208084,1.64042,0,0,0,0,0,8.218,2.2966208084,2.296588,0,0,0,0,0,307.5, 0, 0,0,0,1024,1024,1024,1024,0,0,0,0,307.3,0,0,83,4.114,4.103,0,0,0,0,4.293,91.76,2.2966208084,2.296588,6,P-GPS,
7300,2022-08-15 23:35:16,0,0,2.296588,,,2.2966208084,1.64042,0,0,0,0,0,8.215,2.2966208084,2.296588,0,0,0,0,0,307.4, 0.2, 0.1,0,0,1024,1024,1024,1024,0,0,0,0,307.3,0,0,83,4.112,4.102,0,0,0,0,4.268,91.76,2.2966208084,2.296588,6,P-GPS,
7400,2022-08-15 23:35:16,0,0,2.296588,,,2.2966208084,1.64042,0,0,0,0,0,8.215,2.2966208084,2.296588,0,0,0,0,0,307.4, 0.2, -0.1,0,0,1024,1024,1024,1024,0,0,0,0,307.3,0,0,83,4.112,4.102,0,0,0,0,4.268,91.76,2.2966208084,2.296588,6,P-GPS,
7500,2022-08-15 23:35:16,0,0,2.296588,,,2.2966208084,1.64042,0,0,0,0,0,8.215,2.2966208084,2.296588,0,0,0,0,0,307.4, 0.3, -0.3,0,0,1024,1024,1024,1024,0,0,0,0,307.3,0,0,83,4.112,4.102,0,0,0,0,4.268,91.76,2.2966208084,2.296588,6,P-GPS,
7600,2022-08-15 23:35:16,0,0,2.296588,,,2.2966208084,1.64042,0,0,0,0,0,8.215,2.2966208084,2.296588,0,0,0,0,0,307.4, 0.1, -0.1,0,0,1024,1024,1024,1024,0,0,0,0,307.3,0,0,83,4.112,4.102,0,0,0,0,4.268,91.76,2.2966208084,2.296588,6,P-GPS,
7700,2022-08-15 23:35:16,0,0,2.296588,,,2.2966208084,1.64042,0,0,0,0,0,8.215,2.2966208084,2.296588,0,0,0,0,0,307.4, 0.5, 0,0,0,1024,1024,1024,1024,0,0,0,0,307.3,0,0,83,4.112,4.102,0,0,0,0,4.268,91.76,2.2966208084,2.296588,6,P-GPS,
7800,2022-08-15 23:35:16,0,0,2.296588,,,2.2966208084,1.64042,0,0,0,0,0,8.215,2.2966208084,2.296588,0,0,0,0,0,307.4, 0.5, 0,0,0,1024,1024,1024,1024,0,0,0,0,307.3,0,0,83,4.112,4.102,0,0,0,0,4.268,91.76,2.2966208084,2.296588,6,P-GPS,
7900,2022-08-15 23:35:16,0,0,2.296588,,,2.2966208084,1.64042,0,0,0,0,0,8.215,2.2966208084,2.296588,0,0,0,0,0,307.4, 0.6, 0,0,0,1024,1024,1024,1024,0,0,0,0,307.3,0,0,83,4.112,4.102,0,0,0,0,4.268,91.76,2.2966208084,2.296588,6,P-GPS,
8000,2022-08-15 23:35:16,0,0,2.296588,,,2.2966208084,1.64042,0,0,0,0,0,8.215,2.2966208084,2.296588,0,0,0,0,0,307.3, 0.2, -0.1,0,0,1024,1024,1024,1024,0,0,0,0,307.3,0,0,83,4.112,4.102,0,0,0,0,4.268,91.76,2.2966208084,2.296588,6,P-GPS,
8100,2022-08-15 23:35:16,0,0,2.296588,,,2.2966208084,1.64042,0,0,0,0,0,8.215,2.2966208084,2.296588,0,0,0,0,0,307.2, 0.3, 0,0,0,1024,1024,1024,1024,0,0,0,0,307.3,0,0,83,4.112,4.102,0,0,0,0,4.268,91.76,2.2966208084,2.296588,6,P-GPS,
8200,2022-08-15 23:35:16,0,0,2.296588,,,2.2966208084,1.64042,0,0,0,0,0,8.215,2.2966208084,2.296588,0,0,0,0,0,307.2, 0.4, 0,0,0,1024,1024,1024,1024,0,0,0,0,307.3,0,0,83,4.112,4.102,0,0,0,0,4.268,91.76,2.2966208084,2.296588,6,P-GPS,
8300,2022-08-15 23:35:17,0,0,2.296588,,,2.2966208084,1.64042,0,0,0,0,0,8.208,2.2966208084,2.296588,0,0,0,0,0,307.1, 0.3, 0.1,0,0,1024,1024,1024,1024,0,0,0,0,307.3,0,0,83,4.11,4.098,0,0,0,0,4.257,91.76,2.2966208084,2.296588,6,P-GPS,
8400,2022-08-15 23:35:17,0,0,2.296588,,,2.2966208084,1.64042,0,0,0,0,0,8.208,2.2966208084,2.296588,0,0,0,0,0,307.1, 0.2, 0.1,0,0,1024,1024,1024,1024,0,0,0,0,307.3,0,0,83,4.11,4.098,0,0,0,0,4.257,91.76,2.2966208084,2.296588,6,P-GPS,
8500,2022-08-15 23:35:17,0,0,2.296588,,,2.2966208084,1.64042,0,0,0,0,0,8.208,2.2966208084,2.296588,0,0,0,0,0,307.1, 0.1, 0.1,0,0,1024,1024,1024,1024,0,0,0,0,307.3,0,0,83,4.11,4.098,0,0,0,0,4.257,91.76,2.2966208084,2.296588,6,P-GPS,
8600,2022-08-15 23:35:17,0,0,2.296588,,,2.2966208084,1.64042,0,0,0,0,0,8.208,2.2966208084,2.296588,0,0,0,0,0,307.2, 0.1, -0.3,0,0,1024,1024,1024,1024,0,0,0,0,307.3,0,0,83,4.11,4.098,0,0,0,0,4.257,91.76,2.2966208084,2.296588,6,P-GPS,
8700,2022-08-15 23:35:17,0,0,2.296588,,,2.2966208084,1.64042,0,0,0,0,0,8.208,2.2966208084,2.296588,0,0,0,0,0,307.2, 0, -0.2,0,0,1024,1024,1024,1024,0,0,0,0,307.3,0,0,83,4.11,4.098,0,0,0,0,4.257,91.76,2.2966208084,2.296588,6,P-GPS,
8800,2022-08-15 23:35:17,0,0,2.296588,,,2.2966208084,1.64042,0,0,0,0,0,8.208,2.2966208084,2.296588,0,0,0,0,0,307.2, 0.1, -0.3,0,0,1024,1024,1024,1024,0,0,0,0,307.3,0,0,83,4.11,4.098,0,0,0,0,4.257,91.76,2.2966208084,2.296588,6,P-GPS,
8900,2022-08-15 23:35:17,0,0,2.296588,,,2.2966208084,1.64042,0,0,0,0,0,8.208,2.2966208084,2.296588,0,0,0,0,0,307.2, 0.2, 0,0,0,1024,1024,1024,1024,0,0,0,0,307.3,0,0,83,4.11,4.098,0,0,0,0,4.257,91.76,2.2966208084,2.296588,6,P-GPS,
9000,2022-08-15 23:35:17,0,0,2.296588,,,2.2966208084,1.64042,0,0,0,0,0,8.208,2.2966208084,2.296588,0,0,0,0,0,307.2, 0.3, 0,0,0,1024,1024,1024,1024,0,0,0,0,307.3,0,0,83,4.11,4.098,0,0,0,0,4.257,91.76,2.2966208084,2.296588,6,P-GPS,
9100,2022-08-15 23:35:17,0,0,2.296588,,,2.2966208084,1.64042,0,0,0,0,0,8.208,2.2966208084,2.296588,0,0,0,0,0,307.2, 0.3, -0.1,0,0,1024,1024,1024,1024,0,0,0,0,307.3,0,0,83,4.11,4.098,0,0,0,0,4.257,91.76,2.2966208084,2.296588,6,P-GPS,
9200,2022-08-15 23:35:17,0,0,2.296588,,,2.2966208084,1.64042,0,0,0,0,0,8.208,2.2966208084,2.296588,0,0,0,0,0,307.3, 0.2, -0.2,0,0,1024,1024,1024,1024,0,0,0,0,307.3,0,0,83,4.11,4.098,0,0,0,0,4.257,91.76,2.2966208084,2.296588,6,P-GPS,
9300,2022-08-15 23:35:18,0,0,2.296588,,,2.2966208084,1.64042,0,0,0,0,0,8.208,2.2966208084,2.296588,0,0,0,0,0,307.3, 0.2, -0.4,0,0,1024,1024,1024,1024,0,0,0,0,307.3,0,0,83,4.11,4.098,0,0,0,0,4.257,91.76,2.2966208084,2.296588,6,P-GPS,
9400,2022-08-15 23:35:18,0,0,2.296588,,,2.2966208084,1.64042,0,0,0,0,0,8.202,2.2966208084,2.296588,0,0,0,0,0,307.4, 0.3, -0.6,0,0,1024,1024,1024,1024,0,0,0,0,307.3,0,0,83,4.106,4.095,0,0,0,0,4.268,91.94,2.2966208084,2.296588,6,P-GPS,
9500,2022-08-15 23:35:18,0,0,2.296588,,,2.2966208084,1.64042,0,0,0,0,0,8.202,2.2966208084,2.296588,0,0,0,0,0,307.3, 0.1, -0.8,0,0,1024,1024,1024,1024,0,0,0,0,307.3,0,0,83,4.106,4.095,0,0,0,0,4.268,91.94,2.2966208084,2.296588,6,P-GPS,
9600,2022-08-15 23:35:18,0,0,2.296588,,,2.2966208084,1.64042,0,0,0,0,0,8.202,2.2966208084,2.296588,0,0,0,0,0,307.3, 0.2, -0.4,0,0,1024,1024,1024,1024,0,0,0,0,307.3,0,0,83,4.106,4.095,0,0,0,0,4.268,91.94,2.2966208084,2.296588,6,P-GPS,
9700,2022-08-15 23:35:18,0,0,2.296588,,,2.2966208084,1.64042,0,0,0,0,0,8.202,2.2966208084,2.296588,0,0,0,0,0,307.3, 0.2, -0.2,0,0,1024,1024,1024,1024,0,0,0,0,307.3,0,0,83,4.106,4.095,0,0,0,0,4.268,91.94,2.2966208084,2.296588,6,P-GPS,
9800,2022-08-15 23:35:18,0,0,2.296588,,,2.2966208084,1.64042,0,0,0,0,0,8.202,2.2966208084,2.296588,0,0,0,0,0,307.3, 0.3, 0.1,0,0,1024,1024,1024,1024,0,0,0,0,307.3,0,0,83,4.106,4.095,0,0,0,0,4.268,91.94,2.2966208084,2.296588,6,P-GPS,
9900,2022-08-15 23:35:18,0,0,2.296588,,,2.2966208084,1.64042,0,0,0,0,0,8.202,2.2966208084,2.296588,0,0,0,0,0,307.3, 0.3, 0.4,0,0,1024,1024,1024,1024,0,0,0,0,307.3,0,0,83,4.106,4.095,0,0,0,0,4.268,91.94,2.2966208084,2.296588,6,P-GPS,
10000,2022-08-15 23:35:18,0,0,2.296588,,,2.2966208084,1.64042,0,0,0,0,0,8.202,2.2966208084,2.296588,0,0,0,0,0,307.2, 0.5, 0,0,0,1024,1024,1024,1024,0,0,0,0,307.3,0,0,83,4.106,4.095,0,0,0,0,4.268,91.94,2.2966208084,2.296588,6,P-GPS,
10100,2022-08-15 23:35:18,0,0,2.296588,,,2.2966208084,1.64042,0,0,0,0,0,8.202,2.2966208084,2.296588,0,0,0,0,0,307.2, 0.3, 0,0,0,1024,1024,1024,1024,0,0,0,0,307.3,0,0,83,4.106,4.095,0,0,0,0,4.268,91.94,2.2966208084,2.296588,6,P-GPS,
10200,2022-08-15 23:35:18,0,0,2.296588,,,2.2966208084,1.64042,0,0,0,0,0,8.202,2.2966208084,2.296588,0,0,0,0,0,307.2, 0.1, 0,0,0,1024,1024,1024,1024,0,0,0,0,307.3,0,0,83,4.106,4.095,0,0,0,0,4.268,91.94,2.2966208084,2.296588,6,P-GPS,
10300,2022-08-15 23:35:19,0,0,2.296588,,,2.2966208084,1.64042,0,0,0,0,0,8.202,2.2966208084,2.296588,0,0,0,0,0,307.3, 0, 0,0,0,1024,1024,1024,1024,0,0,0,0,307.3,0,0,83,4.106,4.095,0,0,0,0,4.268,91.94,2.2966208084,2.296588,6,P-GPS,
10400,2022-08-15 23:35:19,0,0,2.296588,,,2.2966208084,1.64042,0,0,0,0,0,8.199,2.2966208084,2.296588,0,0,0,0,0,307.3, 0, -0.2,0,0,1024,1024,1024,1024,0,0,0,0,307.3,0,0,83,4.103,4.091,0,0,0,0,4.259,91.94,2.2966208084,2.296588,6,P-GPS,
10500,2022-08-15 23:35:19,0,0,2.296588,,,2.2966208084,1.64042,0,0,0,0,0,8.199,2.2966208084,2.296588,0,0,0,0,0,307.4, 0.1, 0,0,0,1024,1024,1024,1024,0,0,0,0,307.3,0,0,83,4.103,4.091,0,0,0,0,4.259,91.94,2.2966208084,2.296588,6,P-GPS,
10600,2022-08-15 23:35:19,0,0,2.296588,,,2.2966208084,1.64042,0,0,0,0,0,8.199,2.2966208084,2.296588,0,0,0,0,0,307.4, 0.3, 0,0,0,1024,1024,1024,1024,0,0,0,0,307.3,0,0,83,4.103,4.091,0,0,0,0,4.259,91.94,2.2966208084,2.296588,6,P-GPS,
10700,2022-08-15 23:35:19,0,0,2.296588,,,2.2966208084,1.64042,0,0,0,0,0,8.199,2.2966208084,2.296588,0,0,0,0,0,307.3, 0.4, 0.2,0,0,1024,1024,1024,1024,0,0,0,0,307.3,0,0,83,4.103,4.091,0,0,0,0,4.259,91.94,2.2966208084,2.296588,6,P-GPS,
10800,2022-08-15 23:35:19,0,0,2.296588,,,2.2966208084,1.64042,0,0,0,0,0,8.199,2.2966208084,2.296588,0,0,0,0,0,307.3, 0.2, 0.3,0,0,1024,1024,1024,1024,0,0,0,0,307.3,0,0,83,4.103,4.091,0,0,0,0,4.259,91.94,2.2966208084,2.296588,6,P-GPS,
10900,2022-08-15 23:35:19,0,0,2.296588,,,2.2966208084,1.64042,0,0,0,0,0,8.199,2.2966208084,2.296588,0,0,0,0,0,307.3, -0.1, -0.2,0,0,1024,1024,1024,1024,0,0,0,0,307.3,0,0,83,4.103,4.091,0,0,0,0,4.259,91.94,2.2966208084,2.296588,6,P-GPS,
11000,2022-08-15 23:35:19,0,0,2.296588,,,2.2966208084,1.64042,0,0,0,0,0,8.199,2.2966208084,2.296588,0,0,0,0,0,307.2, -0.2, -0.5,0,0,1024,1024,1024,1024,0,0,0,0,307.3,0,0,83,4.103,4.091,0,0,0,0,4.259,91.94,2.2966208084,2.296588,6,P-GPS,
11100,2022-08-15 23:35:19,0,0,2.296588,,,2.2966208084,1.64042,0,0,0,0,0,8.199,2.2966208084,2.296588,0,0,0,0,0,307.2, -0.2, -0.5,0,0,1024,1024,1024,1024,0,0,0,0,307.3,0,0,83,4.103,4.091,0,0,0,0,4.259,91.94,2.2966208084,2.296588,6,P-GPS,
11200,2022-08-15 23:35:19,0,0,2.296588,,,2.2966208084,1.64042,0,0,0,0,0,8.199,2.2966208084,2.296588,0,0,0,0,0,307.3, -0.2, -0.3,0,0,1024,1024,1024,1024,0,0,0,0,307.3,0,0,83,4.103,4.091,0,0,0,0,4.259,91.94,2.2966208084,2.296588,6,P-GPS,
11300,2022-08-15 23:35:19,0,0,1.968504,,,1.9685368084,1.64042,0,0,0,0,0,8.199,2.2966208084,2.296588,0,0,0,0,0,307.2, 0, 0.1,0,0,1024,1024,1024,1024,0,0,0,0,307.3,0,0,83,4.103,4.091,0,0,0,0,4.259,91.94,1.9685368084,1.968504,6,P-GPS,
11400,2022-08-15 23:35:20,0,0,1.968504,,,1.9685368084,1.64042,0,0,0,0,0,8.195,2.2966208084,2.296588,0,0,0,0,0,307.2, -0.2, 0.1,0,0,1024,1024,1024,1024,0,0,0,0,307.3,0,0,83,4.103,4.091,0,0,0,0,4.278,91.94,1.9685368084,1.968504,6,P-GPS,
11500,2022-08-15 23:35:20,0,0,1.968504,,,1.9685368084,1.64042,0,0,0,0,0,8.195,2.2966208084,2.296588,0,0,0,0,0,307.2, 0, 0,0,0,1024,1024,1024,1024,0,0,0,0,307.3,0,0,83,4.103,4.091,0,0,0,0,4.278,91.94,1.9685368084,1.968504,6,P-GPS,
11600,2022-08-15 23:35:20,0,0,1.968504,,,1.9685368084,1.64042,0,0,0,0,0,8.195,2.2966208084,2.296588,0,0,0,0,0,307.2, 0.1, 0,0,0,1024,1024,1024,1024,0,0,0,0,307.3,0,0,83,4.103,4.091,0,0,0,0,4.278,91.94,1.9685368084,1.968504,6,P-GPS,
11700,2022-08-15 23:35:20,0,0,1.968504,,,1.9685368084,1.64042,0,0,0,0,0,8.195,2.2966208084,2.296588,0,0,0,0,0,307.2, 0, 0,0,0,1024,1024,1024,1024,0,0,0,0,307.3,0,0,83,4.103,4.091,0,0,0,0,4.278,91.94,1.9685368084,1.968504,6,P-GPS,
11800,2022-08-15 23:35:20,0,0,1.968504,,,1.9685368084,1.64042,0,0,0,0,0,8.195,2.2966208084,2.296588,0,0,0,0,0,307.2, 0, 0.1,0,0,1024,1024,1024,1024,0,0,0,0,307.3,0,0,83,4.103,4.091,0,0,0,0,4.278,91.94,1.9685368084,1.968504,6,P-GPS,
11900,2022-08-15 23:35:20,0,0,1.968504,,,1.9685368084,1.64042,0,0,0,0,0,8.195,2.2966208084,2.296588,0,0,0,0,0,307.3, 0.3, 0.2,0,0,1024,1024,1024,1024,0,0,0,0,307.3,0,0,83,4.103,4.091,0,0,0,0,4.278,91.94,1.9685368084,1.968504,6,P-GPS,
12000,2022-08-15 23:35:20,0,0,1.968504,,,1.9685368084,1.64042,0,0,0,0,0,8.195,2.2966208084,2.296588,0,0,0,0,0,307.3, 0.2, 0.1,0,0,1024,1024,1024,1024,0,0,0,0,307.3,0,0,83,4.103,4.091,0,0,0,0,4.278,91.94,1.9685368084,1.968504,6,P-GPS,
12100,2022-08-15 23:35:20,0,0,1.968504,,,1.9685368084,1.64042,0,0,0,0,0,8.195,2.2966208084,2.296588,0,0,0,0,0,307.4, 0.3, -0.1,0,0,1024,1024,1024,1024,0,0,0,0,307.3,0,0,83,4.103,4.091,0,0,0,0,4.278,91.94,1.9685368084,1.968504,6,P-GPS,
12200,2022-08-15 23:35:20,0,0,1.968504,,,1.9685368084,1.64042,0,0,0,0,0,8.195,2.2966208084,2.296588,0,0,0,0,0,307.4, 0.7, -0.4,0,0,1024,1024,1024,1024,0,0,0,0,307.3,0,0,83,4.103,4.091,0,0,0,0,4.278,91.94,1.9685368084,1.968504,6,P-GPS,
12300,2022-08-15 23:35:21,0,0,1.968504,,,1.9685368084,1.64042,0,0,0,0,0,8.195,2.2966208084,2.296588,0,0,0,0,0,307.4, 0.4, -0.5,0,0,1024,1024,1024,1024,0,0,0,0,307.3,0,0,83,4.103,4.091,0,0,0,0,4.278,91.94,1.9685368084,1.968504,6,P-GPS,
12400,2022-08-15 23:35:21,0,0,1.968504,,,1.9685368084,1.64042,0,0,0,0,0,8.191,2.2966208084,2.296588,0,0,0,0,0,307.5, 0, -0.7,0,0,1024,1024,1024,1024,0,0,0,0,307.3,0,0,83,4.099,4.087,0,0,0,0,4.229,91.94,1.9685368084,1.968504,6,P-GPS,
12500,2022-08-15 23:35:21,0,0,1.968504,,,1.9685368084,1.64042,0,0,0,0,0,8.191,2.2966208084,2.296588,0,0,0,0,0,307.5, 0, -1.1,0,0,1024,1024,1024,1024,0,0,0,0,307.3,0,0,83,4.099,4.087,0,0,0,0,4.229,91.94,1.9685368084,1.968504,6,P-GPS,
12600,2022-08-15 23:35:21,0,0,1.968504,,,1.9685368084,1.64042,0,0,0,0,0,8.191,2.2966208084,2.296588,0,0,0,0,0,307.4, 0, -0.9,0,0,1024,1024,1024,1024,0,0,0,0,307.3,0,0,83,4.099,4.087,0,0,0,0,4.229,91.94,1.9685368084,1.968504,6,P-GPS,
12700,2022-08-15 23:35:21,0,0,1.64042,,,1.6404528084,1.64042,0,0,0,0,0,8.191,2.2966208084,2.296588,0,0,0,0,0,307.3, 0.2, -0.2,0,0,1024,1024,1024,1024,0,0,0,0,307.3,0,0,83,4.099,4.087,0,0,0,0,4.229,91.94,1.6404528084,1.64042,6,P-GPS,
12800,2022-08-15 23:35:21,0,0,1.64042,,,1.6404528084,1.64042,0,0,0,0,0,8.191,2.2966208084,2.296588,0,0,0,0,0,307.2, 0.3, -0.3,0,0,1024,1024,1024,1024,0,0,0,0,307.3,0,0,83,4.099,4.087,0,0,0,0,4.229,91.94,1.6404528084,1.64042,6,P-GPS,
12900,2022-08-15 23:35:21,0,0,1.64042,,,1.6404528084,1.64042,0,0,0,0,0,8.191,2.2966208084,2.296588,0,0,0,0,0,307.2, 0, -0.5,0,0,1024,1024,1024,1024,0,0,0,0,307.3,0,0,83,4.099,4.087,0,0,0,0,4.229,91.94,1.6404528084,1.64042,6,P-GPS,
13000,2022-08-15 23:35:21,0,0,1.64042,,,1.6404528084,1.64042,0,0,0,0,0,8.191,2.2966208084,2.296588,0,0,0,0,0,307.2, 0.2, 0,0,0,1024,1024,1024,1024,0,0,0,0,307.3,0,0,83,4.099,4.087,0,0,0,0,4.229,91.94,1.6404528084,1.64042,6,P-GPS,
13100,2022-08-15 23:35:21,0,0,1.64042,,,1.6404528084,1.64042,0,0,0,0,0,8.191,2.2966208084,2.296588,0,0,0,0,0,307.2, 0.2, -0.1,0,0,1024,1024,1024,1024,0,0,0,0,307.3,0,0,83,4.099,4.087,0,0,0,0,4.229,91.94,1.6404528084,1.64042,6,P-GPS,
13200,2022-08-15 23:35:21,0,0,1.64042,,,1.6404528084,1.64042,0,0,0,0,0,8.191,2.2966208084,2.296588,0,0,0,0,0,307.2, 0, -0.6,0,0,1024,1024,1024,1024,0,0,0,0,307.3,0,0,83,4.099,4.087,0,0,0,0,4.229,91.94,1.6404528084,1.64042,6,P-GPS,
13300,2022-08-15 23:35:22,0,0,1.64042,,,1.6404528084,1.64042,0,0,0,0,0,8.191,2.2966208084,2.296588,0,0,0,0,0,307.2, 0, -0.3,0,0,1024,1024,1024,1024,0,0,0,0,307.3,0,0,83,4.099,4.087,0,0,0,0,4.229,91.94,1.6404528084,1.64042,6,P-GPS,
13400,2022-08-15 23:35:22,0,0,1.64042,,,1.6404528084,1.64042,0,0,0,0,0,8.191,2.2966208084,2.296588,0,0,0,0,0,307.2, 0, 0,0,0,1024,1024,1024,1024,0,0,0,0,307.3,0,0,83,4.099,4.087,0,0,0,0,4.229,91.94,1.6404528084,1.64042,6,P-GPS,
13500,2022-08-15 23:35:22,0,0,1.64042,,,1.6404528084,1.64042,0,0,0,0,0,8.184,2.2966208084,2.296588,0,0,0,0,0,307.3, 0.2, -0.2,0,0,1024,1024,1024,1024,0,0,0,0,307.3,0,0,83,4.097,4.086,0,0,0,0,4.307,91.94,1.6404528084,1.64042,6,P-GPS,
13600,2022-08-15 23:35:22,0,0,1.64042,,,1.6404528084,1.64042,0,0,0,0,0,8.184,2.2966208084,2.296588,0,0,0,0,0,307.3, 0.2, -0.4,0,0,1024,1024,1024,1024,0,0,0,0,307.3,0,0,83,4.097,4.086,0,0,0,0,4.307,91.94,1.6404528084,1.64042,6,P-GPS,
13700,2022-08-15 23:35:22,0,0,1.64042,,,1.6404528084,1.64042,0,0,0,0,0,8.184,2.2966208084,2.296588,0,0,0,0,0,307.4, -0.1, -0.1,0,0,1024,1024,1024,1024,0,0,0,0,307.3,0,0,83,4.097,4.086,0,0,0,0,4.307,91.94,1.6404528084,1.64042,6,P-GPS,
13800,2022-08-15 23:35:22,0,0,1.64042,,,1.6404528084,1.64042,0,0,0,0,0,8.184,2.2966208084,2.296588,0,0,0,0,0,307.4, -0.1, 0,0,0,1024,1024,1024,1024,0,0,0,0,307.3,0,0,83,4.097,4.086,0,0,0,0,4.307,91.94,1.6404528084,1.64042,6,P-GPS,
13900,2022-08-15 23:35:22,0,0,1.64042,,,1.6404528084,1.64042,0,0,0,0,0,8.184,2.2966208084,2.296588,0,0,0,0,0,307.3, -0.1, 0,0,0,1024,1024,1024,1024,0,0,0,0,307.3,0,0,83,4.097,4.086,0,0,0,0,4.307,91.94,1.6404528084,1.64042,6,P-GPS,
14000,2022-08-15 23:35:22,0,0,1.64042,,,1.6404528084,1.64042,0,0,0,0,0,8.184,2.2966208084,2.296588,0,0,0,0,0,307.3, 0, -0.3,0,0,1024,1024,1024,1024,0,0,0,0,307.3,0,0,83,4.097,4.086,0,0,0,0,4.307,91.94,1.6404528084,1.64042,6,P-GPS,
14100,2022-08-15 23:35:22,0,0,1.64042,,,1.6404528084,1.64042,0,0,0,0,0,8.184,2.2966208084,2.296588,0,0,0,0,0,307.3, 0, 0.1,0,0,1024,1024,1024,1024,0,0,0,0,307.3,0,0,83,4.097,4.086,0,0,0,0,4.307,91.94,1.6404528084,1.64042,6,P-GPS,
14200,2022-08-15 23:35:22,0,0,1.64042,,,1.6404528084,1.64042,0,0,0,0,0,8.184,2.2966208084,2.296588,0,0,0,0,0,307.2, 0.1, -0.2,0,0,1024,1024,1024,1024,0,0,0,0,307.3,0,0,83,4.097,4.086,0,0,0,0,4.307,91.94,1.6404528084,1.64042,6,P-GPS,
14300,2022-08-15 23:35:23,0,0,1.64042,,,1.6404528084,1.64042,0,0,0,0,0,8.184,2.2966208084,2.296588,0,0,0,0,0,307.2, 0.1, -0.5,0,0,1024,1024,1024,1024,0,0,0,0,307.3,0,0,83,4.097,4.086,0,0,0,0,4.307,91.94,1.6404528084,1.64042,6,P-GPS,
14400,2022-08-15 23:35:23,0,0,1.64042,,,1.6404528084,1.64042,0,0,0,0,0,8.184,2.2966208084,2.296588,0,0,0,0,0,307.1, 0.2, -0.2,0,0,1024,1024,1024,1024,0,0,0,0,307.3,0,0,83,4.097,4.086,0,0,0,0,4.307,91.94,1.6404528084,1.64042,6,P-GPS,
14500,2022-08-15 23:35:23,0,0,1.64042,,,1.6404528084,1.64042,0,0,0,0,0,8.181,2.2966208084,2.296588,0,0,0,0,0,307.1, 0.1, 0,0,0,1024,1024,1024,1024,0,0,0,0,307.3,0,0,83,4.095,4.083,0,0,0,0,4.263,91.94,1.6404528084,1.64042,6,P-GPS,
14600,2022-08-15 23:35:23,0,0,1.64042,,,1.6404528084,1.64042,0,0,0,0,0,8.181,2.2966208084,2.296588,0,0,0,0,0,307.2, -0.1, 0.1,0,0,1024,1024,1024,1024,0,0,0,0,307.3,0,0,83,4.095,4.083,0,0,0,0,4.263,91.94,1.6404528084,1.64042,6,P-GPS,
14700,2022-08-15 23:35:23,0,0,1.64042,,,1.6404528084,1.64042,0,0,0,0,0,8.181,2.2966208084,2.296588,0,0,0,0,0,307.2, -0.1, 0.1,0,0,1024,1024,1024,1024,0,0,0,0,307.3,0,0,83,4.095,4.083,0,0,0,0,4.263,91.94,1.6404528084,1.64042,6,P-GPS,
14800,2022-08-15 23:35:23,0,0,1.64042,,,1.6404528084,1.64042,0,0,0,0,0,8.181,2.2966208084,2.296588,0,0,0,0,0,307.3, 0.1, 0.5,0,0,1024,1024,1024,1024,0,0,0,0,307.3,0,0,83,4.095,4.083,0,0,0,0,4.263,91.94,1.6404528084,1.64042,6,P-GPS,
14900,2022-08-15 23:35:23,0,0,1.64042,,,1.6404528084,1.64042,0,0,0,0,0,8.181,2.2966208084,2.296588,0,0,0,0,0,307.3, 0.3, 0.5,0,0,1024,1024,1024,1024,0,0,0,0,307.3,0,0,83,4.095,4.083,0,0,0,0,4.263,91.94,1.6404528084,1.64042,6,P-GPS,
15000,2022-08-15 23:35:23,0,0,1.64042,,,1.6404528084,1.64042,0,0,0,0,0,8.181,2.2966208084,2.296588,0,0,0,0,0,307.2, 0.1, 0.6,0,0,1024,1024,1024,1024,0,0,0,0,307.3,0,0,83,4.095,4.083,0,0,0,0,4.263,91.94,1.6404528084,1.64042,6,P-GPS,
15100,2022-08-15 23:35:23,0,0,1.64042,,,1.6404528084,1.64042,0,0,0,0,0,8.181,2.2966208084,2.296588,0,0,0,0,0,307.2, 0, 0.6,0,0,1024,1024,1024,1024,0,0,0,0,307.3,0,0,83,4.095,4.083,0,0,0,0,4.263,91.94,1.6404528084,1.64042,6,P-GPS,
15200,2022-08-15 23:35:23,0,0,1.64042,,,1.6404528084,1.64042,0,0,0,0,0,8.181,2.2966208084,2.296588,0,0,0,0,0,307.2, 0.1, 0.6,0,0,1024,1024,1024,1024,0,0,0,0,307.3,0,0,83,4.095,4.083,0,0,0,0,4.263,91.94,1.6404528084,1.64042,6,P-GPS,
15300,2022-08-15 23:35:24,0,0,1.64042,,,1.6404528084,1.64042,0,0,0,0,0,8.181,2.2966208084,2.296588,0,0,0,0,0,307.2, 0.5, 0.4,0,0,1024,1024,1024,1024,0,0,0,0,307.3,0,0,83,4.095,4.083,0,0,0,0,4.263,91.94,1.6404528084,1.64042,6,P-GPS,
15400,2022-08-15 23:35:24,0,0,1.64042,,,1.6404528084,1.64042,0,0,0,0,0,8.181,2.2966208084,2.296588,0,0,0,0,0,307.2, 0.4, 0.4,0,0,1024,1024,1024,1024,0,0,0,0,307.3,0,0,83,4.095,4.083,0,0,0,0,4.263,91.94,1.6404528084,1.64042,6,P-GPS,
15500,2022-08-15 23:35:24,0,0,1.64042,,,1.6404528084,1.64042,0,0,0,0,0,8.18,2.2966208084,2.296588,0,0,0,0,0,307.1, 0.1, 0.4,0,0,1024,1024,1024,1024,0,0,0,0,307.3,0,0,83,4.094,4.082,0,0,0,0,4.259,92.12,1.6404528084,1.64042,6,P-GPS,
15600,2022-08-15 23:35:24,0,0,1.64042,,,1.6404528084,1.64042,0,0,0,0,0,8.18,2.2966208084,2.296588,0,0,0,0,0,307.2, 0, 0.2,0,0,1024,1024,1024,1024,0,0,0,0,307.3,0,0,83,4.094,4.082,0,0,0,0,4.259,92.12,1.6404528084,1.64042,6,P-GPS,
15700,2022-08-15 23:35:24,0,0,1.64042,,,1.6404528084,1.64042,0,0,0,0,0,8.18,2.2966208084,2.296588,0,0,0,0,0,307.2, 0.3, 0,0,0,1024,1024,1024,1024,0,0,0,0,307.3,0,0,83,4.094,4.082,0,0,0,0,4.259,92.12,1.6404528084,1.64042,6,P-GPS,
15800,2022-08-15 23:35:24,0,0,1.64042,,,1.6404528084,1.64042,0,0,0,0,0,8.18,2.2966208084,2.296588,0,0,0,0,0,307.2, 0.5, 0.2,0,0,1024,1024,1024,1024,0,0,0,0,307.3,0,0,83,4.094,4.082,0,0,0,0,4.259,92.12,1.6404528084,1.64042,6,P-GPS,
15900,2022-08-15 23:35:24,0,0,1.312336,,,1.3123688084,1.64042,0,0,0,0,0,8.18,2.2966208084,2.296588,0,0,0,0,0,307.3, 0.4, 0.6,0,0,1024,1024,1024,1024,0,0,0,0,307.3,0,0,83,4.094,4.082,0,0,0,0,4.259,92.12,1.3123688084,1.312336,6,P-GPS,
16000,2022-08-15 23:35:24,0,0,1.312336,,,1.3123688084,1.64042,0,0,0,0,0,8.18,2.2966208084,2.296588,0,0,0,0,0,307.3, 0.4, 0.3,0,0,1024,1024,1024,1024,0,0,0,0,307.3,0,0,83,4.094,4.082,0,0,0,0,4.259,92.12,1.3123688084,1.312336,6,P-GPS,
16100,2022-08-15 23:35:24,0,0,1.312336,,,1.3123688084,1.64042,0,0,0,0,0,8.18,2.2966208084,2.296588,0,0,0,0,0,307.3, 0, -0.2,0,0,1024,1024,1024,1024,0,0,0,0,307.3,0,0,83,4.094,4.082,0,0,0,0,4.259,92.12,1.3123688084,1.312336,6,P-GPS,
16200,2022-08-15 23:35:24,0,0,1.312336,,,1.3123688084,1.64042,0,0,0,0,0,8.18,2.2966208084,2.296588,0,0,0,0,0,307.3, 0, -0.1,0,0,1024,1024,1024,1024,0,0,0,0,307.3,0,0,83,4.094,4.082,0,0,0,0,4.259,92.12,1.3123688084,1.312336,6,P-GPS,
16300,2022-08-15 23:35:25,0,0,1.312336,,,1.3123688084,1.64042,0,0,0,0,0,8.18,2.2966208084,2.296588,0,0,0,0,0,307.3, 0.2, -0.2,0,0,1024,1024,1024,1024,0,0,0,0,307.3,0,0,83,4.094,4.082,0,0,0,0,4.259,92.12,1.3123688084,1.312336,6,P-GPS,
16400,2022-08-15 23:35:25,0,0,1.312336,,,1.3123688084,1.64042,0,0,0,0,0,8.18,2.2966208084,2.296588,0,0,0,0,0,307.4, 0.2, -0.3,0,0,1024,1024,1024,1024,0,0,0,0,307.3,0,0,83,4.094,4.082,0,0,0,0,4.259,92.12,1.3123688084,1.312336,6,P-GPS,
16500,2022-08-15 23:35:25,0,0,1.312336,,,1.3123688084,1.64042,0,0,0,0,0,8.174,2.2966208084,2.296588,0,0,0,0,0,307.4, 0.2, -0.5,0,0,1024,1024,1024,1024,0,0,0,0,307.3,0,0,83,4.092,4.081,0,0,0,0,4.244,92.12,1.3123688084,1.312336,6,P-GPS,
16600,2022-08-15 23:35:25,0,0,1.312336,,,1.3123688084,1.64042,0,0,0,0,0,8.174,2.2966208084,2.296588,0,0,0,0,0,307.3, 0.3, -0.2,0,0,1024,1024,1024,1024,0,0,0,0,307.3,0,0,83,4.092,4.081,0,0,0,0,4.244,92.12,1.3123688084,1.312336,6,P-GPS,
16700,2022-08-15 23:35:25,0,0,1.312336,,,1.3123688084,1.64042,0,0,0,0,0,8.174,2.2966208084,2.296588,0,0,0,0,0,307.3, 0.3, 0.1,0,0,1024,1024,1024,1024,0,0,0,0,307.3,0,0,83,4.092,4.081,0,0,0,0,4.244,92.12,1.3123688084,1.312336,6,P-GPS,
16800,2022-08-15 23:35:25,0,0,1.312336,,,1.3123688084,1.64042,0,0,0,0,0,8.174,2.2966208084,2.296588,0,0,0,0,0,307.3, 0.3, 0.2,0,0,1024,1024,1024,1024,0,0,0,0,307.3,0,0,83,4.092,4.081,0,0,0,0,4.244,92.12,1.3123688084,1.312336,6,P-GPS,
16900,2022-08-15 23:35:25,0,0,1.312336,,,1.3123688084,1.64042,0,0,0,0,0,8.174,2.2966208084,2.296588,0,0,0,0,0,307.3, 0.2, 0.7,0,0,1024,1024,1024,1024,0,0,0,0,307.3,0,0,83,4.092,4.081,0,0,0,0,4.244,92.12,1.3123688084,1.312336,6,P-GPS,
17000,2022-08-15 23:35:25,0,0,1.312336,,,1.3123688084,1.64042,0,0,0,0,0,8.174,2.2966208084,2.296588,0,0,0,0,0,307.2, 0.2, 0.8,0,0,1024,1024,1024,1024,0,0,0,0,307.3,0,0,83,4.092,4.081,0,0,0,0,4.244,92.12,1.3123688084,1.312336,6,P-GPS,
17100,2022-08-15 23:35:25,0,0,1.312336,,,1.3123688084,1.64042,0,0,0,0,0,8.174,2.2966208084,2.296588,0,0,0,0,0,307.2, 0.2, 0.6,0,0,1024,1024,1024,1024,0,0,0,0,307.3,0,0,83,4.092,4.081,0,0,0,0,4.244,92.12,1.3123688084,1.312336,6,P-GPS,
17200,2022-08-15 23:35:25,0,0,1.312336,,,1.3123688084,1.64042,0,0,0,0,0,8.174,2.2966208084,2.296588,0,0,0,0,0,307.3, 0, 0.3,0,0,1024,1024,1024,1024,0,0,0,0,307.3,0,0,83,4.092,4.081,0,0,0,0,4.244,92.12,1.3123688084,1.312336,6,P-GPS,
17300,2022-08-15 23:35:26,0,0,1.312336,,,1.3123688084,1.64042,0,0,0,0,0,8.174,2.2966208084,2.296588,0,0,0,0,0,307.3, 0.1, 0,0,0,1024,1024,1024,1024,0,0,0,0,307.3,0,0,83,4.092,4.081,0,0,0,0,4.244,92.12,1.3123688084,1.312336,6,P-GPS,
17400,2022-08-15 23:35:26,0,0,1.312336,,,1.3123688084,1.64042,0,0,0,0,0,8.174,2.2966208084,2.296588,0,0,0,0,0,307.3, 0.1, -0.2,0,0,1024,1024,1024,1024,0,0,0,0,307.3,0,0,83,4.092,4.081,0,0,0,0,4.244,92.12,1.3123688084,1.312336,6,P-GPS,
17500,2022-08-15 23:35:26,0,0,1.312336,,,1.3123688084,1.64042,0,0,0,0,0,8.174,2.2966208084,2.296588,0,0,0,0,0,307.3, 0.3, 0.3,0,0,1024,1024,1024,1024,0,0,0,0,307.3,0,0,83,4.091,4.079,0,0,0,0,4.244,92.12,1.3123688084,1.312336,6,P-GPS,
17600,2022-08-15 23:35:26,0,0,1.312336,,,1.3123688084,1.64042,0,0,0,0,0,8.174,2.2966208084,2.296588,0,0,0,0,0,307.4, 0.2, 0,0,0,1024,1024,1024,1024,0,0,0,0,307.3,0,0,83,4.091,4.079,0,0,0,0,4.244,92.12,1.3123688084,1.312336,6,P-GPS,
17700,2022-08-15 23:35:26,0,0,1.312336,,,1.3123688084,1.64042,0,0,0,0,0,8.174,2.2966208084,2.296588,0,0,0,0,0,307.3, 0, -0.2,0,0,1024,1024,1024,1024,0,0,0,0,307.3,0,0,83,4.091,4.079,0,0,0,0,4.244,92.12,1.3123688084,1.312336,6,P-GPS,
17800,2022-08-15 23:35:26,0,0,1.312336,,,1.3123688084,1.64042,0,0,0,0,0,8.174,2.2966208084,2.296588,0,0,0,0,0,307.3, 0, -0.1,0,0,1024,1024,1024,1024,0,0,0,0,307.3,0,0,83,4.091,4.079,0,0,0,0,4.244,92.12,1.3123688084,1.312336,6,P-GPS,
17900,2022-08-15 23:35:26,0,0,1.312336,,,1.3123688084,1.64042,0,0,0,0,0,8.174,2.2966208084,2.296588,0,0,0,0,0,307.3, 0.3, 0.1,0,0,1024,1024,1024,1024,0,0,0,0,307.3,0,0,83,4.091,4.079,0,0,0,0,4.244,92.12,1.3123688084,1.312336,6,P-GPS,
18000,2022-08-15 23:35:26,0,0,1.312336,,,1.3123688084,1.64042,0,0,0,0,0,8.174,2.2966208084,2.296588,0,0,0,0,0,307.3, 0.4, 0.2,0,0,1024,1024,1024,1024,0,0,0,0,307.3,0,0,83,4.091,4.079,0,0,0,0,4.244,92.12,1.3123688084,1.312336,6,P-GPS,
18100,2022-08-15 23:35:26,0,0,1.312336,,,1.3123688084,1.64042,0,0,0,0,0,8.174,2.2966208084,2.296588,0,0,0,0,0,307.3, 0.1, 0.1,0,0,1024,1024,1024,1024,0,0,0,0,307.3,0,0,83,4.091,4.079,0,0,0,0,4.244,92.12,1.3123688084,1.312336,6,P-GPS,
18200,2022-08-15 23:35:26,0,0,1.312336,,,1.3123688084,1.64042,0,0,0,0,0,8.174,2.2966208084,2.296588,0,0,0,0,0,307.3, -0.2, 0.1,0,0,1024,1024,1024,1024,0,0,0,0,307.3,0,0,83,4.091,4.079,0,0,0,0,4.244,92.12,1.3123688084,1.312336,6,P-GPS,
18300,2022-08-15 23:35:27,0,0,1.312336,,,1.3123688084,1.64042,0,0,0,0,0,8.174,2.2966208084,2.296588,0,0,0,0,0,307.3, -0.3, 0.3,0,0,1024,1024,1024,1024,0,0,0,0,307.3,0,0,83,4.091,4.079,0,0,0,0,4.244,92.12,1.3123688084,1.312336,6,P-GPS,
18400,2022-08-15 23:35:27,0,0,1.312336,,,1.3123688084,1.64042,0,0,0,0,0,8.174,2.2966208084,2.296588,0,0,0,0,0,307.4, -0.3, 0.1,0,0,1024,1024,1024,1024,0,0,0,0,307.3,0,0,83,4.091,4.079,0,0,0,0,4.244,92.12,1.3123688084,1.312336,6,P-GPS,
18500,2022-08-15 23:35:27,0,0,1.312336,,,1.3123688084,1.64042,0,0,0,0,0,8.174,2.2966208084,2.296588,0,0,0,0,0,307.5, 0, 0,0,0,1024,1024,1024,1024,0,0,0,0,307.3,0,0,83,4.091,4.079,0,0,0,0,4.244,92.12,1.3123688084,1.312336,6,P-GPS,
18600,2022-08-15 23:35:27,0,0,1.312336,,,1.3123688084,1.64042,0,0,0,0,0,8.167,2.2966208084,2.296588,0,0,0,0,0,307.4, 0.1, 0,0,0,1024,1024,1024,1024,0,0,0,0,307.3,0,0,83,4.088,4.076,0,0,0,0,4.285,92.12,1.3123688084,1.312336,6,P-GPS,
18700,2022-08-15 23:35:27,0,0,1.312336,,,1.3123688084,1.64042,0,0,0,0,0,8.167,2.2966208084,2.296588,0,0,0,0,0,307.5, 0, 0.3,0,0,1024,1024,1024,1024,0,0,0,0,307.3,0,0,83,4.088,4.076,0,0,0,0,4.285,92.12,1.3123688084,1.312336,6,P-GPS,
18800,2022-08-15 23:35:27,0,0,1.312336,,,1.3123688084,1.64042,0,0,0,0,0,8.167,2.2966208084,2.296588,0,0,0,0,0,307.4, 0, 0.4,0,0,1024,1024,1024,1024,0,0,0,0,307.3,0,0,83,4.088,4.076,0,0,0,0,4.285,92.12,1.3123688084,1.312336,6,P-GPS,
18900,2022-08-15 23:35:27,0,0,1.312336,,,1.3123688084,1.64042,0,0,0,0,0,8.167,2.2966208084,2.296588,0,0,0,0,0,307.3, 0, 0.3,0,0,1024,1024,1024,1024,0,0,0,0,307.3,0,0,83,4.088,4.076,0,0,0,0,4.285,92.12,1.3123688084,1.312336,6,P-GPS,
19000,2022-08-15 23:35:27,0,0,1.312336,,,1.3123688084,1.64042,0,0,0,0,0,8.167,2.2966208084,2.296588,0,0,0,0,0,307.3, 0.2, 0.4,0,0,1024,1024,1024,1024,0,0,0,0,307.3,0,0,83,4.088,4.076,0,0,0,0,4.285,92.12,1.3123688084,1.312336,6,P-GPS,
19100,2022-08-15 23:35:27,0,0,1.312336,,,1.3123688084,1.64042,0,0,0,0,0,8.167,2.2966208084,2.296588,0,0,0,0,0,307.3, 0.2, 0.5,0,0,1024,1024,1024,1024,0,0,0,0,307.3,0,0,83,4.088,4.076,0,0,0,0,4.285,92.12,1.3123688084,1.312336,6,P-GPS,
19200,2022-08-15 23:35:27,0,0,0.984252,,,0.9842848084,1.64042,0,0,0,0,0,8.167,2.2966208084,2.296588,0,0,0,0,0,307.3, 0.2, 0.6,0,0,1024,1024,1024,1024,0,0,0,0,307.3,0,0,83,4.088,4.076,0,0,0,0,4.285,92.12,0.9842848084,0.984252,6,P-GPS,
19300,2022-08-15 23:35:28,0,0,0.984252,,,0.9842848084,1.64042,0,0,0,0,0,8.167,2.2966208084,2.296588,0,0,0,0,0,307.3, 0.3, 0.1,0,0,1024,1024,1024,1024,0,0,0,0,307.3,0,0,83,4.088,4.076,0,0,0,0,4.285,92.12,0.9842848084,0.984252,6,P-GPS,
19400,2022-08-15 23:35:28,0,0,0.984252,,,0.9842848084,1.64042,0,0,0,0,0,8.167,2.2966208084,2.296588,0,0,0,0,0,307.2, 0.4, -0.1,0,0,1024,1024,1024,1024,0,0,0,0,307.3,0,0,83,4.088,4.076,0,0,0,0,4.285,92.12,0.9842848084,0.984252,6,P-GPS,
19500,2022-08-15 23:35:28,0,0,0.984252,,,0.9842848084,1.64042,0,0,0,0,0,8.167,2.2966208084,2.296588,0,0,0,0,0,307.2, 0.3, 0,0,0,1024,1024,1024,1024,0,0,0,0,307.3,0,0,83,4.088,4.076,0,0,0,0,4.285,92.12,0.9842848084,0.984252,6,P-GPS,
19600,2022-08-15 23:35:28,0,0,0.984252,,,0.9842848084,1.64042,0,0,0,0,0,8.164,2.2966208084,2.296588,0,0,0,0,0,307.3, 0.3, -0.1,0,0,1024,1024,1024,1024,0,0,0,0,307.3,0,0,82,4.088,4.075,0,0,0,0,4.275,92.12,0.9842848084,0.984252,6,P-GPS,
19700,2022-08-15 23:35:28,0,0,0.984252,,,0.9842848084,1.64042,0,0,0,0,0,8.164,2.2966208084,2.296588,0,0,0,0,0,307.2, 0.1, 0.2,0,0,1024,1024,1024,1024,0,0,0,0,307.3,0,0,82,4.088,4.075,0,0,0,0,4.275,92.12,0.9842848084,0.984252,6,P-GPS,
19800,2022-08-15 23:35:28,0,0,0.984252,,,0.9842848084,1.64042,0,0,0,0,0,8.164,2.2966208084,2.296588,0,0,0,0,0,307.2, 0, 0.1,0,0,1024,1024,1024,1024,0,0,0,0,307.3,0,0,82,4.088,4.075,0,0,0,0,4.275,92.12,0.9842848084,0.984252,6,P-GPS,
19900,2022-08-15 23:35:28,0,0,0.984252,,,0.9842848084,1.64042,0,0,0,0,0,8.164,2.2966208084,2.296588,0,0,0,0,0,307.2, 0, -0.3,0,0,1024,1024,1024,1024,0,0,0,0,307.3,0,0,82,4.088,4.075,0,0,0,0,4.275,92.12,0.9842848084,0.984252,6,P-GPS,
20000,2022-08-15 23:35:28,0,0,0.984252,,,0.9842848084,1.64042,0,0,0,0,0,8.164,2.2966208084,2.296588,0,0,0,0,0,307.3, -0.1, -0.2,0,0,1024,1024,1024,1024,0,0,0,0,307.3,0,0,82,4.088,4.075,0,0,0,0,4.275,92.12,0.9842848084,0.984252,6,P-GPS,
20100,2022-08-15 23:35:28,0,0,0.984252,,,0.9842848084,1.64042,0,0,0,0,0,8.164,2.2966208084,2.296588,0,0,0,0,0,307.3, 0, -0.1,0,0,1024,1024,1024,1024,0,0,0,0,307.3,0,0,82,4.088,4.075,0,0,0,0,4.275,92.12,0.9842848084,0.984252,6,P-GPS,
20200,2022-08-15 23:35:28,0,0,0.984252,,,0.9842848084,1.64042,0,0,0,0,0,8.164,2.2966208084,2.296588,0,0,0,0,0,307.3, -0.2, 0.1,0,0,1024,1024,1024,1024,0,0,0,0,307.3,0,0,82,4.088,4.075,0,0,0,0,4.275,92.12,0.9842848084,0.984252,6,P-GPS,
20300,2022-08-15 23:35:29,0,0,0.984252,,,0.9842848084,1.64042,0,0,0,0,0,8.164,2.2966208084,2.296588,0,0,0,0,0,307.3, 0, -0.3,0,0,1024,1024,1024,1024,0,0,0,0,307.3,0,0,82,4.088,4.075,0,0,0,0,4.275,92.12,0.9842848084,0.984252,6,P-GPS,
20400,2022-08-15 23:35:29,0,0,0.984252,,,0.9842848084,1.64042,0,0,0,0,0,8.164,2.2966208084,2.296588,0,0,0,0,0,307.2, 0.3, 0,0,0,1024,1024,1024,1024,0,0,0,0,307.3,0,0,82,4.088,4.075,0,0,0,0,4.275,92.12,0.9842848084,0.984252,6,P-GPS,
20500,2022-08-15 23:35:29,0,0,0.984252,,,0.9842848084,1.64042,0,0,0,0,0,8.164,2.2966208084,2.296588,0,0,0,0,0,307.2, 0.4, 0.3,0,0,1024,1024,1024,1024,0,0,0,0,307.3,0,0,82,4.088,4.075,0,0,0,0,4.275,92.12,0.9842848084,0.984252,6,P-GPS,
20600,2022-08-15 23:35:29,0,0,0.656168,,,0.6562008084,1.64042,0,0,0,0,0,8.164,2.2966208084,2.296588,0,0,0,0,0,307.1, 0.1, 0.1,0,0,1024,1024,1024,1024,0,0,0,0,307.3,0,0,82,4.088,4.075,0,0,0,0,4.275,92.12,0.6562008084,0.656168,6,P-GPS,
20700,2022-08-15 23:35:29,0,0,0.656168,,,0.6562008084,1.64042,0,0,0,0,0,8.164,2.2966208084,2.296588,0,0,0,0,0,307.1, 0.1, 0.1,0,0,1024,1024,1024,1024,0,0,0,0,307.3,0,0,82,4.088,4.075,0,0,0,0,4.275,92.12,0.6562008084,0.656168,6,P-GPS,
20800,2022-08-15 23:35:29,0,0,0.656168,,,0.6562008084,1.64042,0,0,0,0,0,8.161,2.2966208084,2.296588,0,0,0,0,0,307.2, 0.2, -0.3,0,0,1024,1024,1024,1024,0,0,0,0,307.3,0,0,82,4.086,4.073,0,0,0,0,4.265,92.3,0.6562008084,0.656168,6,P-GPS,
20900,2022-08-15 23:35:29,0,0,0.656168,,,0.6562008084,1.64042,0,0,0,0,0,8.161,2.2966208084,2.296588,0,0,0,0,0,307.3, 0, -0.3,0,0,1024,1024,1024,1024,0,0,0,0,307.3,0,0,82,4.086,4.073,0,0,0,0,4.265,92.3,0.6562008084,0.656168,6,P-GPS,
21000,2022-08-15 23:35:29,0,0,0.656168,,,0.6562008084,1.64042,0,0,0,0,0,8.161,2.2966208084,2.296588,0,0,0,0,0,307.3, 0, -0.3,0,0,1024,1024,1024,1024,0,0,0,0,307.3,0,0,82,4.086,4.073,0,0,0,0,4.265,92.3,0.6562008084,0.656168,6,P-GPS,
21100,2022-08-15 23:35:29,0,0,0.656168,,,0.6562008084,1.64042,0,0,0,0,0,8.161,2.2966208084,2.296588,0,0,0,0,0,307.4, 0, -0.1,0,0,1024,1024,1024,1024,0,0,0,0,307.3,0,0,82,4.086,4.073,0,0,0,0,4.265,92.3,0.6562008084,0.656168,6,P-GPS,
21200,2022-08-15 23:35:29,0,0,0.656168,,,0.6562008084,1.64042,0,0,0,0,0,8.161,2.2966208084,2.296588,0,0,0,0,0,307.4, 0.2, 0,0,0,1024,1024,1024,1024,0,0,0,0,307.3,0,0,82,4.086,4.073,0,0,0,0,4.265,92.3,0.6562008084,0.656168,6,P-GPS,
21300,2022-08-15 23:35:30,0,0,0.656168,,,0.6562008084,1.64042,0,0,0,0,0,8.161,2.2966208084,2.296588,0,0,0,0,0,307.4, 0, -0.1,0,0,1024,1024,1024,1024,0,0,0,0,307.3,0,0,82,4.086,4.073,0,0,0,0,4.265,92.3,0.6562008084,0.656168,6,P-GPS,
21400,2022-08-15 23:35:30,0,0,0.656168,,,0.6562008084,1.64042,0,0,0,0,0,8.161,2.2966208084,2.296588,0,0,0,0,0,307.3, -0.1, -0.3,0,0,1024,1024,1024,1024,0,0,0,0,307.3,0,0,82,4.086,4.073,0,0,0,0,4.265,92.3,0.6562008084,0.656168,6,P-GPS,
21500,2022-08-15 23:35:30,0,0,0.656168,,,0.6562008084,1.64042,0,0,0,0,0,8.161,2.2966208084,2.296588,0,0,0,0,0,307.3, 0.1, -0.2,0,0,1024,1024,1024,1024,0,0,0,0,307.3,0,0,82,4.086,4.073,0,0,0,0,4.265,92.3,0.6562008084,0.656168,6,P-GPS,
21600,2022-08-15 23:35:30,0,0,0.656168,,,0.6562008084,1.64042,0,0,0,0,0,8.161,2.2966208084,2.296588,0,0,0,0,0,307.3, 0.2, 0.4,0,0,1024,1024,1024,1024,0,0,0,0,307.3,0,0,82,4.086,4.073,0,0,0,0,4.265,92.3,0.6562008084,0.656168,6,P-GPS,
21700,2022-08-15 23:35:30,0,0,0.656168,,,0.6562008084,1.64042,0,0,0,0,0,8.161,2.2966208084,2.296588,0,0,0,0,0,307.3, 0.3, 0.3,0,0,1024,1024,1024,1024,0,0,0,0,307.3,0,0,82,4.086,4.073,0,0,0,0,4.265,92.3,0.6562008084,0.656168,6,P-GPS,
21800,2022-08-15 23:35:30,0,0,0.656168,,,0.6562008084,1.64042,0,0,0,0,0,8.156,2.2966208084,2.296588,0,0,0,0,0,307.2, 0.2, 0.1,0,0,1024,1024,1024,1024,0,0,0,0,307.3,0,0,82,4.085,4.073,0,0,0,0,4.314,92.3,0.6562008084,0.656168,6,P-GPS,
21900,2022-08-15 23:35:30,0,0,0.656168,,,0.6562008084,1.64042,0,0,0,0,0,8.156,2.2966208084,2.296588,0,0,0,0,0,307.3, 0.2, 0.7,0,0,1024,1024,1024,1024,0,0,0,0,307.3,0,0,82,4.085,4.073,0,0,0,0,4.314,92.3,0.6562008084,0.656168,6,P-GPS,
22000,2022-08-15 23:35:30,0,0,0.656168,,,0.6562008084,1.64042,0,0,0,0,0,8.156,2.2966208084,2.296588,0,0,0,0,0,307.3, 0.3, 0.4,0,0,1024,1024,1024,1024,0,0,0,0,307.3,0,0,82,4.085,4.073,0,0,0,0,4.314,92.3,0.6562008084,0.656168,6,P-GPS,
22100,2022-08-15 23:35:30,0,0,0.656168,,,0.6562008084,1.64042,0,0,0,0,0,8.156,2.2966208084,2.296588,0,0,0,0,0,307.2, 0.3, 0.3,0,0,1024,1024,1024,1024,0,0,0,0,307.3,0,0,82,4.085,4.073,0,0,0,0,4.314,92.3,0.6562008084,0.656168,6,P-GPS,
22200,2022-08-15 23:35:30,0,0,0.656168,,,0.6562008084,1.64042,0,0,0,0,0,8.156,2.2966208084,2.296588,0,0,0,0,0,307.2, 0.3, 0.6,0,0,1024,1024,1024,1024,0,0,0,0,307.3,0,0,82,4.085,4.073,0,0,0,0,4.314,92.3,0.6562008084,0.656168,6,P-GPS,
22300,2022-08-15 23:35:31,0,0,0.656168,,,0.6562008084,1.64042,0,0,0,0,0,8.156,2.2966208084,2.296588,0,0,0,0,0,307.2, 0.1, 0,0,0,1024,1024,1024,1024,0,0,0,0,307.3,0,0,82,4.085,4.073,0,0,0,0,4.314,92.3,0.6562008084,0.656168,6,P-GPS,
22400,2022-08-15 23:35:31,0,0,0.656168,,,0.6562008084,1.64042,0,0,0,0,0,8.156,2.2966208084,2.296588,0,0,0,0,0,307.2, 0.1, -0.1,0,0,1024,1024,1024,1024,0,0,0,0,307.3,0,0,82,4.085,4.073,0,0,0,0,4.314,92.3,0.6562008084,0.656168,6,P-GPS,
22500,2022-08-15 23:35:31,0,0,0.656168,,,0.6562008084,1.64042,0,0,0,0,0,8.156,2.2966208084,2.296588,0,0,0,0,0,307.1, 0.4, 0,0,0,1024,1024,1024,1024,0,0,0,0,307.3,0,0,82,4.085,4.073,0,0,0,0,4.314,92.3,0.6562008084,0.656168,6,P-GPS,
22600,2022-08-15 23:35:31,0,0,0.656168,,,0.6562008084,1.64042,0,0,0,0,0,8.156,2.2966208084,2.296588,0,0,0,0,0,307.2, 0.3, 0.1,0,0,1024,1024,1024,1024,0,0,0,0,307.3,0,0,82,4.085,4.073,0,0,0,0,4.314,92.3,0.6562008084,0.656168,6,P-GPS,
22700,2022-08-15 23:35:31,0,0,0.656168,,,0.6562008084,1.64042,0,0,0,0,0,8.156,2.2966208084,2.296588,0,0,0,0,0,307.2, 0.1, 0.1,0,0,1024,1024,1024,1024,0,0,0,0,307.3,0,0,82,4.085,4.073,0,0,0,0,4.314,92.3,0.6562008084,0.656168,6,P-GPS,
22800,2022-08-15 23:35:31,0,0,0.656168,,,0.6562008084,1.64042,0,0,0,0,0,8.156,2.2966208084,2.296588,0,0,0,0,0,307.1, 0.1, 0.4,0,0,1024,1024,1024,1024,0,0,0,0,307.3,0,0,82,4.082,4.07,0,0,0,0,4.265,92.3,0.6562008084,0.656168,6,P-GPS,
22900,2022-08-15 23:35:31,0,0,0.984252,,,0.9842848084,1.64042,0,0,0,0,0,8.156,2.2966208084,2.296588,0,0,0,0,0,307.2, 0.1, 0.2,0,0,1024,1024,1024,1024,0,0,0,0,307.3,0,0,82,4.082,4.07,0,0,0,0,4.265,92.3,0.9842848084,0.984252,6,P-GPS,
23000,2022-08-15 23:35:31,0,0,0.984252,,,0.9842848084,1.64042,0,0,0,0,0,8.156,2.2966208084,2.296588,0,0,0,0,0,307.2, 0.3, 0.2,0,0,1024,1024,1024,1024,0,0,0,0,307.3,0,0,82,4.082,4.07,0,0,0,0,4.265,92.3,0.9842848084,0.984252,6,P-GPS,
23100,2022-08-15 23:35:31,0,0,0.984252,,,0.9842848084,1.64042,0,0,0,0,0,8.156,2.2966208084,2.296588,0,0,0,0,0,307.3, 0.2, -0.1,0,0,1024,1024,1024,1024,0,0,0,0,307.3,0,0,82,4.082,4.07,0,0,0,0,4.265,92.3,0.9842848084,0.984252,6,P-GPS,
23200,2022-08-15 23:35:31,0,0,0.984252,,,0.9842848084,1.64042,0,0,0,0,0,8.156,2.2966208084,2.296588,0,0,0,0,0,307.3, 0, -0.7,0,0,1024,1024,1024,1024,0,0,0,0,307.3,0,0,82,4.082,4.07,0,0,0,0,4.265,92.3,0.9842848084,0.984252,6,P-GPS,
23300,2022-08-15 23:35:32,0,0,0.984252,,,0.9842848084,1.64042,0,0,0,0,0,8.156,2.2966208084,2.296588,0,0,0,0,0,307.3, 0, -0.6,0,0,1024,1024,1024,1024,0,0,0,0,307.3,0,0,82,4.082,4.07,0,0,0,0,4.265,92.3,0.9842848084,0.984252,6,P-GPS,
23400,2022-08-15 23:35:32,0,0,0.984252,,,0.9842848084,1.64042,0,0,0,0,0,8.156,2.2966208084,2.296588,0,0,0,0,0,307.3, 0.3, -0.2,0,0,1024,1024,1024,1024,0,0,0,0,307.3,0,0,82,4.082,4.07,0,0,0,0,4.265,92.3,0.9842848084,0.984252,6,P-GPS,
23500,2022-08-15 23:35:32,0,0,0.984252,,,0.9842848084,1.64042,0,0,0,0,0,8.156,2.2966208084,2.296588,0,0,0,0,0,307.3, 0.3, 0,0,0,1024,1024,1024,1024,0,0,0,0,307.3,0,0,82,4.082,4.07,0,0,0,0,4.265,92.3,0.9842848084,0.984252,6,P-GPS,
23600,2022-08-15 23:35:32,0,0,0.984252,,,0.9842848084,1.64042,0,0,0,0,0,8.156,2.2966208084,2.296588,0,0,0,0,0,307.3, 0.2, 0.1,0,0,1024,1024,1024,1024,0,0,0,0,307.3,0,0,82,4.082,4.07,0,0,0,0,4.265,92.3,0.9842848084,0.984252,6,P-GPS,
23700,2022-08-15 23:35:32,0,0,1.312336,,,1.3123688084,1.64042,0,0,0,0,0,8.156,2.2966208084,2.296588,0,0,0,0,0,307.3, 0.3, 0.1,0,0,1024,1024,1024,1024,0,0,0,0,307.3,0,0,82,4.082,4.07,0,0,0,0,4.265,92.3,1.3123688084,1.312336,6,P-GPS,
23800,2022-08-15 23:35:32,0,0,1.312336,,,1.3123688084,1.64042,0,0,0,0,0,8.151,2.2966208084,2.296588,0,0,0,0,0,307.4, 0.1, 0,0,0,1024,1024,1024,1024,0,0,0,0,307.3,0,0,82,4.083,4.07,0,0,0,0,4.313,92.3,1.3123688084,1.312336,6,P-GPS,
23900,2022-08-15 23:35:32,0,0,1.312336,,,1.3123688084,1.64042,0,0,0,0,0,8.151,2.2966208084,2.296588,0,0,0,0,0,307.4, 0.4, 0.5,0,0,1024,1024,1024,1024,0,0,0,0,307.3,0,0,82,4.083,4.07,0,0,0,0,4.313,92.3,1.3123688084,1.312336,6,P-GPS,
24000,2022-08-15 23:35:32,0,0,1.312336,,,1.3123688084,1.64042,0,0,0,0,0,8.151,2.2966208084,2.296588,0,0,0,0,0,307.4, 0.3, 1.2,0,0,1024,1024,1024,1024,0,0,0,0,307.3,0,0,82,4.083,4.07,0,0,0,0,4.313,92.3,1.3123688084,1.312336,6,P-GPS,
24100,2022-08-15 23:35:32,0,0,1.312336,,,1.3123688084,1.64042,0,0,0,0,0,8.151,2.2966208084,2.296588,0,0,0,0,0,307.4, -0.2, 0.6,0,0,1024,1024,1024,1024,0,0,0,0,307.3,0,0,82,4.083,4.07,0,0,0,0,4.313,92.3,1.3123688084,1.312336,6,P-GPS,
24200,2022-08-15 23:35:32,0,0,1.312336,,,1.3123688084,1.64042,0,0,0,0,0,8.151,2.2966208084,2.296588,0,0,0,0,0,307.4, -0.7, 0.7,0,0,1024,1024,1024,1024,0,0,0,0,307.3,0,0,82,4.083,4.07,0,0,0,0,4.313,92.3,1.3123688084,1.312336,6,P-GPS,
24300,2022-08-15 23:35:33,0,0,1.312336,,,1.3123688084,1.64042,0,0,0,0,0,8.151,2.2966208084,2.296588,0,0,0,0,0,307.4, -0.3, 0.4,0,0,1024,1024,1024,1024,0,0,0,0,307.3,0,0,82,4.083,4.07,0,0,0,0,4.313,92.3,1.3123688084,1.312336,6,P-GPS,
24400,2022-08-15 23:35:33,0,0,1.312336,,,1.3123688084,1.64042,0,0,0,0,0,8.151,2.2966208084,2.296588,0,0,0,0,0,307.5, 0.2, 0.4,0,0,1024,1024,1024,1024,0,0,0,0,307.3,0,0,82,4.083,4.07,0,0,0,0,4.313,92.3,1.3123688084,1.312336,6,P-GPS,
24500,2022-08-15 23:35:33,0,0,1.64042,,,1.6404528084,1.64042,0,0,0,0,0,8.151,2.2966208084,2.296588,0,0,0,0,0,307.5, 0.3, 0.2,0,0,1024,1024,1024,1024,0,0,0,0,307.3,0,0,82,4.083,4.07,0,0,0,0,4.313,92.3,1.6404528084,1.64042,6,P-GPS,
24600,2022-08-15 23:35:33,0,0,1.64042,,,1.6404528084,1.64042,0,0,0,0,0,8.151,2.2966208084,2.296588,0,0,0,0,0,307.5, 0, 0.1,0,0,1024,1024,1024,1024,0,0,0,0,307.3,0,0,82,4.083,4.07,0,0,0,0,4.313,92.3,1.6404528084,1.64042,6,P-GPS,
24700,2022-08-15 23:35:33,0,0,1.64042,,,1.6404528084,1.64042,0,0,0,0,0,8.151,2.2966208084,2.296588,0,0,0,0,0,307.4, 0.2, -0.2,0,0,1024,1024,1024,829,0,0,0,-30,307.3,0,0,82,4.083,4.07,0,0,0,0,4.313,92.3,1.6404528084,1.64042,6,P-GPS,
24800,2022-08-15 23:35:33,0,0,1.64042,,,1.6404528084,1.64042,0,0,0,0,0,8.151,2.2966208084,2.296588,0,0,0,0,0,307.4, 0.1, -0.4,0,0,1024,1024,1024,364,0,0,0,-100,307.3,0,0,82,4.081,4.069,0,0,0,0,4.313,92.3,1.6404528084,1.64042,6,P-GPS,
24900,2022-08-15 23:35:33,0,0,1.64042,,,1.6404528084,1.64042,0,0,0,0,0,8.151,2.2966208084,2.296588,0,0,0,0,0,307.2, 0.3, 0,0,0,1024,1024,1024,364,0,0,0,-100,306.4,0,0,82,4.081,4.069,0,0,0,0,4.313,92.3,1.6404528084,1.64042,6,P-GPS,
25000,2022-08-15 23:35:33,0,0,1.64042,,,1.6404528084,1.64042,0,0,0,0,0,8.151,2.2966208084,2.296588,0,0,0,0,0,305.1, 0.2, 0.1,0,0,1024,1024,1024,364,0,0,0,-100,302.8,0,0,82,4.081,4.069,0,0,0,0,4.313,92.3,1.6404528084,1.64042,6,P-GPS,
25100,2022-08-15 23:35:33,0,0,1.64042,,,1.6404528084,1.64042,0,0,0,0,0,8.151,2.2966208084,2.296588,0,0,0,0,0,300.9, 0.2, 0.2,0,0,1024,1024,1024,364,0,0,0,-100,298.2,0,0,82,4.081,4.069,0,0,0,0,4.313,92.3,1.6404528084,1.64042,6,P-GPS,
25200,2022-08-15 23:35:33,0,0,1.64042,,,1.6404528084,1.64042,0,0,0,0,0,8.151,2.2966208084,2.296588,0,0,0,0,0,296.3, 0.2, -0.1,0,0,1024,1024,1024,364,0,0,0,-100,293.4,0,0,82,4.081,4.069,0,0,0,0,4.313,92.3,1.6404528084,1.64042,6,P-GPS,
25300,2022-08-15 23:35:34,0,0,1.64042,,,1.6404528084,1.64042,0,0,0,0,0,8.151,2.2966208084,2.296588,0,0,0,0,0,291.7, 0.6, 0,0,0,1024,1024,1024,364,0,0,0,-100,288.6,0,0,82,4.081,4.069,0,0,0,0,4.313,92.3,1.6404528084,1.64042,6,P-GPS,
