time(millisecond),datetime(utc),latitude,longitude,height_above_takeoff(feet),height_above_ground_at_drone_location(feet),ground_elevation_at_drone_location(feet),altitude_above_seaLevel(feet),height_sonar(feet),speed(mph),distance(feet),mileage(feet),satellites,gpslevel,voltage(v),max_altitude(feet),max_ascent(feet),max_speed(mph),max_distance(feet), xSpeed(mph), ySpeed(mph), zSpeed(mph), compass_heading(degrees), pitch(degrees), roll(degrees),isPhoto,isVideo,rc_elevator,rc_aileron,rc_throttle,rc_rudder,rc_elevator(percent),rc_aileron(percent),rc_throttle(percent),rc_rudder(percent),gimbal_heading(degrees),gimbal_pitch(degrees),gimbal_roll(degrees),battery_percent,voltageCell1,voltageCell2,voltageCell3,voltageCell4,voltageCell5,voltageCell6,current(A),battery_temperature(f),altitude(feet),ascent(feet),flycStateRaw,flycState,message
0,2022-08-24 00:50:18,-34.9065289639562,-56.1631522373267,0,0,119.1826481708,119.1826481708,0.328084,0,0,0,14,5,0,119.1826481708,0,0,0,0,0,0,267.1, -6, -3.7,0,0,1024,1024,1024,1024,0,0,0,0,277.2,0,0,99,4.323,4.319,0,0,0,0,0,69.44,119.1826481708,0,6,P-GPS,"En vuelo Aeronave en Zona de altitud restringida (150). Vuela con precaución (Code: 190001)"
100,2022-08-24 00:50:18,-34.9065288411601,-56.1631522362545,0,0,119.1826481708,119.1826481708,0.328084,0,0.04480315104,0.04480315104,14,5,0,119.1826481708,0,0,0.04480315104,0,0,0,267, -6.3, -4.2,0,0,364,364,364,1684,-100,-100,-100,100,277.1,0,0,99,4.323,4.319,0,0,0,0,0,69.44,119.1826481708,0,41,Motors_Started,
200,2022-08-24 00:50:18,-34.9065288035268,-56.1631521246748,0,0,119.1826481708,119.1826481708,0.328084,0,0.067543965416,0.080901905476,14,5,0,119.1826481708,0,0,0.067543965416,0,0,0,267, -5.9, -3.6,0,0,364,364,364,1684,-100,-100,-100,100,277.1,0,0,99,4.323,4.319,0,0,0,0,0,69.44,119.1826481708,0,41,Motors_Started,
300,2022-08-24 00:50:18,-34.9065286697289,-56.1631522005268,0,0,119.1826481708,119.1826481708,0.328084,0,0.10791174886,0.1347358967,14,5,0,119.1826481708,0,0,0.10791174886,0,0,0,267.2, -6, -3.9,0,0,364,364,364,1684,-100,-100,-100,100,277,0,0,99,4.323,4.319,0,0,0,0,0,69.44,119.1826481708,0,41,Motors_Started,
400,2022-08-24 00:50:18,-34.9065285644517,-56.1631522843533,0,0,119.1826481708,119.1826481708,0.328084,0,0.146436684476,0.180610242,14,5,0,119.1826481708,0,0,0.146436684476,0,0,0,266.9, -6.4, -4,0,0,364,364,364,1684,-100,-100,-100,100,277,0,0,99,4.323,4.319,0,0,0,0,0,69.44,119.1826481708,0,41,Motors_Started,
500,2022-08-24 00:50:18,-34.9065284670968,-56.163152377196,0,-0.032808400000017,119.2154565708,119.1826481708,0.328084,0,0.186046921964,0.225702763128,14,5,0,119.1826481708,0,0,0.186046921964,0,0,0,265.8, -6.6, -2.7,0,0,364,364,364,1684,-100,-100,-100,100,276.4,0,0,99,4.323,4.319,0,0,0,0,0,69.44,119.1826481708,0,41,Motors_Started,
600,2022-08-24 00:50:18,-34.9065283599289,-56.1631524823106,0,-0.032808400000017,119.2154565708,119.1826481708,0.328084,0,0.232249679348,0.27588255476,13,5,0,119.1826481708,0,0,0.232249679348,0,0,0,268.6, -6, -2.6,0,0,450,364,364,1624,-87,-100,-100,91,277,0,0,99,4.323,4.319,0,0,0,0,0,69.44,119.1826481708,0,41,Motors_Started,
700,2022-08-24 00:50:19,-34.9065282716819,-56.1631528173192,0,0,119.1826481708,119.1826481708,0.328084,0,0.306447516368,0.38116471036,13,5,0,119.1826481708,0,0,0.306447516368,0,0,0,269.1, -5.4, -2.7,0,0,1024,951,1024,1024,0,-11,0,0,279,0,0,99,4.323,4.319,0,0,0,0,0,69.44,119.1826481708,0,41,Motors_Started,
800,2022-08-24 00:50:19,-34.906528150739,-56.1631529749586,0,0,119.1826481708,119.1826481708,0.328084,0,0.36978675724,0.44575460744,13,5,0,119.1826481708,0,0,0.36978675724,0,0,0,268.6, -5.4, -2.2,0,0,1024,1024,1024,1024,0,0,0,0,278.8,0,0,99,4.323,4.319,0,0,0,0,0,69.44,119.1826481708,0,41,Motors_Started,"Setting new Return-To-Home altitude to 100m (328 ft). Data Recorder File Index is 6. Setting new Maximum Flight Altitude to 120m (394 ft)"
900,2022-08-24 00:50:19,-34.9065280384154,-56.1631531496753,0,0,119.1826481708,119.1826481708,0.328084,0,0.43422245484,0.51217849408,13,5,0,119.1826481708,0,0,0.43422245484,0,0,0,269.4, -5.3, -2.2,0,0,1024,1024,1024,1024,0,0,0,0,279,0,0,99,4.323,4.319,0,0,0,0,0,69.44,119.1826481708,0,41,Motors_Started,
1000,2022-08-24 00:50:19,-34.906527931254,-56.1631533566903,0,0,119.1826481708,119.1826481708,0.328084,0,0.50412075104,0.58542652792,13,5,0,119.1826481708,0,0,0.50412075104,0,0,0,269.7, -5.7, -2.5,0,0,1024,1024,1024,1024,0,0,0,0,279.4,0,0,99,4.323,4.319,0,0,0,0,0,69.44,119.1826481708,0,41,Motors_Started,
1100,2022-08-24 00:50:19,-34.9065278802479,-56.1631539848666,0,0.032808399999993,119.1498397708,119.1826481708,0.328084,0,0.65554135956,0.77430120588,13,5,0,119.1826481708,0,0,0.65554135956,0,0,0,270.1, -6.4, -2.3,0,0,1024,1024,1024,1024,0,0,0,0,279.7,0,0,99,4.323,4.319,0,0,0,0,0,69.44,119.1826481708,0,41,Motors_Started,
1200,2022-08-24 00:50:19,-34.9065277187437,-56.1631542937844,0,0.032808399999993,119.1498397708,119.1826481708,0.328084,0.223694,0.76485894836,0.88391735112,14,5,0,119.1826481708,0,0.223694,0.76485894836,0.223694,0,0,270.7, -6.9, -0.5,0,0,1024,1024,1024,1024,0,0,0,0,280.2,0,0,99,4.323,4.319,0,0,0,0,0,69.44,119.1826481708,0,10,Assisted_Takeoff,
1300,2022-08-24 00:50:19,-34.906527503763,-56.163154661739,-0.328084,-0.26246720000001,119.1170313708,118.8545641708,0.328084,0.3131716,0.90001971384,1.0190945208,14,5,0,119.1826481708,0,0.3131716,0.90001971384,0.223694,-0.223694,0,271.4, -9.7, -0.9,0,0,1024,1024,1024,1024,0,0,0,0,280.8,0,0,99,4.323,4.319,0,0,0,0,0,69.44,118.8545641708,-0.328084,10,Assisted_Takeoff,
1400,2022-08-24 00:50:19,-34.906527311307,-56.1631551199075,-0.328084,-0.328084,119.1826481708,118.8545641708,0.328084,0.3131716,1.05235895756,1.17312011628,14,5,0,119.1826481708,0,0.3131716,1.05235895756,0.223694,-0.223694,0,272.7, -12, -0.9,0,0,1024,1024,1024,1024,0,0,0,0,281.6,0,0,99,4.323,4.319,0,0,0,0,0,69.44,118.8545641708,-0.328084,10,Assisted_Takeoff,
1500,2022-08-24 00:50:19,-34.9065273692894,-56.1631561726289,-0.328084,-0.29527560000001,119.1498397708,118.8545641708,0.328084,0.4921268,1.31337602628,1.4888123836,14,5,0,119.1826481708,0,0.4921268,1.31337602628,0.447388,-0.223694,-0.223694,274, -11.8, 0.2,0,0,1024,1024,1024,1024,0,0,0,0,283.5,0,0,99,4.323,4.319,0,0,0,0,0,69.44,118.8545641708,-0.328084,10,Assisted_Takeoff,
1600,2022-08-24 00:50:19,-34.9065271923524,-56.1631567619704,0,0.065616799999987,119.1170313708,119.1826481708,0.328084,0.4921268,1.5001968984,1.676591261,14,5,0,119.1826481708,0,0.4921268,1.5001968984,0.447388,-0.223694,-0.223694,274.7, -12.3, 1.4,0,0,1024,1024,1024,1024,0,0,0,0,284.2,0,0,99,4.323,4.319,0,0,0,0,0,69.44,119.1826481708,0,10,Assisted_Takeoff,
1700,2022-08-24 00:50:20,-34.9065270313042,-56.1631575011905,0,0.09842519999998,119.0842229708,119.1826481708,0.328084,0.3131716,1.72562997648,1.9054462552,14,5,0,119.1826481708,0,0.4921268,1.72562997648,0.223694,-0.223694,-0.223694,277.2, -12.7, 0.1,0,0,1024,1024,1197,1024,0,0,26,0,284.9,0,0,99,4.323,4.319,0,0,0,0,0,69.44,119.1826481708,0,10,Assisted_Takeoff,
1800,2022-08-24 00:50:20,-34.9065269511489,-56.1631582648984,0,0.09842519999998,119.0842229708,119.1826481708,0.328084,0.3131716,1.94728352688,2.13581699748,13,5,0,119.1826481708,0,0.4921268,1.94728352688,0.223694,-0.223694,-0.223694,278.5, -11.6, 0.5,0,0,1024,1024,1684,1024,0,0,100,0,286.6,0,0,99,4.323,4.319,0,0,0,0,0,69.44,119.1826481708,0,10,Assisted_Takeoff,
1900,2022-08-24 00:50:20,-34.9065273246928,-56.1631602012138,0,0.16404199999999,119.0186061708,119.1826481708,0.328084,0.4921268,2.45677173216,2.73099090104,13,5,8.691,119.1826481708,0,0.4921268,2.45677173216,0.223694,-0.447388,-0.447388,279.4, -11.4, 0.5,0,0,1024,1024,1684,1024,0,0,100,0,287.4,0,0,99,4.327,4.324,0,0,0,0,0.703,69.44,119.1826481708,0,10,Assisted_Takeoff,
2000,2022-08-24 00:50:20,-34.906527321234,-56.1631610152567,0,0.19685039999998,118.9857977708,119.1826481708,0.656168,0.3131716,2.69394365576,2.97456374348,13,5,8.691,119.1826481708,0,0.4921268,2.69394365576,0.223694,-0.223694,-0.671082,279.6, -8.8, -0.2,0,0,1024,1024,1684,1024,0,0,100,0,288,0,0,99,4.327,4.324,0,0,0,0,0.703,69.44,119.1826481708,0,6,P-GPS,
2100,2022-08-24 00:50:20,-34.9065272896178,-56.1631615795635,0,0.2296588,118.9529893708,119.1826481708,0.656168,0.3131716,2.86124681072,3.14380259404,13,5,8.691,119.1826481708,0,0.4921268,2.86124681072,0.223694,-0.223694,-0.447388,280, -3.6, 0.3,0,0,1024,1024,1684,1024,0,0,100,0,288,0,0,99,4.327,4.324,0,0,0,0,0.703,69.44,119.1826481708,0,6,P-GPS,
2200,2022-08-24 00:50:20,-34.9065272915849,-56.1631620296861,0,0.2296588,118.9529893708,119.1826481708,0.656168,0.3131716,2.99281177556,3.27848435688,13,5,8.691,119.1826481708,0,0.4921268,2.99281177556,0.223694,-0.223694,0,279, 2.7, -0.8,0,0,1024,1024,1410,1024,0,0,58,0,288,0,0,99,4.327,4.324,0,0,0,0,0.703,69.44,119.1826481708,0,6,P-GPS,
2300,2022-08-24 00:50:20,-34.906527355757,-56.1631622718289,0,0.2296588,118.9529893708,119.1826481708,0.328084,0.223694,3.05919957296,3.3546260916,13,5,8.691,119.1826481708,0,0.4921268,3.05919957296,0,-0.223694,0.223694,278.9, 2.9, -1,0,0,1024,1024,1428,1024,0,0,61,0,288,0,0,99,4.327,4.324,0,0,0,0,0.703,69.44,119.1826481708,0,6,P-GPS,
2400,2022-08-24 00:50:20,-34.9065277196312,-56.1631616634161,0,0.26246719999999,118.9201809708,119.1826481708,0.328084,0.223694,2.85666675808,3.5799213744,12,5,8.691,119.1826481708,0,0.4921268,3.05919957296,0,-0.223694,0.223694,278.8, 2, -0.7,0,0,1024,1024,1684,1034,0,0,100,2,288,0,0,99,4.327,4.324,0,0,0,0,0.703,69.44,119.1826481708,0,6,P-GPS,
2500,2022-08-24 00:50:20,-34.9065279294253,-56.1631616450095,0,0.26246719999999,118.9201809708,119.1826481708,0.328084,0,2.84004930348,3.656660222,12,5,8.691,119.1826481708,0,0.4921268,3.05919957296,0,0,0,278.9, 2.2, -0.9,0,0,1024,1024,1684,1024,0,0,100,0,288,0,0,99,4.327,4.324,0,0,0,0,0.703,69.44,119.1826481708,0,6,P-GPS,
2600,2022-08-24 00:50:20,-34.9065280716324,-56.1631615539222,0,0.26246719999999,118.9201809708,119.1826481708,0.656168,0,2.80654864624,3.7152888328,12,5,8.691,119.1826481708,0,0.4921268,3.05919957296,0,0,-0.223694,278.8, 1.5, -0.7,0,0,1024,1024,1684,886,0,0,100,-21,288,0,0,99,4.327,4.324,0,0,0,0,0.703,69.44,119.1826481708,0,6,P-GPS,
2700,2022-08-24 00:50:21,-34.9065280956731,-56.1631614153201,0,0.2296588,118.9529893708,119.1826481708,0.656168,0,2.76434392048,3.7576772856,12,5,8.691,119.1826481708,0,0.4921268,3.05919957296,0,0,-0.894776,278.8, 1.2, -0.6,0,0,1024,1024,1326,1024,0,0,46,0,288,0,0,99,4.327,4.324,0,0,0,0,0.703,69.44,119.1826481708,0,6,P-GPS,
2800,2022-08-24 00:50:21,-34.9065281284879,-56.1631599445192,0.328084,0.52493439999998,118.9857977708,119.5107321708,0.984252,0,2.32611227916,4.1979003968,12,5,8.691,119.5107321708,0.328084,0.4921268,3.05919957296,0,0,-1.565858,278.7, 1.1, -0.9,0,0,1024,1024,1024,1024,0,0,0,0,287.9,0,0,99,4.327,4.324,0,0,0,0,0.703,69.44,119.5107321708,0.328084,6,P-GPS,
2900,2022-08-24 00:50:21,-34.9065280678218,-56.1631594595977,0.656168,0.82020999999999,119.0186061708,119.8388161708,0.984252,0,2.18555781272,4.3446851784,12,5,8.628,119.8388161708,0.656168,0.4921268,3.05919957296,0,0,-2.013246,278.4, 1.1, -0.9,0,0,1024,1024,1024,1024,0,0,0,0,287.7,0,0,99,4.21,4.205,0,0,0,0,1.41,69.44,119.8388161708,0.656168,6,P-GPS,
3000,2022-08-24 00:50:21,-34.9065280232416,-56.1631589344396,0.984252,1.148294,119.0186061708,120.1669001708,2.624672,0,2.03301187608,4.5026576244,12,5,8.628,120.1669001708,0.984252,0.4921268,3.05919957296,0,0,-2.013246,278.2, 1.2, -0.7,0,0,1024,1024,1024,1024,0,0,0,0,287.7,0,0,99,4.21,4.205,0,0,0,0,1.41,69.44,120.1669001708,0.984252,6,P-GPS,
3100,2022-08-24 00:50:21,-34.9065279825093,-56.1631582709224,1.312336,1.4435696,119.0514145708,120.4949841708,2.952756,0,1.840469219,4.7017389956,12,5,8.628,120.4949841708,1.312336,0.4921268,3.05919957296,0,0,-1.565858,278.1, 1.3, -0.7,0,0,1024,1024,1024,1024,0,0,0,0,287.7,0,0,99,4.21,4.205,0,0,0,0,1.41,69.44,120.4949841708,1.312336,6,P-GPS,
3200,2022-08-24 00:50:21,-34.9065277122544,-56.1631550270672,1.312336,1.3779528,119.1170313708,120.4949841708,3.28084,0,0.9514764084,5.677329578,12,5,8.628,120.4949841708,1.312336,0.4921268,3.05919957296,0,0,-1.11847,278.1, 1.1, -0.3,0,0,1024,1024,1024,1024,0,0,0,0,287.7,0,0,99,4.21,4.205,0,0,0,0,1.41,69.44,120.4949841708,1.312336,6,P-GPS,
3300,2022-08-24 00:50:21,-34.9065279300685,-56.1631540168749,1.64042,1.6732284,119.1498397708,120.8230681708,3.28084,0,0.65253282928,5.9898623964,12,5,8.628,120.8230681708,1.64042,0.4921268,3.05919957296,0,0,-0.671082,278, 0.8, -0.1,0,0,1024,1024,1024,1024,0,0,0,0,287.7,0,0,99,4.21,4.205,0,0,0,0,1.41,69.44,120.8230681708,1.64042,6,P-GPS,
3400,2022-08-24 00:50:21,-34.9065281080868,-56.1631532217031,1.64042,1.64042,119.1826481708,120.8230681708,3.28084,0,0.42925198224,6.2364831392,12,5,8.628,120.8230681708,1.64042,0.4921268,3.05919957296,0,0,-0.223694,278, 0.6, 0,0,0,1024,1024,1024,1024,0,0,0,0,287.7,0,0,99,4.21,4.205,0,0,0,0,1.41,69.44,120.8230681708,1.64042,6,P-GPS,
3500,2022-08-24 00:50:21,-34.9065282236477,-56.1631527519509,1.64042,1.64042,119.1826481708,120.8230681708,3.608924,0,0.310909130684,6.3832351124,12,5,8.628,120.8230681708,1.64042,0.4921268,3.05919957296,0,0,0,278, 0.5, 0.1,0,0,1024,1024,1024,1024,0,0,0,0,287.7,0,0,99,4.21,4.205,0,0,0,0,1.41,69.44,120.8230681708,1.64042,6,P-GPS,
3600,2022-08-24 00:50:22,-34.9065281951434,-56.1631536191872,1.64042,1.6732284,119.1498397708,120.8230681708,3.608924,0,0.49963256192,6.6429135984,12,5,8.628,120.8230681708,1.64042,0.4921268,3.05919957296,0,0,0,277.9, 0.4, 0.2,0,0,1024,1024,1024,1024,0,0,0,0,287.7,0,0,99,4.21,4.205,0,0,0,0,1.41,69.44,120.8230681708,1.64042,6,P-GPS,
3700,2022-08-24 00:50:22,-34.9065282724586,-56.1631536768427,1.64042,1.6732284,119.1498397708,120.8230681708,3.608924,0,0.49916668264,6.6759844656,12,5,8.628,120.8230681708,1.64042,0.4921268,3.05919957296,0,0,0,277.7, 0.4, 0,0,0,1024,1024,1024,1024,0,0,0,0,287.7,0,0,99,4.21,4.205,0,0,0,0,1.41,69.44,120.8230681708,1.64042,6,P-GPS,
3800,2022-08-24 00:50:22,-34.9065284090362,-56.1631536680446,1.64042,1.6732284,119.1498397708,120.8230681708,3.608924,0,0.47354660308,6.725886042,12,5,8.628,120.8230681708,1.64042,0.4921268,3.05919957296,0,0,0,277.3, 0.3, 0,0,0,1024,1024,1024,1024,0,0,0,0,287.7,0,0,99,4.21,4.205,0,0,0,0,1.41,69.44,120.8230681708,1.64042,6,P-GPS,
3900,2022-08-24 00:50:22,-34.9065286676641,-56.1631534901454,1.64042,1.6732284,119.1498397708,120.8230681708,3.608924,0,0.39013124608,6.8342193788,12,5,8.578,120.8230681708,1.64042,0.4921268,3.05919957296,0,0,0,277, 0.3, 0,0,0,1024,1024,1024,1024,0,0,0,0,287.7,0,0,99,4.241,4.237,0,0,0,0,1.911,69.62,120.8230681708,1.64042,6,P-GPS,
4000,2022-08-24 00:50:22,-34.9065288986735,-56.1631532979557,1.64042,1.6732284,119.1498397708,120.8230681708,3.608924,0,0.31824148,6.9362535028,13,5,8.578,120.8230681708,1.64042,0.4921268,3.05919957296,0,0,0,276.7, 0.4, 0,0,0,1024,1024,1024,1024,0,0,0,0,287.7,0,0,99,4.241,4.237,0,0,0,0,1.911,69.62,120.8230681708,1.64042,6,P-GPS,
4100,2022-08-24 00:50:22,-34.9065293449616,-56.1631533172907,1.64042,1.6732284,119.1498397708,120.8230681708,3.608924,0,0.35176510312,7.0991800172,13,5,8.578,120.8230681708,1.64042,0.4921268,3.05919957296,0,0,0,276.4, 0.6, -0.1,0,0,1024,1024,1024,1024,0,0,0,0,287.7,0,0,99,4.241,4.237,0,0,0,0,1.911,69.62,120.8230681708,1.64042,6,P-GPS,
4200,2022-08-24 00:50:22,-34.9065295131652,-56.1631531802683,1.64042,1.7388452,119.0842229708,120.8230681708,3.608924,0,0.34605316068,7.1729661088,12,5,8.578,120.8230681708,1.64042,0.4921268,3.05919957296,0,0,0,276.1, 0.6, 0,0,0,1024,1024,1024,1024,0,0,0,0,287.7,0,0,99,4.241,4.237,0,0,0,0,1.911,69.62,120.8230681708,1.64042,6,P-GPS,
4300,2022-08-24 00:50:22,-34.9065296415697,-56.1631532331556,1.64042,1.7388452,119.0842229708,120.8230681708,3.608924,0,0.3871719284,7.222441176,12,5,8.578,120.8230681708,1.64042,0.4921268,3.05919957296,0,0,0,275.9, 0.5, 0,0,0,1024,1024,1024,1024,0,0,0,0,287.7,0,0,99,4.241,4.237,0,0,0,0,1.911,69.62,120.8230681708,1.64042,6,P-GPS,
4400,2022-08-24 00:50:22,-34.9065297490747,-56.1631533790182,1.64042,1.7388452,119.0842229708,120.8230681708,3.608924,0,0.44581038172,7.2811025952,12,5,8.578,120.8230681708,1.64042,0.4921268,3.05919957296,0,0,0,275.6, 0.5, 0,0,0,1024,1024,1024,1024,0,0,0,0,287.7,0,0,99,4.241,4.237,0,0,0,0,1.911,69.62,120.8230681708,1.64042,6,P-GPS,
4500,2022-08-24 00:50:22,-34.9065296463426,-56.1631547395487,1.64042,1.7716536,119.0514145708,120.8230681708,3.608924,0,0.78899608824,7.6899280676,12,5,8.578,120.8230681708,1.64042,0.4921268,3.05919957296,0,0,0,275.3, 0.5, -0.2,0,0,1024,1024,1024,1024,0,0,0,0,287.7,0,0,99,4.241,4.237,0,0,0,0,1.911,69.62,120.8230681708,1.64042,6,P-GPS,
4600,2022-08-24 00:50:22,-34.9065297403641,-56.1631549928542,1.64042,1.7716536,119.0514145708,120.8230681708,3.608924,0,0.87178152396,7.7730973616,13,5,8.578,120.8230681708,1.64042,0.4921268,3.05919957296,0,0,0,275.1, 0.5, -0.2,0,0,1024,1024,1024,1024,0,0,0,0,287.7,0,0,99,4.241,4.237,0,0,0,0,1.911,69.62,120.8230681708,1.64042,6,P-GPS,
4700,2022-08-24 00:50:23,-34.9065298426385,-56.1631552610658,1.64042,1.7716536,119.0514145708,120.8230681708,3.608924,0,0.95984911208,7.8616144248,13,5,8.578,120.8230681708,1.64042,0.4921268,3.05919957296,0,0,0,274.9, 0.4, -0.1,0,0,1024,1024,1024,1024,0,0,0,0,287.7,0,0,99,4.241,4.237,0,0,0,0,1.911,69.62,120.8230681708,1.64042,6,P-GPS,
4800,2022-08-24 00:50:23,-34.9065299434246,-56.1631554898886,1.64042,1.7716536,119.0514145708,120.8230681708,3.608924,0,1.0367290358,7.9393375244,13,5,8.578,120.8230681708,1.64042,0.4921268,3.05919957296,0,0,0,274.7, 0.4, -0.1,0,0,1024,1024,1024,1024,0,0,0,0,287.7,0,0,99,4.241,4.237,0,0,0,0,1.911,69.62,120.8230681708,1.64042,6,P-GPS,
4900,2022-08-24 00:50:23,-34.9065299116471,-56.1631562807339,1.64042,1.804462,119.0186061708,120.8230681708,3.608924,0,1.25826119512,8.1762469808,13,5,8.578,120.8230681708,1.64042,0.4921268,3.05919957296,0,0,0,274.5, 0.4, 0,0,0,1024,1024,1024,1024,0,0,0,0,287.7,0,0,99,4.241,4.237,0,0,0,0,1.911,69.62,120.8230681708,1.64042,6,P-GPS,
5000,2022-08-24 00:50:23,-34.9065300195103,-56.1631564136152,1.968504,2.132546,119.0186061708,121.1511521708,3.608924,0,1.307578782,8.2321853028,13,5,8.459,121.1511521708,1.968504,0.4921268,3.05919957296,0,0,0,274.3, 0.5, 0,0,0,1024,1024,1024,1024,0,0,0,0,287.7,0,0,99,4.229,4.227,0,0,0,0,4.002,69.62,121.1511521708,1.968504,6,P-GPS,
5100,2022-08-24 00:50:23,-34.9065301354018,-56.1631564819263,1.968504,2.132546,119.0186061708,121.1511521708,3.608924,0,1.34000660456,8.2791341232,13,5,8.459,121.1511521708,1.968504,0.4921268,3.05919957296,0,0,0,274.2, 0.5, 0.2,0,0,1024,1024,1024,1024,0,0,0,0,287.7,0,0,99,4.229,4.227,0,0,0,0,4.002,69.62,121.1511521708,1.968504,6,P-GPS,
5200,2022-08-24 00:50:23,-34.9065302029122,-56.1631565095562,1.968504,2.1653544,118.9857977708,121.1511521708,3.608924,0,1.3558563426,8.305118376,13,5,8.459,121.1511521708,1.968504,0.4921268,3.05919957296,0,0,0,274, 0.6, 0.3,0,0,1024,1024,1024,1024,0,0,0,0,287.7,0,0,99,4.229,4.227,0,0,0,0,4.002,69.62,121.1511521708,1.968504,6,P-GPS,"Punto de origen actualizado. Altitud de RPO establecida en 100m (Code: 3000001)"
5300,2022-08-24 00:50:23,-34.9065299936849,-56.1631562672786,1.968504,2.132546,119.0186061708,121.1511521708,3.608924,0,1.26296920052,8.4104005316,13,5,8.459,121.1511521708,1.968504,0.4921268,3.05919957296,0,0,0,273.9, 0.6, 0.3,0,0,1024,1024,1024,1024,0,0,0,0,287.7,0,0,99,4.229,4.227,0,0,0,0,4.002,69.62,121.1511521708,1.968504,6,P-GPS,
5400,2022-08-24 00:50:23,-34.9065299995342,-56.1631562304631,1.968504,2.132546,119.0186061708,121.1511521708,3.608924,0,1.25309715296,8.4216210044,13,5,8.459,121.1511521708,1.968504,0.4921268,3.05919957296,0,0,0,273.7, 0.6, 0.1,0,0,1024,1024,1024,1024,0,0,0,0,287.7,0,0,99,4.229,4.227,0,0,0,0,4.002,69.62,121.1511521708,1.968504,6,P-GPS,
5500,2022-08-24 00:50:23,-34.9065300127735,-56.1631561754795,1.968504,2.132546,119.0186061708,121.1511521708,3.608924,0,1.23890423912,8.4387469892,13,5,8.459,121.1511521708,1.968504,0.4921268,3.05919957296,0,0,0,273.6, 0.5, 0,0,0,1024,1024,1085,1024,0,0,9,0,287.7,0,0,99,4.229,4.227,0,0,0,0,4.002,69.62,121.1511521708,1.968504,6,P-GPS,
5600,2022-08-24 00:50:23,-34.9065300066994,-56.1631560988666,1.968504,2.132546,119.0186061708,121.1511521708,3.608924,0,1.21642720428,8.461778486,13,5,8.459,121.1511521708,1.968504,0.4921268,3.05919957296,0,0,0,273.5, 0.4, 0,0,0,1024,1024,1024,1024,0,0,0,0,287.7,0,0,99,4.229,4.227,0,0,0,0,4.002,69.62,121.1511521708,1.968504,6,P-GPS,
5700,2022-08-24 00:50:24,-34.9065299799392,-56.1631559950938,1.968504,2.132546,119.0186061708,121.1511521708,3.608924,0,1.18388127148,8.4943244188,13,5,8.459,121.1511521708,1.968504,0.4921268,3.05919957296,0,0,0,273.4, 0.3, 0.1,0,0,1024,1024,1024,1024,0,0,0,0,287.7,0,0,99,4.229,4.227,0,0,0,0,4.002,69.62,121.1511521708,1.968504,6,P-GPS,
5800,2022-08-24 00:50:24,-34.9065297343226,-56.1631555383793,1.968504,2.132546,119.0186061708,121.1511521708,3.608924,0,1.02691604336,8.6577430592,13,5,8.459,121.1511521708,1.968504,0.4921268,3.05919957296,0,0,0,273.3, 0.4, 0,0,0,1024,1024,1282,1024,0,0,39,0,287.7,0,0,99,4.229,4.227,0,0,0,0,4.002,69.62,121.1511521708,1.968504,6,P-GPS,
5900,2022-08-24 00:50:24,-34.9065297546,-56.1631552794951,1.968504,2.0997376,119.0514145708,121.1511521708,3.608924,0,0.9548556736,8.735564584,13,5,8.459,121.1511521708,1.968504,0.4921268,3.05919957296,0,0,0,273.2, 0.3, 0,0,0,1024,1024,1581,1024,0,0,84,0,287.7,0,0,99,4.229,4.227,0,0,0,0,4.002,69.62,121.1511521708,1.968504,6,P-GPS,
6000,2022-08-24 00:50:24,-34.9065297441812,-56.1631550570782,1.968504,2.0997376,119.0514145708,121.1511521708,3.608924,0,0.89042325684,8.8022312528,13,5,8.459,121.1511521708,1.968504,0.4921268,3.05919957296,0,0,-0.223694,273.1, 0.3, 0.3,0,0,1024,1024,1684,1024,0,0,100,0,287.7,0,0,99,4.229,4.227,0,0,0,0,4.002,69.62,121.1511521708,1.968504,6,P-GPS,
6100,2022-08-24 00:50:24,-34.9065296861125,-56.1631548779744,1.968504,2.0997376,119.0514145708,121.1511521708,3.608924,0,0.83287732324,8.8598428032,13,5,8.459,121.1511521708,1.968504,0.4921268,3.05919957296,0,0,-1.11847,273, 0.4, 0.1,0,0,1024,1024,1556,1024,0,0,81,0,287.7,0,0,99,4.229,4.227,0,0,0,0,4.002,69.62,121.1511521708,1.968504,6,P-GPS,
6200,2022-08-24 00:50:24,-34.9065295302916,-56.1631542582306,2.296588,2.4278216,119.0514145708,121.4792361708,3.937008,0,0.63899936428,9.053806064,13,5,8.459,121.4792361708,2.296588,0.4921268,3.05919957296,0,0,-1.789552,272.9, 0.5, -0.2,0,0,1024,1024,1556,1024,0,0,81,0,287.7,0,0,99,4.229,4.227,0,0,0,0,4.002,69.62,121.4792361708,2.296588,6,P-GPS,
6300,2022-08-24 00:50:24,-34.9065295572342,-56.1631539920694,2.624672,2.7559056,119.0514145708,121.8073201708,4.265092,0,0.56790356148,9.1340554104,13,5,8.459,121.8073201708,2.624672,0.4921268,3.05919957296,0,0,-2.460634,272.8, 0.3, -0.4,0,0,1024,1024,1024,1024,0,0,0,0,287.7,0,0,99,4.229,4.227,0,0,0,0,4.002,69.62,121.8073201708,2.624672,6,P-GPS,
6400,2022-08-24 00:50:24,-34.9065295867579,-56.1631537238324,2.952756,3.0839896,119.0514145708,122.1354041708,4.593176,0,0.4994586774,9.2150265416,13,5,8.459,122.1354041708,2.952756,0.4921268,3.05919957296,0,0,-2.23694,272.6, 0.9, -0.3,0,0,1024,1024,1024,1024,0,0,0,0,287.7,0,0,99,4.229,4.227,0,0,0,0,4.002,69.62,122.1354041708,2.952756,6,P-GPS,
6500,2022-08-24 00:50:24,-34.9065296128374,-56.1631534328321,3.28084,3.3792652,119.0842229708,122.4634881708,4.92126,0,0.4289534258,9.3026249696,13,5,8.459,122.4634881708,3.28084,0.4921268,3.05919957296,0,0,-1.789552,272.6, 1, -0.2,0,0,1093,1024,1024,1024,10,0,0,0,287.7,0,0,99,4.229,4.227,0,0,0,0,4.002,69.62,122.4634881708,3.28084,6,P-GPS,
6600,2022-08-24 00:50:24,-34.9065297728988,-56.163152866575,3.28084,3.3792652,119.0842229708,122.4634881708,4.92126,0,0.3500820322,9.4818244504,13,5,8.459,122.4634881708,3.28084,0.4921268,3.05919957296,0,0,-0.894776,272.5, 0.8, -0.2,0,0,1470,1024,1024,1024,68,0,0,0,287.7,0,0,99,4.229,4.227,0,0,0,0,4.002,69.62,122.4634881708,3.28084,6,P-GPS,"Señal del GPS débil Señal del GPS débil. La precisión del posicionamiento se verá afectada. Vuela con cuidado (Code: 30049)"
6700,2022-08-24 00:50:25,-34.9065298506619,-56.1631526726608,3.608924,3.7073492,119.0842229708,122.7915721708,5.249344,0,0.348753292,9.5463913816,13,5,8.459,122.7915721708,3.608924,0.4921268,3.05919957296,0,0,-0.447388,272.5, -1.6, 0,0,0,1594,1024,1024,1024,86,0,0,0,287.7,0,0,99,4.229,4.227,0,0,0,0,4.002,69.62,122.7915721708,3.608924,6,P-GPS,
6800,2022-08-24 00:50:25,-34.9065300359641,-56.1631521898518,3.608924,3.6745408,119.1170313708,122.7915721708,5.249344,0,0.39137796528,9.7059058224,13,5,8.459,122.7915721708,3.608924,0.4921268,3.05919957296,0,0,-0.223694,272.4, -8.4, 0,0,0,1569,1024,1024,1024,83,0,0,0,287.7,0,0,99,4.229,4.227,0,0,0,0,4.002,69.62,122.7915721708,3.608924,6,P-GPS,
6900,2022-08-24 00:50:25,-34.9065303853501,-56.1631513232567,3.608924,3.6417324,119.1498397708,122.7915721708,5.249344,0.447388,0.58629595052,9.9948494012,13,5,8.453,122.7915721708,3.608924,0.4921268,3.05919957296,0,-0.447388,0,272.4, -12.9, 0,0,0,1594,1024,1024,1024,86,0,0,0,287.7,0,0,99,4.227,4.22,0,0,0,0,4.012,69.62,122.7915721708,3.608924,6,P-GPS,
7000,2022-08-24 00:50:25,-34.9065313896538,-56.1631495389122,3.608924,3.6417324,119.1498397708,122.7915721708,4.92126,0.894776,1.1979659176,10.6423559836,13,5,8.453,122.7915721708,3.608924,0.894776,3.05919957296,0,-0.894776,0,272.4, -13.8, 0,0,0,1595,1024,1024,1024,87,0,0,0,287.7,0,0,99,4.227,4.22,0,0,0,0,4.012,69.62,122.7915721708,3.608924,6,P-GPS,
7100,2022-08-24 00:50:25,-34.9065317002925,-56.1631495985327,3.608924,3.7073492,119.0842229708,122.7915721708,4.92126,1.565858,1.27282812472,10.7570869584,13,5,8.453,122.7915721708,3.608924,1.565858,3.05919957296,0,-1.565858,0,272.3, -13.8, -0.1,0,0,1495,1024,1027,1024,71,0,0,0,287.7,0,0,99,4.227,4.22,0,0,0,0,4.012,69.62,122.7915721708,3.608924,6,P-GPS,
7200,2022-08-24 00:50:25,-34.906531919398,-56.1631498622322,3.608924,3.7073492,119.0842229708,122.7915721708,4.92126,2.013246,1.29140752164,10.86942292,13,5,8.453,122.7915721708,3.608924,2.013246,3.05919957296,0,-2.013246,0,272.3, -13.7, -0.1,0,0,1495,1024,1027,1024,71,0,0,0,287.7,0,0,99,4.227,4.22,0,0,0,0,4.012,69.62,122.7915721708,3.608924,6,P-GPS,
7300,2022-08-24 00:50:25,-34.9065320145855,-56.1631503274038,3.608924,3.7073492,119.0842229708,122.7915721708,4.92126,2.460634,1.25115489568,11.0128612448,13,5,8.453,122.7915721708,3.608924,2.460634,3.05919957296,0,-2.460634,0,272.2, -12.3, 0,0,0,1153,1024,1199,1208,20,0,27,28,287.7,0,0,99,4.227,4.22,0,0,0,0,4.012,69.62,122.7915721708,3.608924,6,P-GPS,
7400,2022-08-24 00:50:25,-34.9065321086574,-56.163151049872,3.608924,3.7073492,119.0842229708,122.7915721708,5.249344,2.908022,1.20109583896,11.2317588896,13,5,8.453,122.7915721708,3.608924,2.908022,3.05919957296,0,-2.908022,0,272.2, -6.8, 0.1,0,0,1024,1024,1477,1261,0,0,69,36,287.8,0,0,99,4.227,4.22,0,0,0,0,4.012,69.62,122.7915721708,3.608924,6,P-GPS,
7500,2022-08-24 00:50:25,-34.9065319867993,-56.1631520615068,3.937008,4.0682416,119.0514145708,123.1196561708,5.249344,3.131716,1.10413717444,11.5376972196,13,5,8.453,123.1196561708,3.937008,3.131716,3.05919957296,0,-3.131716,-0.447388,272.4, 2.3, 0,0,0,1024,1024,1557,1024,0,0,81,0,288.4,0,0,99,4.227,4.22,0,0,0,0,4.012,69.62,123.1196561708,3.937008,6,P-GPS,
7600,2022-08-24 00:50:25,-34.9065320693403,-56.1631532413587,3.937008,4.10105,119.0186061708,123.1196561708,5.249344,2.684328,1.17214898764,11.8919951312,13,5,8.453,123.1196561708,3.937008,3.131716,3.05919957296,0,-2.684328,-1.11847,273, 10.9, 0.5,0,0,1024,1024,1608,1024,0,0,88,0,288.9,0,0,99,4.227,4.22,0,0,0,0,4.012,69.62,123.1196561708,3.937008,6,P-GPS,
7700,2022-08-24 00:50:26,-34.9065320993265,-56.1631546552374,4.265092,4.4947508,118.9529893708,123.4477401708,5.577428,2.013246,1.35350726116,12.3151906828,13,5,8.453,123.4477401708,4.265092,3.131716,3.05919957296,0,-2.013246,-2.013246,273.4, 10.9, 0.5,0,0,1024,1024,1647,1024,0,0,94,0,289.1,0,0,99,4.227,4.22,0,0,0,0,4.012,69.62,123.4477401708,4.265092,6,P-GPS,
7800,2022-08-24 00:50:26,-34.906532173704,-56.1631554373376,4.593176,4.8228348,118.9529893708,123.7758241708,6.233596,1.565858,1.51266737124,12.5507549948,13,5,8.453,123.7758241708,4.593176,3.131716,3.05919957296,0,-1.565858,-2.684328,273.4, 8.6, 0.3,0,0,1024,1024,1557,1024,0,0,81,0,289.1,0,0,99,4.227,4.22,0,0,0,0,4.012,69.62,123.7758241708,4.593176,6,P-GPS,
7900,2022-08-24 00:50:26,-34.9065322524572,-56.1631560350032,5.249344,5.5118112,118.9201809708,124.4319921708,6.56168,1.11847,1.65248364868,12.7318901712,13,5,8.506,124.4319921708,5.249344,3.131716,3.05919957296,0,-1.11847,-3.579104,273.3, 6.4, 0,0,0,1024,1024,1193,1024,0,0,26,0,289.1,0,0,99,4.25,4.245,0,0,0,0,4.435,69.62,124.4319921708,5.249344,6,P-GPS,
8000,2022-08-24 00:50:26,-34.9065323698208,-56.1631560015841,5.905512,6.1679792,118.9201809708,125.0881601708,7.217848,0.671082,1.6770997912,12.7758534272,13,5,8.506,125.0881601708,5.905512,3.131716,3.05919957296,0,-0.671082,-4.250186,273.3, 4.4, 0,0,0,1024,1024,1193,1024,0,0,26,0,289.1,0,0,99,4.25,4.245,0,0,0,0,4.435,69.62,125.0881601708,5.905512,6,P-GPS,
8100,2022-08-24 00:50:26,-34.9065324144043,-56.163156119507,6.56168,6.8241472,118.9201809708,125.7443281708,7.874016,0.447388,1.71291672148,12.8146985728,13,5,8.506,125.7443281708,6.56168,3.131716,3.05919957296,0,-0.447388,-4.026492,273.3, 4.3, 0,0,0,1172,1024,1041,1024,22,0,3,0,289.1,0,0,99,4.25,4.245,0,0,0,0,4.435,69.62,125.7443281708,6.56168,6,P-GPS,
8200,2022-08-24 00:50:26,-34.9065324991274,-56.1631562085421,6.889764,7.1522312,118.9201809708,126.0724121708,8.2021,0.447388,1.75370084352,12.8555122224,13,5,8.506,126.0724121708,6.889764,3.131716,3.05919957296,0,-0.447388,-3.35541,273.3, 3.9, 0.1,0,0,1529,1024,1024,1024,77,0,0,0,289.1,0,0,99,4.25,4.245,0,0,0,0,4.435,69.62,126.0724121708,6.889764,6,P-GPS,
8300,2022-08-24 00:50:26,-34.9065325206538,-56.1631567127708,7.217848,7.545932,118.8545641708,126.4004961708,8.858268,0.223694,1.86469166072,13.0065949044,13,5,8.506,126.4004961708,7.217848,3.131716,3.05919957296,0,-0.223694,-2.460634,273.3, -1.8, 0.1,0,0,1541,1024,1024,1024,78,0,0,0,289.1,0,0,99,4.25,4.245,0,0,0,0,4.435,69.62,126.4004961708,7.217848,6,P-GPS,
8400,2022-08-24 00:50:26,-34.9065326171277,-56.1631569238844,7.545932,7.874016,118.8545641708,126.7285801708,9.186352,0.447388,1.93463916952,13.078904618,13,5,8.506,126.7285801708,7.545932,3.131716,3.05919957296,0,-0.447388,-1.789552,273.2, -8.7, 0.1,0,0,1546,1024,1024,1024,79,0,0,0,289.1,0,0,99,4.25,4.245,0,0,0,0,4.435,69.62,126.7285801708,7.545932,6,P-GPS,
8500,2022-08-24 00:50:26,-34.906532648441,-56.1631573991975,7.874016,8.2021,118.8545641708,127.0566641708,9.186352,0.671082,2.04755912064,13.2215555412,13,5,8.506,127.0566641708,7.874016,3.131716,3.05919957296,0,-0.671082,-0.894776,273.3, -12.3, 0.2,0,0,1534,1024,1142,1024,77,0,18,0,289.1,0,0,99,4.25,4.245,0,0,0,0,4.435,69.62,127.0566641708,7.874016,6,P-GPS,
8600,2022-08-24 00:50:26,-34.9065326488563,-56.1631579904711,8.2021,8.5629924,118.8217557708,127.3847481708,9.186352,1.11847,2.1841864216,13.3984912424,13,5,8.506,127.3847481708,8.2021,3.131716,3.05919957296,0,-1.11847,-0.447388,273.3, -13.7, 0,0,0,1531,1024,1409,1024,77,0,58,0,289.1,0,0,99,4.25,4.245,0,0,0,0,4.435,69.62,127.3847481708,8.2021,6,P-GPS,
8700,2022-08-24 00:50:27,-34.9065322977752,-56.1631597429489,8.2021,8.5958008,118.7889473708,127.3847481708,9.514436,1.565858,2.5539863022,13.9382550392,13,5,8.506,127.3847481708,8.2021,3.131716,3.05919957296,0,-1.565858,-0.447388,273.3, -13.4, 0,0,0,1533,1024,1503,1037,77,0,73,2,289.1,0,0,99,4.25,4.245,0,0,0,0,4.435,69.62,127.3847481708,8.2021,6,P-GPS,
8800,2022-08-24 00:50:27,-34.9065322280468,-56.1631607561731,8.2021,8.5958008,118.7889473708,127.3847481708,9.514436,2.23694,2.81339247848,14.2424873324,13,5,8.506,127.3847481708,8.2021,3.131716,3.05919957296,0,-2.23694,-0.894776,273.3, -11.9, 0,0,0,1533,1024,1503,1037,77,0,73,2,289.1,0,0,99,4.25,4.245,0,0,0,0,4.435,69.62,127.3847481708,8.2021,6,P-GPS,
8900,2022-08-24 00:50:27,-34.9065321136226,-56.1631621005035,8.530184,8.9566932,118.7561389708,127.7128321708,9.84252,2.684328,3.16698500948,14.6468836708,13,5,8.411,127.7128321708,8.530184,3.131716,3.16698500948,0,-2.684328,-1.565858,273.2, -10.2, 0,0,0,1516,1024,1372,1024,75,0,53,0,289.1,0,0,99,4.17,4.157,0,0,0,0,4.341,69.62,127.7128321708,8.530184,6,P-GPS,
9000,2022-08-24 00:50:27,-34.906531993261,-56.1631636116785,8.858268,9.350394,118.6905221708,128.0409161708,9.84252,3.131716,3.5782809544,15.1011487772,12,5,8.411,128.0409161708,8.858268,3.131716,3.5782809544,0.223694,-3.131716,-2.23694,273.2, -9.3, -0.1,0,0,1434,1024,1326,1024,62,0,46,0,289.1,0,0,99,4.17,4.157,0,0,0,0,4.341,69.62,128.0409161708,8.858268,6,P-GPS,
9100,2022-08-24 00:50:27,-34.9065318664818,-56.163165367378,9.186352,9.7112864,118.6577137708,128.3690001708,10.170604,3.579104,4.0688321512,15.6285109988,12,5,8.411,128.3690001708,9.186352,3.579104,4.0688321512,0.223694,-3.579104,-2.23694,273.2, -8.5, -0.1,0,0,1298,1024,1418,1024,42,0,60,0,289.1,0,0,99,4.17,4.157,0,0,0,0,4.341,69.62,128.3690001708,9.186352,6,P-GPS,
9200,2022-08-24 00:50:27,-34.9065313583063,-56.1631674486661,9.514436,10.0393704,118.6577137708,128.6970841708,10.498688,3.802798,4.6344489672,16.2782813608,13,5,8.411,128.6970841708,9.514436,3.802798,4.6344489672,0.223694,-3.802798,-2.23694,273.2, -6.5, 0,0,0,1287,1024,1444,1024,40,0,64,0,289.1,0,0,99,4.17,4.157,0,0,0,0,4.341,69.62,128.6970841708,9.514436,6,P-GPS,
9300,2022-08-24 00:50:27,-34.9065311525214,-56.1631692429762,9.84252,10.4330712,118.5920969708,129.0251681708,11.154856,3.802798,5.1504922908,16.820374554,13,5,8.411,129.0251681708,9.84252,3.802798,5.1504922908,0.223694,-3.802798,-2.684328,273.1, -3.6, 0,0,0,1287,1024,1450,1024,40,0,65,0,289.1,0,0,99,4.17,4.157,0,0,0,0,4.341,69.62,129.0251681708,9.84252,6,P-GPS,
9400,2022-08-24 00:50:27,-34.906531011122,-56.1631710692143,10.170604,10.826772,118.5264801708,129.3532521708,11.48294,4.026492,5.6839568748,17.3692262776,13,5,8.411,129.3532521708,10.170604,4.026492,5.6839568748,0.223694,-4.026492,-2.908022,273.1, -2.4, 0,0,0,1304,1024,1450,1024,42,0,65,0,289.1,0,0,99,4.17,4.157,0,0,0,0,4.341,69.62,129.3532521708,10.170604,6,P-GPS,
9500,2022-08-24 00:50:27,-34.9065309653725,-56.1631731308227,10.826772,11.5485568,118.4608633708,130.0094201708,11.811024,4.026492,6.2939962644,17.9862866648,13,5,8.411,130.0094201708,10.826772,4.026492,6.2939962644,0.223694,-4.026492,-3.131716,273.1, -2.3, 0,0,0,1392,1024,1445,1024,56,0,64,0,289.1,0,0,99,4.17,4.157,0,0,0,0,4.341,69.62,130.0094201708,10.826772,6,P-GPS,
9600,2022-08-24 00:50:28,-34.9065308497155,-56.1631751095899,11.154856,11.9422576,118.3952465708,130.3375041708,12.467192,4.026492,6.8780514012,18.5798562376,12,5,8.411,130.3375041708,11.154856,4.026492,6.8780514012,0.223694,-4.026492,-3.35541,273.1, -2.6, 0,0,0,1401,1024,1444,1024,57,0,64,0,289.1,0,0,99,4.17,4.157,0,0,0,0,4.341,69.62,130.3375041708,11.154856,6,P-GPS,"En vuelo"
9700,2022-08-24 00:50:28,-34.9065309358211,-56.1631772130987,11.811024,12.631234,118.3624381708,130.9936721708,12.795276,4.026492,7.5075133636,19.2100399848,12,5,8.411,130.9936721708,11.811024,4.026492,7.5075133636,0.223694,-4.026492,-3.35541,273, -4, 0,0,0,1401,1024,1444,1024,57,0,64,0,289.1,0,0,99,4.17,4.157,0,0,0,0,4.341,69.62,130.9936721708,11.811024,6,P-GPS,
9800,2022-08-24 00:50:28,-34.906530975819,-56.1631793166076,12.139108,13.0249348,118.2968213708,131.3217561708,13.451444,4.026492,8.1355317564,19.8396003724,13,5,8.411,131.3217561708,12.139108,4.026492,8.1355317564,0.223694,-4.026492,-3.35541,273, -5.3, 0,0,0,1401,1024,1442,1024,57,0,63,0,289.1,0,0,99,4.17,4.157,0,0,0,0,4.341,69.62,131.3217561708,12.139108,6,P-GPS,
9900,2022-08-24 00:50:28,-34.9065309430986,-56.1631816792183,12.795276,13.779528,118.1983961708,131.9779241708,13.779528,4.026492,8.8388126188,20.546588584,13,5,8.497,131.9779241708,12.795276,4.026492,8.8388126188,0.223694,-4.250186,-3.35541,273, -6, 0,0,0,1402,1024,1443,1024,57,0,63,0,289.1,0,0,99,4.233,4.226,0,0,0,0,4.362,69.8,131.9779241708,12.795276,6,P-GPS,
10000,2022-08-24 00:50:28,-34.9065309937742,-56.163184553381,13.12336,14.2060372,118.0999709708,132.3060081708,14.435696,4.47388,9.6975396804,21.4067592152,12,4,8.497,132.3060081708,13.12336,4.47388,9.6975396804,0.223694,-4.47388,-3.35541,273, -6, -0.1,0,0,1405,1024,1444,1024,58,0,64,0,289.1,0,0,99,4.233,4.226,0,0,0,0,4.362,69.8,132.3060081708,13.12336,6,P-GPS,
10100,2022-08-24 00:50:28,-34.9065308959389,-56.1631869650819,13.779528,14.8950136,118.0671625708,132.9621761708,14.76378,4.47388,10.414698496,22.1292658,12,4,8.497,132.9621761708,13.779528,4.47388,10.414698496,0.223694,-4.47388,-3.35541,273, -5.9, 0,0,0,1420,1024,1454,1024,60,0,65,0,289.1,0,0,99,4.233,4.226,0,0,0,0,4.362,69.8,132.9621761708,13.779528,6,P-GPS,
10200,2022-08-24 00:50:28,-34.9065307595584,-56.1631892000612,14.435696,15.6167984,118.0015457708,133.6183441708,15.419948,4.697574,11.0789373624,22.7998366876,13,4,8.497,133.6183441708,14.435696,4.697574,11.0789373624,0.223694,-4.697574,-3.35541,273, -6.1, -0.1,0,0,1428,1024,1463,1024,61,0,67,0,289.1,0,0,99,4.233,4.226,0,0,0,0,4.362,69.8,133.6183441708,14.435696,6,P-GPS,
10300,2022-08-24 00:50:28,-34.9065305363296,-56.163191410058,14.76378,16.0104992,117.9359289708,133.9464281708,16.076116,4.697574,11.7348428952,23.4660768664,13,4,8.497,133.9464281708,14.76378,4.697574,11.7348428952,0.223694,-4.921268,-3.35541,273, -6.3, -0.2,0,0,1431,1024,1522,1024,62,0,75,0,289.1,0,0,99,4.233,4.226,0,0,0,0,4.362,69.8,133.9464281708,14.76378,6,P-GPS,
10400,2022-08-24 00:50:28,-34.9065299246372,-56.1631930772864,15.419948,16.6994756,117.9031205708,134.6025961708,16.732284,4.921268,12.2246723072,24.0125663852,13,4,8.497,134.6025961708,15.419948,4.921268,12.2246723072,0.223694,-4.921268,-3.579104,272.7, -6.3, -0.1,0,0,1434,1024,1610,1024,62,0,89,0,289.1,0,0,99,4.233,4.226,0,0,0,0,4.362,69.8,134.6025961708,15.419948,6,P-GPS,
10500,2022-08-24 00:50:28,-34.9065297269978,-56.1631955573459,16.076116,17.4212604,117.8375037708,135.2587641708,17.388452,5.144962,12.9646985776,24.7581044668,13,4,8.497,135.2587641708,16.076116,5.144962,12.9646985776,0.223694,-5.144962,-3.802798,272.7, -6.5, -0.1,0,0,1435,1024,1684,1024,62,0,100,0,289.1,0,0,99,4.233,4.226,0,0,0,0,4.362,69.8,135.2587641708,16.076116,6,P-GPS,
10600,2022-08-24 00:50:28,-34.9065295477778,-56.1631980871223,16.732284,18.1430452,117.7718869708,135.9149321708,18.04462,5.144962,13.7202760296,25.517881394,13,4,8.497,135.9149321708,16.732284,5.144962,13.7202760296,0.223694,-5.144962,-4.47388,272.7, -6.4, 0,0,0,1435,1024,1684,1024,62,0,100,0,289.1,0,0,99,4.233,4.226,0,0,0,0,4.362,69.8,135.9149321708,16.732284,6,P-GPS,
10700,2022-08-24 00:50:29,-34.9065293792648,-56.1632010046454,17.388452,18.8320216,117.7390785708,136.5711001708,18.700788,5.368656,14.59235611,26.3929798472,13,4,8.497,136.5711001708,17.388452,5.368656,14.59235611,0.223694,-5.368656,-5.144962,272.7, -6.3, 0,0,0,1438,1024,1684,1024,63,0,100,0,289.1,0,0,99,4.233,4.226,0,0,0,0,4.362,69.8,136.5711001708,17.388452,6,P-GPS,
10800,2022-08-24 00:50:29,-34.9065292591019,-56.1632038770791,18.372704,19.9146988,117.6406533708,137.5553521708,19.68504,5.59235,15.4514112556,27.2535441792,13,4,8.497,137.5553521708,18.372704,5.59235,15.4514112556,0.223694,-5.59235,-5.59235,272.6, -6.1, -0.1,0,0,1441,1024,1684,1024,63,0,100,0,289.1,0,0,99,4.233,4.226,0,0,0,0,4.362,69.8,137.5553521708,18.372704,6,P-GPS,
10900,2022-08-24 00:50:29,-34.9065293004269,-56.163207520864,19.028872,20.7021004,117.5094197708,138.2115201708,20.997376,5.816044,16.5417328128,28.3438985448,13,4,8.374,138.2115201708,19.028872,5.816044,16.5417328128,0.223694,-5.816044,-6.039738,272.6, -6.3, -0.1,0,0,1442,1024,1684,1024,63,0,100,0,289.1,0,0,99,4.193,4.19,0,0,0,0,5.187,69.8,138.2115201708,19.028872,6,P-GPS,
11000,2022-08-24 00:50:29,-34.9065292595351,-56.1632105990499,20.013124,21.7519692,117.4438029708,139.1957721708,21.981628,6.039738,17.4626317924,29.2650271832,13,4,8.374,139.1957721708,20.013124,6.039738,17.4626317924,0.223694,-6.039738,-6.263432,272.6, -6.4, 0.1,0,0,1442,1024,1684,1024,63,0,100,0,289.1,0,0,99,4.193,4.19,0,0,0,0,5.187,69.8,139.1957721708,20.013124,6,P-GPS,
11100,2022-08-24 00:50:29,-34.9065292055766,-56.1632139885749,20.997376,22.8346464,117.3453777708,140.1800241708,23.293964,6.039738,18.4766738196,30.2793972944,13,4,8.374,140.1800241708,20.997376,6.039738,18.4766738196,0.223694,-6.039738,-6.487126,272.6, -6.3, 0.1,0,0,1442,1024,1684,1024,63,0,100,0,289.1,0,0,99,4.193,4.19,0,0,0,0,5.187,69.8,140.1800241708,20.997376,6,P-GPS,
11200,2022-08-24 00:50:29,-34.9065291285658,-56.1632173827223,22.309712,24.2454076,117.2469525708,141.4923601708,24.6063,6.263432,19.492126608,31.2953422088,13,4,8.374,141.4923601708,22.309712,6.263432,19.492126608,0.223694,-6.263432,-6.487126,272.6, -6.4, 0.1,0,0,1444,1024,1684,1024,64,0,100,0,289.1,0,0,99,4.193,4.19,0,0,0,0,5.187,69.8,141.4923601708,22.309712,6,P-GPS,
11300,2022-08-24 00:50:29,-34.9065289696981,-56.1632220032239,23.293964,25.3608932,117.1157189708,142.4766121708,25.590552,6.263432,20.8745413504,32.6790692872,13,4,8.374,142.4766121708,23.293964,6.263432,20.8745413504,0.223694,-6.263432,-6.487126,272.6, -6.4, 0,0,0,1447,1024,1684,1024,64,0,100,0,289.1,0,0,99,4.193,4.19,0,0,0,0,5.187,69.8,142.4766121708,23.293964,6,P-GPS,
11400,2022-08-24 00:50:29,-34.9065288136003,-56.1632255706091,24.278216,26.4763788,116.9844853708,143.4608641708,26.902888,6.487126,21.9419954528,33.748032576,13,4,8.374,143.4608641708,24.278216,6.487126,21.9419954528,0.223694,-6.487126,-6.487126,272.6, -6.4, 0.1,0,0,1458,1024,1684,1024,66,0,100,0,289.1,0,0,99,4.193,4.19,0,0,0,0,5.187,69.8,143.4608641708,24.278216,6,P-GPS,
11500,2022-08-24 00:50:29,-34.9065286059363,-56.1632292798563,25.262468,27.559056,116.8860601708,144.4451161708,27.88714,6.71082,23.0521332836,34.860237336,13,4,8.374,144.4451161708,25.262468,6.71082,23.0521332836,0.223694,-6.71082,-6.487126,272.6, -6.6, 0,0,0,1458,1024,1684,1024,66,0,100,0,289.1,0,0,99,4.193,4.19,0,0,0,0,5.187,69.8,144.4451161708,25.262468,6,P-GPS,
11600,2022-08-24 00:50:29,-34.9065284367181,-56.1632328167275,26.24672,28.6089248,116.8204433708,145.4293681708,28.871392,6.71082,24.1107947348,35.920604824,13,4,8.374,145.4293681708,26.24672,6.71082,24.1107947348,0.223694,-6.71082,-6.487126,272.6, -6.8, 0,0,0,1463,1024,1684,1024,67,0,100,0,289.1,0,0,99,4.193,4.19,0,0,0,0,5.187,69.8,145.4293681708,26.24672,6,P-GPS,
11700,2022-08-24 00:50:30,-34.906528165123,-56.1632365267321,27.230972,29.7244104,116.6892097708,146.4136201708,29.52756,6.934514,25.2217527756,37.034778088,13,4,8.374,146.4136201708,27.230972,6.934514,25.2217527756,0.223694,-6.934514,-6.487126,272.6, -7.1, -0.1,0,0,1465,1024,1684,1024,67,0,100,0,289.1,0,0,99,4.193,4.19,0,0,0,0,5.187,69.8,146.4136201708,27.230972,6,P-GPS,
11800,2022-08-24 00:50:30,-34.906528041573,-56.1632400766509,28.215224,30.7742792,116.6235929708,147.3978721708,30.183728,6.934514,26.2843840432,38.098098332,13,4,8.374,147.3978721708,28.215224,6.934514,26.2843840432,0.223694,-6.934514,-6.487126,272.6, -7, -0.2,0,0,1466,1024,1684,1024,67,0,100,0,289.1,0,0,99,4.193,4.19,0,0,0,0,5.187,69.8,147.3978721708,28.215224,6,P-GPS,
11900,2022-08-24 00:50:30,-34.906527904769,-56.1632438162449,29.52756,32.2178488,116.4923593708,148.7102081708,31.16798,7.158208,27.403872268,39.218177108,13,4,8.37,148.7102081708,29.52756,7.158208,27.403872268,0.223694,-7.158208,-6.71082,272.6, -7.2, 0,0,0,1469,1024,1684,1024,67,0,100,0,289.1,0,0,99,4.153,4.15,0,0,0,0,5.006,69.8,148.7102081708,29.52756,6,P-GPS,
12000,2022-08-24 00:50:30,-34.9065278084351,-56.1632473987721,30.511812,33.300526,116.3939341708,149.6944601708,31.824148,7.158208,28.476214822,40.290683704,14,4,8.37,149.6944601708,30.511812,7.158208,28.476214822,0.223694,-7.158208,-6.71082,272.6, -7.3, 0,0,0,1469,1024,1684,1024,67,0,100,0,289.1,0,0,99,4.153,4.15,0,0,0,0,5.006,69.8,149.6944601708,30.511812,6,P-GPS,
12100,2022-08-24 00:50:30,-34.9065278643966,-56.1632506856456,31.496064,34.3832032,116.2955089708,150.6787121708,32.8084,7.381902,29.4592857196,41.274279536,14,4,8.37,150.6787121708,31.496064,7.381902,29.4592857196,0.223694,-7.381902,-6.71082,272.7, -7.3, 0.1,0,0,1470,1024,1684,1024,68,0,100,0,289.1,0,0,99,4.153,4.15,0,0,0,0,5.006,69.8,150.6787121708,31.496064,6,P-GPS,
12200,2022-08-24 00:50:30,-34.9065277993973,-56.1632543278008,32.480316,35.4658804,116.1970837708,151.6629641708,33.792652,7.381902,30.5492463844,42.364174584,14,4,8.37,151.6629641708,32.480316,7.381902,30.5492463844,0.223694,-7.381902,-6.71082,272.6, -7.3, 0,0,0,1470,1024,1684,1024,68,0,100,0,289.1,0,0,99,4.153,4.15,0,0,0,0,5.006,69.8,151.6629641708,32.480316,6,P-GPS,
12300,2022-08-24 00:50:30,-34.9065276838869,-56.1632582037672,33.464568,36.5485576,116.0986585708,152.6472161708,34.776904,7.605596,31.7094498336,43.524607692,14,4,8.37,152.6472161708,33.464568,7.605596,31.7094498336,0.223694,-7.605596,-6.71082,272.6, -7.4, 0,0,0,1470,1024,1684,1024,68,0,100,0,289.1,0,0,99,4.153,4.15,0,0,0,0,5.006,69.8,152.6472161708,33.464568,6,P-GPS,
12400,2022-08-24 00:50:30,-34.9065275782269,-56.1632618642976,34.44882,37.6640432,115.9674249708,153.6314681708,35.761156,7.605596,32.8051847768,44.620736336,15,4,8.37,153.6314681708,34.44882,7.605596,32.8051847768,0.223694,-7.605596,-6.71082,272.6, -7.5, 0,0,0,1475,1024,1684,1024,68,0,100,0,289.1,0,0,99,4.153,4.15,0,0,0,0,5.006,69.8,153.6314681708,34.44882,6,P-GPS,
12500,2022-08-24 00:50:30,-34.90652747698,-56.1632656427051,35.433072,38.713912,115.9018081708,154.6157201708,36.745408,7.82929,33.936024708,45.751969968,15,4,8.37,154.6157201708,35.433072,7.82929,33.936024708,0.223694,-7.82929,-6.71082,272.6, -7.5, 0,0,0,1478,1024,1684,1024,69,0,100,0,289.1,0,0,99,4.153,4.15,0,0,0,0,5.006,69.8,154.6157201708,35.433072,6,P-GPS,
12600,2022-08-24 00:50:30,-34.9065274519394,-56.1632683638438,36.745408,40.0918648,115.8361913708,155.9280561708,37.72966,7.82929,34.750329196,46.565946372,16,4,8.37,155.9280561708,36.745408,7.82929,34.750329196,0.223694,-7.82929,-6.71082,272.6, -7.7, 0.2,0,0,1484,1024,1684,1024,70,0,100,0,289.1,0,0,99,4.153,4.15,0,0,0,0,5.006,69.8,155.9280561708,36.745408,6,P-GPS,
12700,2022-08-24 00:50:31,-34.906527419268,-56.1632720779016,37.72966,41.2073504,115.7049577708,156.9123081708,38.713912,8.052984,35.861549704,47.677494964,16,4,8.37,156.9123081708,37.72966,8.052984,35.861549704,0.223694,-8.052984,-6.71082,272.6, -8.1, 0.4,0,0,1486,1024,1684,1024,70,0,100,0,289.1,0,0,99,4.153,4.15,0,0,0,0,5.006,69.8,156.9123081708,37.72966,6,P-GPS,
12800,2022-08-24 00:50:31,-34.9065274036675,-56.1632755940629,38.713912,42.322836,115.5737241708,157.8965601708,39.698164,8.052984,36.913715092,48.729332268,16,4,8.37,157.8965601708,38.713912,8.052984,36.913715092,0.223694,-8.052984,-6.71082,272.6, -8.2, 0.5,0,0,1485,1024,1684,1024,70,0,100,0,289.1,0,0,99,4.153,4.15,0,0,0,0,5.006,69.8,157.8965601708,38.713912,6,P-GPS,
12900,2022-08-24 00:50:31,-34.9065274257655,-56.1632791986529,39.698164,43.3727048,115.5081073708,158.8808121708,40.682416,8.276678,37.9921272,49.80807246,16,4,8.33,158.8808121708,39.698164,8.276678,37.9921272,0.223694,-8.276678,-6.71082,272.5, -8.4, 0.4,0,0,1486,1024,1684,1024,70,0,100,0,289.1,0,0,99,4.166,4.162,0,0,0,0,5.715,69.8,158.8808121708,39.698164,6,P-GPS,
13000,2022-08-24 00:50:31,-34.9065276596817,-56.1632814260638,40.682416,44.455382,115.4096821708,159.8650641708,41.666668,8.276678,38.657153468,50.479988492,16,4,8.33,159.8650641708,40.682416,8.276678,38.657153468,0.223694,-8.276678,-6.71082,272.6, -8.3, 0.6,0,0,1489,1024,1684,1024,70,0,100,0,289.1,0,0,99,4.166,4.162,0,0,0,0,5.715,69.8,159.8650641708,40.682416,6,P-GPS,
13100,2022-08-24 00:50:31,-34.9065276834618,-56.1632852477507,41.666668,45.5708676,115.2784485708,160.8493161708,42.65092,8.500372,39.800526208,51.623361232,16,4,8.33,160.8493161708,41.666668,8.500372,39.800526208,0.223694,-8.500372,-6.71082,272.6, -8.5, 0.4,0,0,1489,1024,1684,1024,70,0,100,0,289.1,0,0,99,4.166,4.162,0,0,0,0,5.715,69.8,160.8493161708,41.666668,6,P-GPS,
13200,2022-08-24 00:50:31,-34.9065277069603,-56.1632888556209,42.65092,46.6535448,115.1800233708,161.8335681708,43.635172,8.500372,40.879922568,52.703085676,16,4,8.33,161.8335681708,42.65092,8.500372,40.879922568,0.223694,-8.500372,-6.487126,272.6, -8.8, 0.2,0,0,1489,1024,1684,1024,70,0,100,0,289.1,0,0,99,4.166,4.162,0,0,0,0,5.715,69.8,161.8335681708,42.65092,6,P-GPS,
13300,2022-08-24 00:50:31,-34.9065277301868,-56.1632925494858,43.635172,47.7690304,115.0487897708,162.8178201708,43.963256,8.724066,41.98490948,53.808400672,16,4,8.33,162.8178201708,43.635172,8.724066,41.98490948,0.223694,-8.724066,-6.487126,272.6, -8.8, 0.7,0,0,1489,1024,1684,1024,70,0,100,0,289.1,0,0,99,4.166,4.162,0,0,0,0,5.715,69.8,162.8178201708,43.635172,6,P-GPS,
13400,2022-08-24 00:50:31,-34.9065278853238,-56.1632948951603,44.619424,48.8188992,114.9831729708,163.8020721708,43.963256,8.94776,42.686353072,54.512468936,16,4,8.33,163.8020721708,44.619424,8.94776,42.686353072,0.223694,-8.94776,-6.487126,272.6, -8.4, 1,0,0,1489,1024,1684,1024,70,0,100,0,289.1,0,0,99,4.166,4.162,0,0,0,0,5.715,69.8,163.8020721708,44.619424,6,P-GPS,
13500,2022-08-24 00:50:31,-34.9065278995938,-56.1632987774363,45.603676,49.9015764,114.8847477708,164.7863241708,43.963256,9.171454,43.847770432,55.673886296,16,4,8.33,164.7863241708,45.603676,9.171454,43.847770432,0.223694,-9.171454,-6.487126,272.6, -7.6, 1.1,0,0,1489,1024,1684,1024,70,0,100,0,289.1,0,0,99,4.166,4.162,0,0,0,0,5.715,69.8,164.7863241708,45.603676,6,P-GPS,
13600,2022-08-24 00:50:31,-34.9065279018753,-56.1633025445199,46.587928,51.017062,114.7535141708,165.7705761708,43.963256,9.171454,44.974738972,56.80118292,16,4,8.33,165.7705761708,46.587928,9.171454,44.974738972,0.223694,-9.171454,-6.487126,272.6, -7.3, 0.8,0,0,1490,1024,1684,1024,71,0,100,0,289.1,0,0,99,4.166,4.162,0,0,0,0,5.715,69.8,165.7705761708,46.587928,6,P-GPS,
13700,2022-08-24 00:50:32,-34.9065278888331,-56.1633066099734,47.57218,52.1325476,114.6222805708,166.7548281708,43.963256,9.395148,46.191274444,58.017718392,16,4,8.33,166.7548281708,47.57218,9.395148,46.191274444,0.447388,-9.395148,-6.71082,272.5, -7.2, 0.4,0,0,1490,1024,1684,1024,71,0,100,0,289.1,0,0,99,4.166,4.162,0,0,0,0,5.715,69.8,166.7548281708,47.57218,6,P-GPS,
13800,2022-08-24 00:50:32,-34.9065278599119,-56.163310173133,48.556432,53.1824164,114.5566637708,167.7390801708,43.963256,9.395148,47.257547444,59.083663308,16,4,8.33,167.7390801708,48.556432,9.395148,47.257547444,0.447388,-9.395148,-6.71082,272.5, -7.1, 0.1,0,0,1491,1024,1684,1024,71,0,100,0,289.1,0,0,99,4.166,4.162,0,0,0,0,5.715,69.8,167.7390801708,48.556432,6,P-GPS,
13900,2022-08-24 00:50:32,-34.9065278349951,-56.163314250276,49.540684,54.297902,114.4254301708,168.7233321708,43.963256,9.395148,48.477363756,60.303807704,16,4,8.326,168.7233321708,49.540684,9.395148,48.477363756,0.447388,-9.395148,-6.71082,272.6, -7.1, 0.5,0,0,1492,1024,1684,1024,71,0,100,0,289.1,0,0,99,4.166,4.164,0,0,0,0,5.359,69.98,168.7233321708,49.540684,6,P-GPS,
14000,2022-08-24 00:50:32,-34.9065278117018,-56.1633181381199,50.524936,55.3805792,114.3270049708,169.7075841708,43.963256,9.618842,49.64074962,61.466865484,16,4,8.326,169.7075841708,50.524936,9.618842,49.64074962,0.223694,-9.618842,-6.71082,272.6, -7.4, 0.1,0,0,1492,1024,1684,1024,71,0,100,0,289.1,0,0,99,4.166,4.164,0,0,0,0,5.359,69.98,169.7075841708,50.524936,6,P-GPS,
14100,2022-08-24 00:50:32,-34.9065277867557,-56.1633222186266,51.509188,56.4960648,114.1957713708,170.6918361708,43.963256,9.618842,50.861550184,62.687994132,16,4,8.326,170.6918361708,51.509188,9.618842,50.861550184,0.447388,-9.618842,-6.71082,272.6, -7.6, 0.4,0,0,1493,1024,1684,1024,71,0,100,0,289.1,0,0,99,4.166,4.164,0,0,0,0,5.359,69.98,170.6918361708,51.509188,6,P-GPS,
14200,2022-08-24 00:50:32,-34.9065277529671,-56.163326153333,52.49344,57.6115504,114.0645377708,171.6760881708,43.963256,9.618842,52.03904366,63.865159524,16,4,8.326,171.6760881708,52.49344,9.618842,52.03904366,0.447388,-9.618842,-6.71082,272.6, -7.8, 0.1,0,0,1493,1024,1684,1024,71,0,100,0,289.1,0,0,99,4.166,4.164,0,0,0,0,5.359,69.98,171.6760881708,52.49344,6,P-GPS,
14300,2022-08-24 00:50:32,-34.9065276515085,-56.163330152034,53.805776,59.0223116,113.9661125708,172.9884241708,43.963256,9.842536,53.235566008,65.06233804,16,4,8.326,172.9884241708,53.805776,9.842536,53.235566008,0.447388,-9.842536,-6.487126,272.7, -7.9, 0,0,0,1494,1024,1684,1024,71,0,100,0,289.1,0,0,99,4.166,4.164,0,0,0,0,5.359,69.98,172.9884241708,53.805776,6,P-GPS,
14400,2022-08-24 00:50:32,-34.906527601486,-56.163334197608,54.790028,60.1049888,113.8676873708,173.9726761708,43.963256,9.842536,54.446195968,66.272968,16,4,8.326,173.9726761708,54.790028,9.842536,54.446195968,0.447388,-9.842536,-6.487126,272.6, -7.6, 0.4,0,0,1494,1024,1684,1024,71,0,100,0,289.1,0,0,99,4.166,4.164,0,0,0,0,5.359,69.98,173.9726761708,54.790028,6,P-GPS,
14500,2022-08-24 00:50:32,-34.9065275453682,-56.1633384369208,55.77428,61.1548576,113.8020705708,174.9569281708,43.963256,10.06623,55.714896796,67.541668828,16,4,8.326,174.9569281708,55.77428,10.06623,55.714896796,0.447388,-10.06623,-6.487126,272.6, -7.4, 0.3,0,0,1495,1024,1684,1024,71,0,100,0,289.1,0,0,99,4.166,4.164,0,0,0,0,5.359,69.98,174.9569281708,55.77428,6,P-GPS,
14600,2022-08-24 00:50:32,-34.9065274933198,-56.1633424747226,56.758532,62.1391096,113.8020705708,175.9411801708,43.963256,10.06623,56.923230168,68.749674116,16,4,8.326,175.9411801708,56.758532,10.06623,56.923230168,0.447388,-10.06623,-6.487126,272.6, -7.4, 0.3,0,0,1494,1024,1684,1024,71,0,100,0,289.1,0,0,99,4.166,4.164,0,0,0,0,5.359,69.98,175.9411801708,56.758532,6,P-GPS,
14700,2022-08-24 00:50:33,-34.9065273747105,-56.1633462574863,57.742784,63.1889784,113.7364537708,176.9254321708,43.963256,10.06623,58.055448052,69.882548168,16,4,8.326,176.9254321708,57.742784,10.06623,58.055448052,0.447388,-10.06623,-6.487126,272.6, -7.5, 0.3,0,0,1495,1024,1684,1024,71,0,100,0,289.1,0,0,99,4.166,4.164,0,0,0,0,5.359,69.98,176.9254321708,57.742784,6,P-GPS,
14800,2022-08-24 00:50:33,-34.9065273240431,-56.1633503535372,58.727036,64.2060388,113.7036453708,177.9096841708,43.963256,10.289924,59.280841792,71.108269992,16,4,8.326,177.9096841708,58.727036,10.289924,59.280841792,0.447388,-10.289924,-6.487126,272.5, -7.4, 0.2,0,0,1495,1024,1684,1024,71,0,100,0,289.1,0,0,99,4.166,4.164,0,0,0,0,5.359,69.98,177.9096841708,58.727036,6,P-GPS,
14900,2022-08-24 00:50:33,-34.9065272765446,-56.1633547992916,59.711288,65.2559076,113.6380285708,178.8939361708,43.963256,10.289924,60.611222412,72.438650612,16,4,8.314,178.8939361708,59.711288,10.289924,60.611222412,0.447388,-10.289924,-6.487126,272.5, -7.5, 0.2,0,0,1495,1024,1684,1024,71,0,100,0,289.1,0,0,99,4.164,4.16,0,0,0,0,5.339,69.98,178.8939361708,59.711288,6,P-GPS,
15000,2022-08-24 00:50:33,-34.9065272389325,-56.1633590120287,60.69554,66.272968,113.6052201708,179.8781881708,43.963256,10.289924,61.87172114,73.69914934,16,4,8.314,179.8781881708,60.69554,10.289924,61.87172114,0.447388,-10.289924,-6.487126,272.5, -7.6, 0,0,0,1495,1024,1684,1024,71,0,100,0,289.1,0,0,99,4.164,4.16,0,0,0,0,5.339,69.98,179.8781881708,60.69554,6,P-GPS,
15100,2022-08-24 00:50:33,-34.9065271899945,-56.1633632993739,61.679792,67.3228368,113.5396033708,180.8624401708,43.963256,10.513618,63.154857664,74.98195778,16,4,8.314,180.8624401708,61.679792,10.513618,63.154857664,0.447388,-10.513618,-6.487126,272.5, -7.7, 0,0,0,1494,1024,1684,1024,71,0,100,0,289.1,0,0,99,4.164,4.16,0,0,0,0,5.339,69.98,180.8624401708,61.679792,6,P-GPS,
15200,2022-08-24 00:50:33,-34.906527167403,-56.1633675440561,62.664044,68.3727056,113.4739865708,181.8466921708,43.963256,10.513618,64.424870828,76.251970944,16,5,8.314,181.8466921708,62.664044,10.513618,64.424870828,0.223694,-10.513618,-6.487126,272.5, -7.6, 0.6,0,0,1494,1024,1684,1024,71,0,100,0,289.1,0,0,99,4.164,4.16,0,0,0,0,5.339,69.98,181.8466921708,62.664044,6,P-GPS,
15300,2022-08-24 00:50:33,-34.9065271487036,-56.1633721736461,63.648296,69.389766,113.4411781708,182.8309441708,43.963256,10.513618,65.810041476,77.637469676,16,5,8.314,182.8309441708,63.648296,10.513618,65.810041476,0.223694,-10.513618,-6.71082,272.6, -7.3, 0.8,0,0,1495,1024,1684,1024,71,0,100,0,289.1,0,0,99,4.164,4.16,0,0,0,0,5.339,69.98,182.8309441708,63.648296,6,P-GPS,
15400,2022-08-24 00:50:33,-34.9065271100151,-56.1633766246027,64.632548,70.4396348,113.3755613708,183.8151961708,43.963256,10.513618,67.142062516,78.969162632,16,5,8.314,183.8151961708,64.632548,10.513618,67.142062516,0.223694,-10.513618,-6.71082,272.6, -7.2, 1,0,0,1495,1024,1684,1024,71,0,100,0,289.1,0,0,99,4.164,4.16,0,0,0,0,5.339,69.98,183.8151961708,64.632548,6,P-GPS,
15500,2022-08-24 00:50:33,-34.9065269072461,-56.163381628842,65.6168,71.4895036,113.3099445708,184.7994481708,43.963256,10.737312,68.639765976,80.468178428,16,5,8.314,184.7994481708,65.6168,10.737312,68.639765976,0.447388,-10.737312,-6.71082,272.6, -7.1, 0.9,0,0,1495,1024,1684,1024,71,0,100,0,289.1,0,0,99,4.164,4.16,0,0,0,0,5.339,69.98,184.7994481708,65.6168,6,P-GPS,
15600,2022-08-24 00:50:34,-34.906526834111,-56.1633861276431,66.601052,72.506564,113.2771361708,185.7837001708,43.963256,10.737312,69.986222712,81.814635164,16,5,8.314,185.7837001708,66.601052,10.737312,69.986222712,0.447388,-10.737312,-6.71082,272.6, -7.1, 0.8,0,0,1495,1024,1684,1024,71,0,100,0,289.1,0,0,99,4.164,4.16,0,0,0,0,5.339,69.98,185.7837001708,66.601052,6,P-GPS,
15700,2022-08-24 00:50:34,-34.9065267793383,-56.1633908998263,67.585304,73.5564328,113.2115193708,186.7679521708,43.963256,10.737312,71.414372364,83.242784816,16,5,8.314,186.7679521708,67.585304,10.737312,71.414372364,0.447388,-10.737312,-6.71082,272.6, -7.2, 0.7,0,0,1497,1024,1684,1024,72,0,100,0,289.1,0,0,99,4.164,4.16,0,0,0,0,5.339,69.98,186.7679521708,67.585304,6,P-GPS,
15800,2022-08-24 00:50:34,-34.9065267178743,-56.163395522835,68.569556,74.6063016,113.1459025708,187.7522041708,43.963256,10.737312,72.797574508,84.62598696,16,5,8.314,187.7522041708,68.569556,10.737312,72.797574508,0.447388,-10.737312,-6.71082,272.6, -7.1, 1,0,0,1497,1024,1684,1024,72,0,100,0,289.1,0,0,99,4.164,4.16,0,0,0,0,5.339,69.98,187.7522041708,68.569556,6,P-GPS,
15900,2022-08-24 00:50:34,-34.9065266210226,-56.1634005341152,69.553808,75.6561704,113.0802857708,188.7364561708,43.963256,10.737312,74.297246472,86.125987008,16,5,8.316,188.7364561708,69.553808,10.737312,74.297246472,0.447388,-10.961006,-6.487126,272.6, -7, 0.8,0,0,1498,1024,1684,1024,72,0,100,0,289.1,0,0,99,4.155,4.15,0,0,0,0,5.279,69.98,188.7364561708,69.553808,6,P-GPS,
16000,2022-08-24 00:50:34,-34.9065264270994,-56.1634057497059,70.209976,76.3451468,113.0474773708,189.3926241708,43.963256,10.961006,75.858598228,87.687994932,16,5,8.316,189.3926241708,70.209976,10.961006,75.858598228,0.223694,-10.961006,-6.487126,272.6, -7.1, 1,0,0,1497,1024,1684,1024,72,0,100,0,289.1,0,0,99,4.155,4.15,0,0,0,0,5.279,69.98,189.3926241708,70.209976,6,P-GPS,
16100,2022-08-24 00:50:34,-34.9065263225256,-56.1634107727069,71.194228,77.3622072,113.0146689708,190.3768761708,43.963256,10.961006,77.361879116,89.191603904,16,5,8.316,190.3768761708,71.194228,10.961006,77.361879116,0.223694,-10.961006,-6.487126,272.6, -7.3, 0.8,0,0,1498,1024,1684,1024,72,0,100,0,289.1,0,0,99,4.155,4.15,0,0,0,0,5.279,69.98,190.3768761708,71.194228,6,P-GPS,
16200,2022-08-24 00:50:34,-34.9065262009004,-56.1634156681784,72.17848,78.412076,112.9490521708,191.3611281708,43.963256,10.961006,78.82710226,90.656827048,18,5,8.316,191.3611281708,72.17848,10.961006,78.82710226,0.447388,-10.961006,-6.487126,272.6, -7.3, 0.6,0,0,1498,1024,1684,1024,72,0,100,0,289.1,0,0,99,4.155,4.15,0,0,0,0,5.279,69.98,191.3611281708,72.17848,6,P-GPS,
16300,2022-08-24 00:50:34,-34.9065260382709,-56.1634210054487,73.162732,79.4619448,112.8834353708,192.3453801708,43.963256,10.961006,80.424543256,92.254924212,18,5,8.316,192.3453801708,73.162732,10.961006,80.424543256,0.447388,-10.961006,-6.487126,272.6, -7.3, 0.8,0,0,1497,1024,1684,1024,72,0,100,0,289.1,0,0,99,4.155,4.15,0,0,0,0,5.279,69.98,192.3453801708,73.162732,6,P-GPS,
16400,2022-08-24 00:50:34,-34.9065256632728,-56.1634267857295,74.146984,80.5118136,112.8178185708,193.3296321708,43.963256,10.961006,82.155842524,93.989832404,18,5,8.316,193.3296321708,74.146984,10.961006,82.155842524,0.223694,-10.961006,-6.487126,272.6, -7.3, 0.8,0,0,1498,1024,1684,1024,72,0,100,0,289.1,0,0,99,4.155,4.15,0,0,0,0,5.279,69.98,193.3296321708,74.146984,6,P-GPS,
