time(millisecond),datetime(utc),latitude,longitude,height_above_takeoff(feet),height_above_ground_at_drone_location(feet),ground_elevation_at_drone_location(feet),altitude_above_seaLevel(feet),height_sonar(feet),speed(mph),distance(feet),mileage(feet),satellites,gpslevel,voltage(v),max_altitude(feet),max_ascent(feet),max_speed(mph),max_distance(feet), xSpeed(mph), ySpeed(mph), zSpeed(mph), compass_heading(degrees), pitch(degrees), roll(degrees),isPhoto,isVideo,rc_elevator,rc_aileron,rc_throttle,rc_rudder,rc_elevator(percent),rc_aileron(percent),rc_throttle(percent),rc_rudder(percent),gimbal_heading(degrees),gimbal_pitch(degrees),gimbal_roll(degrees),battery_percent,voltageCell1,voltageCell2,voltageCell3,voltageCell4,voltageCell5,voltageCell6,current(A),battery_temperature(f),altitude(feet),ascent(feet),flycStateRaw,flycState,message
0,2022-10-28 21:07:39,-34.9256889405577,-56.1555328359607,0,0,35.688139921548,35.688139921548,0,0,0,0,16,4,0,35.688139921548,0,0,0,0,0,0,142.6, -4.1, 0.4,0,0,1024,1024,1024,1024,0,0,0,0,151.6,0,0,100,4.346,4.344,0,0,0,0,0,85.46,35.688139921548,0,41,Motors_Started,"Aeronave en Zona de altitud restringida (150). Vuela con precauci贸n (Code: 190001). Error de calibraci贸n del estabilizador. Reinicia la aeronave o contacta con la Asistencia DJI (Code: 40011)"
100,2022-10-28 21:07:39,-34.9256889468201,-56.1555327682455,0,0,35.688139921548,35.688139921548,0,0,0.02038467913,0.02038467913,16,4,0,35.688139921548,0,0,0.02038467913,0,0,0,143, -3.8, 0.3,0,0,364,364,364,1684,-100,-100,-100,100,153,0,0,100,4.346,4.344,0,0,0,0,0,85.46,35.688139921548,0,41,Motors_Started,
200,2022-10-28 21:07:39,-34.925688936946,-56.1555328413373,0,0,35.688139921548,35.688139921548,0.328084,0,0.0020792159458,0.042543964616,16,4,0,35.688139921548,0,0,0.02038467913,0,0,0,142.5, -3.8, 0.6,0,0,364,364,364,1684,-100,-100,-100,100,153.3,0,0,100,4.346,4.344,0,0,0,0,0,85.46,35.688139921548,0,41,Motors_Started,
300,2022-10-28 21:07:39,-34.9256886700389,-56.1555329773605,0,0,35.688139921548,35.688139921548,0.328084,0,0.10738025278,0.14808399424,16,4,0,35.688139921548,0,0,0.10738025278,0,0,0,143.9, -4.1, -0.3,0,0,364,364,364,1684,-100,-100,-100,100,153.5,0,0,100,4.346,4.344,0,0,0,0,0,85.46,35.688139921548,0,41,Motors_Started,
400,2022-10-28 21:07:39,-34.9256886719359,-56.1555331291569,0,0,35.688139921548,35.688139921548,0.328084,0,0.1315206735,0.19349738152,16,4,0,35.688139921548,0,0,0.1315206735,0,0,0,142.8, -4.2, 0.2,0,0,364,364,364,1684,-100,-100,-100,100,153.7,0,0,100,4.346,4.344,0,0,0,0,0,85.46,35.688139921548,0,41,Motors_Started,
500,2022-10-28 21:07:39,-34.925688676262,-56.1555332880596,0,0,35.688139921548,35.688139921548,0.328084,0,0.166097118176,0.241057422412,16,4,0,35.688139921548,0,0,0.166097118176,0,0,0,142.8, -4.7, 0.2,0,0,364,364,364,1684,-100,-100,-100,100,153.5,0,0,100,4.346,4.344,0,0,0,0,0,85.46,35.688139921548,0,41,Motors_Started,
600,2022-10-28 21:07:39,-34.9256886647532,-56.1555334501647,0,0,35.688139921548,35.688139921548,0.328084,0,0.20948327442,0.2897309804,16,4,0,35.688139921548,0,0,0.20948327442,0,0,0,143.3, -5.7, -0.3,0,0,364,364,364,1684,-100,-100,-100,100,153.5,0,0,100,4.346,4.344,0,0,0,0,0,85.46,35.688139921548,0,41,Motors_Started,
700,2022-10-28 21:07:39,-34.9256886099939,-56.1555340711535,0,-0.065616799999999,35.753756721548,35.688139921548,0.328084,0,0.38867783396,0.47656497588,16,4,0,35.688139921548,0,0,0.38867783396,0,0,0,143.3, -5.2, 0.4,0,0,364,364,364,1684,-100,-100,-100,100,153.6,0,0,100,4.346,4.344,0,0,0,0,0,85.46,35.688139921548,0,41,Motors_Started,
800,2022-10-28 21:07:40,-34.9256886264013,-56.155534245066,0,-0.065616799999999,35.753756721548,35.688139921548,0.328084,0,0.43682416096,0.52893046312,16,4,0,35.688139921548,0,0,0.43682416096,0,0,0,143.2, -5.5, 0,0,0,364,364,364,1684,-100,-100,-100,100,153.7,0,0,100,4.346,4.344,0,0,0,0,0,85.46,35.688139921548,0,41,Motors_Started,"Setting new Return-To-Home altitude to 100m (328 ft). Data Recorder File Index is 66. Setting new Maximum Flight Altitude to 120m (394 ft)"
900,2022-10-28 21:07:40,-34.9256886362003,-56.1555343972023,0,-0.065616799999999,35.753756721548,35.688139921548,0.328084,0,0.48004594712,0.57458007088,16,4,0,35.688139921548,0,0,0.48004594712,0,0,0,143.6, -5.2, 0,0,0,364,364,364,1684,-100,-100,-100,100,153.8,0,0,100,4.346,4.344,0,0,0,0,0,85.46,35.688139921548,0,41,Motors_Started,
1000,2022-10-28 21:07:40,-34.9256886295184,-56.1555345697708,0,-0.1312336,35.819373521548,35.688139921548,0.328084,0,0.53091865216,0.62625986256,16,4,0,35.688139921548,0,0,0.53091865216,0,0,0,143.3, -4.8, -0.2,0,0,364,364,364,1684,-100,-100,-100,100,153.8,0,0,100,4.346,4.344,0,0,0,0,0,85.46,35.688139921548,0,41,Motors_Started,
1100,2022-10-28 21:07:40,-34.925688619133,-56.1555347162756,0,-0.1312336,35.819373521548,35.688139921548,0.328084,0,0.57457022836,0.67024936528,16,4,8.704,35.688139921548,0,0,0.57457022836,0,0,0,143.9, -4.8, -0.5,0,0,364,364,364,1684,-100,-100,-100,100,154,0,0,100,4.346,4.344,0,0,0,0,0.92,85.46,35.688139921548,0,10,Assisted_Takeoff,
1200,2022-10-28 21:07:40,-34.9256885719307,-56.1555348407546,0,-0.1312336,35.819373521548,35.688139921548,0.328084,0,0.61460631888,0.71127626948,16,4,8.704,35.688139921548,0,0,0.61460631888,0,0,0,143.6, -4.5, -0.2,0,0,364,364,364,1684,-100,-100,-100,100,154.2,0,0,100,4.346,4.344,0,0,0,0,0.92,85.46,35.688139921548,0,10,Assisted_Takeoff,
1300,2022-10-28 21:07:40,-34.925688530503,-56.1555349274517,0,-0.1312336,35.819373521548,35.688139921548,0.328084,0,0.64328414132,0.74129267464,16,4,8.704,35.688139921548,0,0,0.64328414132,0,0,0,143.6, -5, -0.9,0,0,364,364,364,1684,-100,-100,-100,100,154.1,0,0,100,4.346,4.344,0,0,0,0,0.92,85.46,35.688139921548,0,10,Assisted_Takeoff,
1400,2022-10-28 21:07:40,-34.9256885066522,-56.1555349382902,0,-0.1312336,35.819373521548,35.688139921548,0.328084,0,0.6485072386,0.75057745184,16,4,8.704,35.688139921548,0,0,0.6485072386,0,0,0,143.9, -5.2, -1.1,0,0,364,364,364,1684,-100,-100,-100,100,154.1,0,0,100,4.346,4.344,0,0,0,0,0.92,85.46,35.688139921548,0,10,Assisted_Takeoff,
1500,2022-10-28 21:07:40,-34.9256884825637,-56.1555349515656,0,-0.2296588,35.917798721548,35.688139921548,0.328084,0,0.65454726504,0.76022312144,16,4,8.704,35.688139921548,0,0,0.65454726504,0,0,0,143.7, -5.6, -1.5,0,0,364,364,364,1684,-100,-100,-100,100,154.1,0,0,100,4.346,4.344,0,0,0,0,0.92,85.46,35.688139921548,0,10,Assisted_Takeoff,
1600,2022-10-28 21:07:40,-34.9256884144711,-56.1555349509018,-0.328084,-0.5577428,35.917798721548,35.360055921548,0.328084,0,0.66113519176,0.78506892276,16,4,8.704,35.688139921548,0,0,0.66113519176,0,0,0,144.1, -6, -1.4,0,0,364,364,364,1684,-100,-100,-100,100,154.2,0,0,100,4.346,4.344,0,0,0,0,0.92,85.46,35.360055921548,-0.328084,10,Assisted_Takeoff,
1700,2022-10-28 21:07:41,-34.9256883814482,-56.1555350040058,-0.328084,-0.5577428,35.917798721548,35.360055921548,0.328084,0,0.67986878816,0.80500658744,17,5,8.704,35.688139921548,0,0,0.67986878816,0,0,0,143.6, -6.2, -1.3,0,0,364,364,364,1684,-100,-100,-100,100,154.1,0,0,100,4.346,4.344,0,0,0,0,0.92,85.46,35.360055921548,-0.328084,10,Assisted_Takeoff,
1800,2022-10-28 21:07:41,-34.9256884137998,-56.1555350385379,-0.328084,-0.5577428,35.917798721548,35.360055921548,0.328084,0,0.68633204296,0.82068900264,17,5,8.704,35.688139921548,0,0,0.68633204296,0,0,0,143.4, -6.1, -1.1,0,0,364,364,364,1684,-100,-100,-100,100,154,0,0,100,4.346,4.344,0,0,0,0,0.92,85.46,35.360055921548,-0.328084,10,Assisted_Takeoff,
1900,2022-10-28 21:07:41,-34.9256884461369,-56.155535093158,-0.328084,-0.5577428,35.917798721548,35.360055921548,0.328084,0,0.69889437932,0.84084320276,17,5,8.704,35.688139921548,0,0,0.69889437932,0,0,0,143.8, -6.1, -1.1,0,0,364,364,364,1684,-100,-100,-100,100,153.9,0,0,100,4.346,4.344,0,0,0,0,0.92,85.46,35.360055921548,-0.328084,10,Assisted_Takeoff,
2000,2022-10-28 21:07:41,-34.9256886011185,-56.1555351726431,-0.328084,-0.4593176,35.819373521548,35.360055921548,0.328084,0,0.70987863164,0.90218506824,17,5,8.704,35.688139921548,0,0,0.70987863164,0,0,0,143.4, -6, -1,0,0,364,364,364,1684,-100,-100,-100,100,153.9,0,0,100,4.346,4.344,0,0,0,0,0.92,85.46,35.360055921548,-0.328084,10,Assisted_Takeoff,
2100,2022-10-28 21:07:41,-34.9256885983487,-56.1555352623546,-0.328084,-0.4593176,35.819373521548,35.360055921548,0.328084,0,0.73648624404,0.92903874364,17,5,8.694,35.688139921548,0,0,0.73648624404,0,0,0,143, -5.9, -1.3,0,0,480,408,364,1684,-82,-93,-100,100,153.6,0,0,100,4.351,4.349,0,0,0,0,1.399,85.46,35.360055921548,-0.328084,10,Assisted_Takeoff,
2200,2022-10-28 21:07:41,-34.9256885172478,-56.1555353447659,-0.328084,-0.4593176,35.819373521548,35.360055921548,0.328084,0,0.7662073736,0.9675525244,17,5,8.694,35.688139921548,0,0,0.7662073736,0,0,-0.223694,143, -4.9, -1.2,0,0,480,408,364,1684,-82,-93,-100,100,153.4,0,0,100,4.351,4.349,0,0,0,0,1.399,85.46,35.360055921548,-0.328084,10,Assisted_Takeoff,
2300,2022-10-28 21:07:41,-34.9256884487605,-56.1555354245267,-0.328084,-0.5577428,35.917798721548,35.360055921548,0.328084,0,0.79485566848,1.00210305044,17,5,8.694,35.688139921548,0,0,0.79485566848,0,0,0,143.1, -4.1, -1.2,0,0,1024,1024,1024,1482,0,0,0,69,153.2,0,0,100,4.351,4.349,0,0,0,0,1.399,85.46,35.360055921548,-0.328084,10,Assisted_Takeoff,
2400,2022-10-28 21:07:41,-34.925688339666,-56.1555355768456,-0.328084,-0.5905512,35.950607121548,35.360055921548,0.328084,0,0.84870737624,1.06260502088,17,5,8.694,35.688139921548,0,0,0.84870737624,0,0,0,143, -4.4, -1.3,0,0,1024,1024,1035,1024,0,0,2,0,153.3,0,0,100,4.351,4.349,0,0,0,0,1.399,85.46,35.360055921548,-0.328084,10,Assisted_Takeoff,
2500,2022-10-28 21:07:41,-34.925688329245,-56.1555356528001,-0.328084,-0.5905512,35.950607121548,35.360055921548,0.328084,0,0.87164372868,1.08563979852,17,5,8.694,35.688139921548,0,0,0.87164372868,0,0,0,143, -4.4, -0.9,0,0,1024,1024,1362,1024,0,0,51,0,153.3,0,0,100,4.351,4.349,0,0,0,0,1.399,85.46,35.360055921548,-0.328084,10,Assisted_Takeoff,
2600,2022-10-28 21:07:41,-34.9256883376692,-56.1555357581053,-0.328084,-0.5905512,35.950607121548,35.360055921548,0.328084,0,0.90137470076,1.117290062,17,5,8.694,35.688139921548,0,0,0.90137470076,0,0,0,142.8, -4, -0.7,0,0,1024,1024,1539,1024,0,0,78,0,153.3,0,0,100,4.351,4.349,0,0,0,0,1.399,85.46,35.360055921548,-0.328084,10,Assisted_Takeoff,
2700,2022-10-28 21:07:42,-34.9256883367153,-56.1555358575607,-0.328084,-0.5905512,35.950607121548,35.360055921548,0.328084,0,0.93033795628,1.14704399996,17,5,8.694,35.688139921548,0,0,0.93033795628,0,0,0,142.9, -3.1, -0.7,0,0,1024,1024,1684,1024,0,0,100,0,153.2,0,0,100,4.351,4.349,0,0,0,0,1.399,85.46,35.360055921548,-0.328084,10,Assisted_Takeoff,
2800,2022-10-28 21:07:42,-34.925688358073,-56.1555359148983,-0.328084,-0.5905512,35.950607121548,35.360055921548,0.328084,0,0.94522968904,1.16588258324,17,5,8.694,35.688139921548,0,0,0.94522968904,0,0,0,143.1, -2.2, -0.4,0,0,1024,1024,1684,1024,0,0,100,0,153.2,0,0,100,4.351,4.349,0,0,0,0,1.399,85.46,35.360055921548,-0.328084,10,Assisted_Takeoff,
2900,2022-10-28 21:07:42,-34.9256883345415,-56.1555359951562,-0.328084,-0.5905512,35.950607121548,35.360055921548,0.328084,0,0.97055777384,1.19138127172,17,5,8.694,35.688139921548,0,0,0.97055777384,0,0,0,143.4, -1.4, -1.1,0,0,1024,1024,1684,1024,0,0,100,0,153.3,0,0,100,4.351,4.349,0,0,0,0,1.399,85.46,35.360055921548,-0.328084,10,Assisted_Takeoff,
3000,2022-10-28 21:07:42,-34.9256883206575,-56.1555361064302,0,-0.2624672,35.950607121548,35.688139921548,0.328084,0,1.00412404788,1.2250492518,17,5,8.694,35.688139921548,0,0,1.00412404788,0,0,0,143.5, -1, -0.6,0,0,1024,1024,1606,1024,0,0,88,0,153.6,0,0,100,4.351,4.349,0,0,0,0,1.399,85.46,35.688139921548,0,10,Assisted_Takeoff,
3100,2022-10-28 21:07:42,-34.9256883201026,-56.1555361644911,0,-0.2624672,35.950607121548,35.688139921548,0.328084,0,1.02109911404,1.24241801876,17,5,8.694,35.688139921548,0,0,1.02109911404,0,0,0,141.4, -1.9, -1.5,0,0,1024,1024,1606,1024,0,0,88,0,152.5,0,0,100,4.334,4.329,0,0,0,0,1.399,85.46,35.688139921548,0,10,Assisted_Takeoff,
3200,2022-10-28 21:07:42,-34.92568830335,-56.1555361994018,0,-0.2624672,35.950607121548,35.688139921548,0.328084,0,1.03264439,1.25451775668,17,5,8.694,35.688139921548,0,0,1.03264439,0,0,0,139.5, -1.7, -3.2,0,0,1024,1024,1604,1024,0,0,88,0,150.4,0,0,100,4.334,4.329,0,0,0,0,1.399,85.46,35.688139921548,0,10,Assisted_Takeoff,
3300,2022-10-28 21:07:42,-34.9256883211023,-56.1555362503087,0,-0.2624672,35.950607121548,35.688139921548,0.328084,0.223694,1.04606958728,1.27106631364,17,5,8.694,35.688139921548,0,0.223694,1.04606958728,0,0.223694,-0.447388,139, -1.7, -3.2,0,0,1024,1024,1405,1024,0,0,58,0,149.6,0,0,100,4.334,4.329,0,0,0,0,1.399,85.46,35.688139921548,0,6,P-GPS,"Error de calibraci贸n del estabilizador. Reinicia la aeronave o contacta con la Asistencia DJI (Code: 40011)"
3400,2022-10-28 21:07:42,-34.9256882560477,-56.1555361465197,0,-0.2624672,35.950607121548,35.688139921548,0.656168,0.447388,1.02131893032,1.31014767972,17,5,8.694,35.688139921548,0,0.447388,1.04606958728,0,0.447388,-1.11847,139, -0.4, 0.1,0,0,1024,1024,1024,1024,0,0,0,0,149.6,0,0,100,4.334,4.329,0,0,0,0,1.399,85.46,35.688139921548,0,6,P-GPS,
3500,2022-10-28 21:07:42,-34.9256881721563,-56.1555359922804,0,-0.2624672,35.950607121548,35.688139921548,0.984252,0.447388,0.98491801052,1.36551513556,17,5,8.694,35.688139921548,0,0.447388,1.04606958728,0,0.447388,-1.565858,139.3, 0.6, 2.5,0,0,1024,1024,1024,1024,0,0,0,0,149.6,0,0,100,4.334,4.329,0,0,0,0,1.399,85.46,35.688139921548,0,6,P-GPS,
3600,2022-10-28 21:07:42,-34.9256880450956,-56.1555357439771,0.328084,0.0656168,35.950607121548,36.016223921548,1.312336,0.447388,0.92922575152,1.45307419348,17,5,8.694,36.016223921548,0.328084,0.447388,1.04606958728,0,0.447388,-1.789552,139.3, 0.9, 2.7,0,0,1024,1024,1024,1024,0,0,0,0,149.6,0,0,100,4.334,4.329,0,0,0,0,1.399,85.46,36.016223921548,0.328084,6,P-GPS,
3700,2022-10-28 21:07:42,-34.9256878815861,-56.1555354722062,0.656168,0.4265092,35.917798721548,36.344307921548,1.312336,0.3131716,0.87816275776,1.55391081088,17,5,8.694,36.344307921548,0.656168,0.447388,1.04606958728,0.223694,0.223694,-1.789552,139.2, 0.8, 3,0,0,1024,1024,1024,1024,0,0,0,0,149.6,0,0,100,4.334,4.329,0,0,0,0,1.399,85.46,36.344307921548,0.656168,6,P-GPS,
3800,2022-10-28 21:07:43,-34.9256877404307,-56.1555353442889,0.656168,0.4265092,35.917798721548,36.344307921548,1.64042,0.3131716,0.86875330864,1.61807091792,17,5,8.694,36.344307921548,0.656168,0.447388,1.04606958728,0.223694,0.223694,-1.342164,139, 0.4, 3.5,0,0,1024,1024,1024,1024,0,0,0,0,149.6,0,0,100,4.334,4.329,0,0,0,0,1.399,85.46,36.344307921548,0.656168,6,P-GPS,
3900,2022-10-28 21:07:43,-34.9256876023656,-56.1555352476013,0.984252,0.7545932,35.917798721548,36.672391921548,3.28084,0.3131716,0.87109910924,1.67615490928,17,5,8.694,36.672391921548,0.984252,0.447388,1.04606958728,0.223694,0.223694,-1.11847,138.8, 0.5, 4.2,0,0,1024,1024,1024,1024,0,0,0,0,149.6,0,0,100,4.334,4.329,0,0,0,0,1.399,85.46,36.672391921548,0.984252,6,P-GPS,"Error de calibraci贸n del estabilizador. Reinicia la aeronave o contacta con la Asistencia DJI (Code: 40011)"
4000,2022-10-28 21:07:43,-34.9256874595891,-56.1555351855225,0.984252,0.6889764,35.983415521548,36.672391921548,3.28084,0.223694,0.88653546144,1.73146002916,17,5,8.694,36.672391921548,0.984252,0.447388,1.04606958728,0,0.223694,-0.671082,138.8, 0, 3.7,0,0,1024,1024,1024,1024,0,0,0,0,149.6,0,0,100,4.334,4.329,0,0,0,0,1.399,85.46,36.672391921548,0.984252,6,P-GPS,
4100,2022-10-28 21:07:43,-34.9256872769382,-56.1555351399463,0.984252,0.6889764,35.983415521548,36.672391921548,3.28084,0,0.91838257532,1.79947840404,17,5,8.699,36.672391921548,0.984252,0.447388,1.04606958728,0,0,-0.223694,138.8, -0.3, 2.6,0,0,1024,1024,1024,1024,0,0,0,0,149.6,0,0,100,4.3,4.301,0,0,0,0,1.163,85.46,36.672391921548,0.984252,6,P-GPS,
4200,2022-10-28 21:07:43,-34.9256871756179,-56.155535194246,1.312336,1.0170604,35.983415521548,37.000475921548,3.28084,0,0.95515423004,1.83985570192,17,5,8.699,37.000475921548,1.312336,0.447388,1.04606958728,0,0,0,138.8, -0.5, 1.8,0,0,1024,1024,1024,1024,0,0,0,0,149.6,0,0,100,4.3,4.301,0,0,0,0,1.163,85.46,37.000475921548,1.312336,6,P-GPS,
4300,2022-10-28 21:07:43,-34.925687085542,-56.1555352417422,1.312336,1.0170604,35.983415521548,37.000475921548,3.28084,0,0.98791341744,1.87565950884,17,5,8.699,37.000475921548,1.312336,0.447388,1.04606958728,0,0,0,138.9, -0.6, 1.8,0,0,1024,1024,1024,1024,0,0,0,0,149.6,0,0,100,4.3,4.301,0,0,0,0,1.163,85.46,37.000475921548,1.312336,6,P-GPS,
4400,2022-10-28 21:07:43,-34.9256870084672,-56.1555352474501,1.312336,1.0170604,35.983415521548,37.000475921548,3.28084,0,1.00860567532,1.90383208192,17,5,8.699,37.000475921548,1.312336,0.447388,1.04606958728,0,0,0,139, -0.7, 2.3,0,0,1024,1024,1024,1024,0,0,0,0,149.6,0,0,100,4.3,4.301,0,0,0,0,1.163,85.46,37.000475921548,1.312336,6,P-GPS,
4500,2022-10-28 21:07:43,-34.925687003774,-56.1555353804742,0.984252,0.6889764,35.983415521548,36.672391921548,3.28084,0,1.03860567628,1.94366147952,17,5,8.699,37.000475921548,1.312336,0.447388,1.04606958728,0,0,0,139, -0.2, 2.1,0,0,1024,1024,1024,1024,0,0,0,0,149.6,0,0,100,4.3,4.301,0,0,0,0,1.163,85.46,36.672391921548,0.984252,6,P-GPS,
4600,2022-10-28 21:07:43,-34.9256869587086,-56.1555353090964,0.984252,0.6889764,35.983415521548,36.672391921548,3.28084,0,1.03448494124,1.97061029928,17,5,8.699,37.000475921548,1.312336,0.447388,1.04606958728,0,0,0,139.1, 0.1, 1.9,0,0,1024,1024,1024,1024,0,0,0,0,149.6,0,0,100,4.3,4.301,0,0,0,0,1.163,85.46,36.672391921548,0.984252,6,P-GPS,
4700,2022-10-28 21:07:43,-34.9256869151724,-56.1555352469322,0.984252,0.6889764,35.983415521548,36.672391921548,3.28084,0,1.03257549236,1.99506896148,17,5,8.699,37.000475921548,1.312336,0.447388,1.04606958728,0,0,0,139.1, 0.2, 2.2,0,0,1024,1024,1024,1024,0,0,0,0,149.6,0,0,100,4.3,4.301,0,0,0,0,1.163,85.46,36.672391921548,0.984252,6,P-GPS,
4800,2022-10-28 21:07:44,-34.9256868538755,-56.155535193368,0.984252,0.6889764,35.983415521548,36.672391921548,3.28084,0,1.03774281536,2.02257880488,17,5,8.699,37.000475921548,1.312336,0.447388,1.04606958728,0,0,0,139, 0.1, 2.4,0,0,1169,1024,1024,1024,22,0,0,0,149.6,0,0,100,4.3,4.301,0,0,0,0,1.163,85.46,36.672391921548,0.984252,6,P-GPS,
4900,2022-10-28 21:07:44,-34.9256868025371,-56.1555351504053,0.984252,0.6889764,35.983415521548,36.672391921548,3.28084,0,1.04298559768,2.04529534104,17,5,8.699,37.000475921548,1.312336,0.447388,1.04606958728,0,0,0,138.9, 0.4, 2.4,0,0,1144,1068,1024,1024,18,7,0,0,149.6,0,0,100,4.3,4.301,0,0,0,0,1.163,85.46,36.672391921548,0.984252,6,P-GPS,
5000,2022-10-28 21:07:44,-34.9256868514985,-56.1555348087869,0.984252,0.6889764,35.983415521548,36.672391921548,3.28084,0,0.96395672376,2.14903550184,17,5,8.699,37.000475921548,1.312336,0.447388,1.04606958728,0,0,0,138.8, -0.4, 2.8,0,0,1452,1024,1024,1024,65,0,0,0,149.6,0,0,100,4.3,4.301,0,0,0,0,1.163,85.46,36.672391921548,0.984252,6,P-GPS,
5100,2022-10-28 21:07:44,-34.9256868411654,-56.1555347689402,0.984252,0.6889764,35.983415521548,36.672391921548,3.28084,0,0.9597113168,2.16153878308,17,5,8.542,37.000475921548,1.312336,0.447388,1.04606958728,0,0,0,138.5, -1.4, 2.5,0,0,1452,1024,1024,1024,65,0,0,0,149.6,0,0,100,4.286,4.284,0,0,0,0,3.681,85.46,36.672391921548,0.984252,6,P-GPS,
5200,2022-10-28 21:07:44,-34.9256868450203,-56.1555347634673,0.984252,0.6889764,35.983415521548,36.672391921548,3.28084,0,0.95760173668,2.1636975758,17,5,8.542,37.000475921548,1.312336,0.447388,1.04606958728,0,0,0,138.4, -4.8, 2.5,0,0,1339,1024,1024,1024,48,0,0,0,149.6,0,0,100,4.286,4.284,0,0,0,0,3.681,85.46,36.672391921548,0.984252,6,P-GPS,"Punto de origen actualizado. Altitud de RPO establecida en 100m (Code: 3000001)"
5300,2022-10-28 21:07:44,-34.9256868999772,-56.1555347128193,1.312336,1.0170604,35.983415521548,37.000475921548,3.28084,0,0.93247050228,2.1888288102,17,5,8.542,37.000475921548,1.312336,0.447388,1.04606958728,0,0,0,138.3, -8.3, 2.4,0,0,1137,1024,1024,1024,17,0,0,0,149.6,0,0,100,4.286,4.284,0,0,0,0,3.681,85.46,37.000475921548,1.312336,6,P-GPS,
5400,2022-10-28 21:07:44,-34.9256870523594,-56.1555344380628,1.312336,1.0498688,35.950607121548,37.000475921548,3.28084,0.4921268,0.83920934444,2.28805453516,17,5,8.542,37.000475921548,1.312336,0.4921268,1.04606958728,-0.447388,0.223694,0,138.3, -6, 2,0,0,1181,1024,1024,1024,24,0,0,0,149.6,0,0,100,4.286,4.284,0,0,0,0,3.681,85.46,37.000475921548,1.312336,6,P-GPS,
5500,2022-10-28 21:07:44,-34.9256872562075,-56.1555341970417,1.312336,1.0498688,35.950607121548,37.000475921548,3.28084,0.6263432,0.7371719396,2.39164049648,17,5,8.542,37.000475921548,1.312336,0.6263432,1.04606958728,-0.447388,0.447388,0,138.3, -1.8, 1.6,0,0,1169,1024,1024,1024,22,0,0,0,149.6,0,0,100,4.286,4.284,0,0,0,0,3.681,85.46,37.000475921548,1.312336,6,P-GPS,
5600,2022-10-28 21:07:44,-34.9256874987796,-56.1555339124438,1.312336,1.0498688,35.950607121548,37.000475921548,3.28084,0.6263432,0.61676839244,2.51444233768,17,5,8.542,37.000475921548,1.312336,0.6263432,1.04606958728,-0.447388,0.447388,0,138.4, -0.6, 1.4,0,0,1163,1024,1024,1024,21,0,0,0,149.6,0,0,100,4.286,4.284,0,0,0,0,3.681,85.46,37.000475921548,1.312336,6,P-GPS,
5700,2022-10-28 21:07:45,-34.9256877438276,-56.1555336278987,1.312336,1.148294,35.852181921548,37.000475921548,3.28084,0.8052984,0.4967519844,2.63788722352,17,5,8.542,37.000475921548,1.312336,0.8052984,1.04606958728,-0.671082,0.447388,0,138.4, -0.6, 1.4,0,0,1150,1024,1053,1024,19,0,4,0,149.6,0,0,100,4.286,4.284,0,0,0,0,3.681,85.46,37.000475921548,1.312336,6,P-GPS,
5800,2022-10-28 21:07:45,-34.9256880835024,-56.1555331368515,1.312336,1.2139108,35.786565121548,37.000475921548,3.28084,0.8052984,0.325392398864,2.83007226904,17,5,8.542,37.000475921548,1.312336,0.8052984,1.04606958728,-0.671082,0.447388,0,138.3, -0.8, 1.3,0,0,1206,1024,1307,1024,28,0,43,0,149.6,0,0,100,4.286,4.284,0,0,0,0,3.681,85.46,37.000475921548,1.312336,6,P-GPS,
5900,2022-10-28 21:07:45,-34.9256883726186,-56.1555328094808,1.312336,1.2139108,35.786565121548,37.000475921548,3.28084,0.6263432,0.207363523696,2.97400600068,17,5,8.542,37.000475921548,1.312336,0.8052984,1.04606958728,-0.447388,0.447388,0,138.2, -0.7, 1.1,0,0,1206,1024,1307,1024,28,0,43,0,149.6,0,0,100,4.286,4.284,0,0,0,0,3.681,85.46,37.000475921548,1.312336,6,P-GPS,
6000,2022-10-28 21:07:45,-34.9256886651068,-56.1555324619337,1.312336,1.3779528,35.622523121548,37.000475921548,3.608924,0.6263432,0.1503937056,3.12299222592,17,5,8.542,37.000475921548,1.312336,0.8052984,1.04606958728,-0.447388,0.447388,-0.447388,138.1, -1.5, 1,0,0,1255,1024,1290,1024,35,0,40,0,149.6,0,0,100,4.286,4.284,0,0,0,0,3.681,85.46,37.000475921548,1.312336,6,P-GPS,
6100,2022-10-28 21:07:45,-34.9256889506966,-56.1555321003565,1.312336,1.3779528,35.622523121548,37.000475921548,3.608924,0.6263432,0.220078419116,3.2731792386,17,5,8.585,37.000475921548,1.312336,0.8052984,1.04606958728,-0.447388,0.447388,-0.894776,138, -2.9, 1.2,0,0,1359,1024,1270,1024,51,0,37,0,149.6,0,0,100,4.287,4.286,0,0,0,0,3.688,85.46,37.000475921548,1.312336,6,P-GPS,
6200,2022-10-28 21:07:45,-34.9256891453555,-56.155531477618,1.64042,1.7716536,35.556906321548,37.328559921548,3.937008,0.9395148,0.41314633868,3.4725394812,17,5,8.585,37.328559921548,1.64042,0.9395148,1.04606958728,-0.671082,0.671082,-1.11847,138, -4.8, 1.3,0,0,1363,1024,1172,1024,51,0,22,0,149.6,0,0,100,4.287,4.286,0,0,0,0,3.688,85.46,37.328559921548,1.64042,6,P-GPS,
6300,2022-10-28 21:07:45,-34.9256894528772,-56.1555309894435,1.64042,1.7716536,35.556906321548,37.328559921548,3.937008,0.9395148,0.58313322076,3.6566930304,17,5,8.585,37.328559921548,1.64042,0.9395148,1.04606958728,-0.671082,0.671082,-1.342164,138.1, -5.6, 1.6,0,0,1432,1024,1111,1024,62,0,13,0,149.6,0,0,100,4.287,4.286,0,0,0,0,3.688,85.46,37.328559921548,1.64042,6,P-GPS,
6400,2022-10-28 21:07:45,-34.9256898447813,-56.1555304583718,1.968504,2.2309712,35.425672721548,37.656643921548,4.265092,0.9395148,0.78401577312,3.8704397564,17,5,8.585,37.656643921548,1.968504,0.9395148,1.04606958728,-0.894776,0.894776,-0.894776,138, -6.1, 2.1,0,0,1452,1024,1109,1024,65,0,13,0,149.6,0,0,100,4.287,4.286,0,0,0,0,3.688,85.46,37.656643921548,1.968504,6,P-GPS,
6500,2022-10-28 21:07:45,-34.9256902752935,-56.1555298869931,1.968504,2.2309712,35.425672721548,37.656643921548,4.265092,1.4316416,1.00763782752,4.1025591864,17,5,8.585,37.656643921548,1.968504,1.4316416,1.04606958728,-1.11847,0.894776,-0.671082,137.9, -7.7, 2,0,0,1458,1024,1149,1024,66,0,19,0,149.6,0,0,100,4.287,4.286,0,0,0,0,3.688,85.46,37.656643921548,1.968504,6,P-GPS,
6600,2022-10-28 21:07:45,-34.9256908421467,-56.1555291536209,1.968504,2.3950132,35.261630721548,37.656643921548,4.265092,1.5882274,1.30181106528,4.4040683824,17,5,8.585,37.656643921548,1.968504,1.5882274,1.30181106528,-1.11847,1.11847,-0.447388,137.9, -8.6, 1.7,0,0,1471,1024,1301,1024,68,0,42,0,149.6,0,0,100,4.287,4.286,0,0,0,0,3.688,85.46,37.656643921548,1.968504,6,P-GPS,
6700,2022-10-28 21:07:45,-34.9256914991673,-56.1555282717045,1.968504,2.46063,35.196013921548,37.656643921548,4.593176,1.901399,1.65396330752,4.7605316484,17,5,8.585,37.656643921548,1.968504,1.901399,1.65396330752,-1.342164,1.342164,-0.447388,137.8, -9.5, 1.8,0,0,1479,1024,1441,1024,69,0,63,0,149.6,0,0,100,4.287,4.286,0,0,0,0,3.688,85.46,37.656643921548,1.968504,6,P-GPS,
6800,2022-10-28 21:07:46,-34.9256922500521,-56.1555273160324,2.296588,2.9199476,35.064780321548,37.984727921548,4.593176,2.5277422,2.04560702084,5.1564634196,17,5,8.585,37.984727921548,2.296588,2.5277422,2.04560702084,-1.789552,1.789552,-0.671082,137.7, -9.3, 1.6,0,0,1479,1024,1441,1024,69,0,63,0,149.6,0,0,100,4.287,4.286,0,0,0,0,3.688,85.46,37.984727921548,2.296588,6,P-GPS,
6900,2022-10-28 21:07:46,-34.9256930478045,-56.1555262550616,2.296588,3.0839896,34.900738321548,37.984727921548,4.593176,2.8409138,2.47405847812,5.587106478,17,5,8.585,37.984727921548,2.296588,2.8409138,2.47405847812,-2.013246,2.013246,-1.11847,137.8, -8.8, 1.8,0,0,1479,1024,1456,1024,69,0,65,0,149.6,0,0,100,4.287,4.286,0,0,0,0,3.688,85.46,37.984727921548,2.296588,6,P-GPS,
7000,2022-10-28 21:07:46,-34.9256939255114,-56.155524923518,2.624672,3.5761156,34.736696321548,38.312811921548,4.92126,3.1540854,2.984990253,6.0981957332,17,5,8.585,38.312811921548,2.624672,3.1540854,2.984990253,-2.23694,2.23694,-2.013246,137.8, -8.3, 2.5,0,0,1479,1024,1515,1024,69,0,74,0,149.6,0,0,100,4.287,4.286,0,0,0,0,3.688,85.46,38.312811921548,2.624672,6,P-GPS,
7100,2022-10-28 21:07:46,-34.9256948369124,-56.1555233184977,3.28084,4.429134,34.539845921548,38.968979921548,5.577428,3.4896264,3.568405626,6.6822180616,17,5,8.568,38.968979921548,3.28084,3.4896264,3.568405626,-2.460634,2.460634,-2.684328,137.7, -8, 2.9,0,0,1477,1024,1515,1024,69,0,74,0,149.6,0,0,100,4.256,4.248,0,0,0,0,4.099,85.46,38.968979921548,3.28084,6,P-GPS,
7200,2022-10-28 21:07:46,-34.9256958933491,-56.1555218745861,3.608924,4.92126,34.375803921548,39.297063921548,5.905512,3.802798,4.145669424,7.2611222796,17,5,8.568,39.297063921548,3.608924,3.802798,4.145669424,-2.684328,2.684328,-3.579104,137.6, -7.9, 3.1,0,0,1477,1024,1514,1024,69,0,74,0,149.6,0,0,100,4.256,4.248,0,0,0,0,4.099,85.46,39.297063921548,3.608924,6,P-GPS,
7300,2022-10-28 21:07:46,-34.9256970020964,-56.1555204171681,4.265092,5.7742784,34.178953521548,39.953231921548,6.56168,4.1159696,4.7383203616,7.8558401464,17,5,8.568,39.953231921548,4.265092,4.1159696,4.7383203616,-2.908022,2.908022,-3.802798,137.6, -8.2, 3,0,0,1478,1024,1514,1024,69,0,74,0,149.6,0,0,100,4.256,4.248,0,0,0,0,4.099,85.46,39.953231921548,4.265092,6,P-GPS,
7400,2022-10-28 21:07:46,-34.9256983476162,-56.1555187563912,4.92126,6.5944884,34.014911521548,40.609399921548,7.217848,4.2725554,5.4331038484,8.554298174,17,5,8.568,40.609399921548,4.92126,4.2725554,5.4331038484,-3.131716,2.908022,-4.026492,137.5, -8.6, 2.9,0,0,1479,1024,1516,1024,69,0,75,0,149.6,0,0,100,4.256,4.248,0,0,0,0,4.099,85.46,40.609399921548,4.92126,6,P-GPS,
7500,2022-10-28 21:07:46,-34.9256996989014,-56.1555170632372,5.249344,7.217848,33.719635921548,40.937483921548,7.874016,4.585727,6.137467388,9.2611223436,17,5,8.568,40.937483921548,5.249344,4.585727,6.137467388,-3.35541,3.131716,-4.026492,137.4, -9.2, 2.4,0,0,1479,1024,1534,1024,69,0,77,0,149.6,0,0,100,4.256,4.248,0,0,0,0,4.099,85.46,40.937483921548,5.249344,6,P-GPS,
7600,2022-10-28 21:07:46,-34.9257011574092,-56.1555151293318,5.905512,8.1036748,33.489977121548,41.593651921548,8.530184,4.8988986,6.9226380168,10.0471459908,17,5,8.568,41.593651921548,5.905512,4.8988986,6.9226380168,-3.579104,3.35541,-4.026492,137.4, -8.4, 2.4,0,0,1479,1024,1534,1024,69,0,77,0,149.6,0,0,100,4.256,4.248,0,0,0,0,4.099,85.46,41.593651921548,5.905512,6,P-GPS,
7700,2022-10-28 21:07:46,-34.925702642257,-56.1555132125861,6.56168,9.0551184,33.194701521548,42.249819921548,9.186352,5.0778538,7.710302084,10.835958352,17,5,8.568,42.249819921548,6.56168,5.0778538,7.710302084,-3.802798,3.35541,-4.250186,137.3, -7, 1.1,0,0,1480,1024,1546,1024,69,0,79,0,149.6,0,0,100,4.256,4.248,0,0,0,0,4.099,85.46,42.249819921548,6.56168,6,P-GPS,
7800,2022-10-28 21:07:47,-34.9257043322773,-56.1555111416814,7.217848,9.9409452,32.965042721548,42.905987921548,9.84252,5.3910254,8.5819884636,11.7100069364,17,5,8.568,42.905987921548,7.217848,5.3910254,8.5819884636,-4.026492,3.579104,-4.47388,137.6, -7.3, 2,0,0,1413,1024,1559,1024,59,0,81,0,149.6,0,0,100,4.256,4.248,0,0,0,0,4.099,85.46,42.905987921548,7.217848,6,P-GPS,
7900,2022-10-28 21:07:47,-34.9257060294091,-56.1555088361184,7.874016,10.8923888,32.669767121548,43.562155921548,10.498688,5.704197,9.50869453,12.6368770448,17,5,8.568,43.562155921548,7.874016,5.704197,9.50869453,-4.250186,3.802798,-4.47388,137.6, -7, 1.8,0,0,1165,1024,1581,1024,21,0,84,0,149.6,0,0,100,4.256,4.248,0,0,0,0,4.099,85.46,43.562155921548,7.874016,6,P-GPS,
8000,2022-10-28 21:07:47,-34.9257078124429,-56.1555066422657,8.530184,11.8438324,32.374491521548,44.218323921548,11.154856,5.704197,10.430938654,13.5609256308,17,5,8.568,44.218323921548,8.530184,5.704197,10.430938654,-4.250186,3.802798,-4.697574,137.4, -4.4, 1.4,0,0,1046,1024,1617,1024,3,0,90,0,149.6,0,0,100,4.256,4.248,0,0,0,0,4.099,85.46,44.218323921548,8.530184,6,P-GPS,
8100,2022-10-28 21:07:47,-34.925709499037,-56.1555045358361,9.514436,13.0577432,32.144832721548,45.202575921548,11.811024,5.704197,11.310531858,14.4416671288,17,5,8.568,45.202575921548,9.514436,5.704197,11.310531858,-4.250186,3.802798,-4.921268,137.4, -0.3, 1,0,0,1024,1024,1683,1024,0,0,100,0,149.6,0,0,100,4.256,4.248,0,0,0,0,4.099,85.46,45.202575921548,9.514436,6,P-GPS,
8200,2022-10-28 21:07:47,-34.9257111455046,-56.1555023350584,10.170604,14.0748036,31.783940321548,45.858743921548,12.795276,5.3910254,12.2016736188,15.3328745064,17,5,8.595,45.858743921548,10.170604,5.704197,12.2016736188,-4.026492,3.579104,-5.144962,137.6, 8.9, 1.6,0,0,1024,1024,1684,1024,0,0,100,0,149.6,0,0,100,4.261,4.254,0,0,0,0,4.063,85.64,45.858743921548,10.170604,6,P-GPS,
8300,2022-10-28 21:07:47,-34.9257125723163,-56.1555004059203,11.154856,15.3543312,31.488664721548,46.842995921548,13.451444,4.585727,12.978838998,16.110072694,17,5,8.595,46.842995921548,11.154856,5.704197,12.978838998,-3.35541,3.131716,-5.59235,135.4, 18, 1.4,0,0,1024,1024,1684,1024,0,0,100,0,149.6,0,0,100,4.261,4.254,0,0,0,0,4.063,85.64,46.842995921548,11.154856,6,P-GPS,
8400,2022-10-28 21:07:47,-34.925713665082,-56.1554985258031,11.811024,16.1745412,31.324622721548,47.499163921548,14.435696,3.4896264,13.6642720908,16.7994427948,17,5,8.595,47.499163921548,11.811024,5.704197,13.6642720908,-2.460634,2.460634,-6.039738,135.4, 17, 0.9,0,0,1024,1024,1684,1024,0,0,100,0,149.6,0,0,100,4.261,4.254,0,0,0,0,4.063,85.64,47.499163921548,11.811024,6,P-GPS,
8500,2022-10-28 21:07:47,-34.9257145908508,-56.155497255185,12.795276,17.388452,31.094963921548,48.483415921548,15.419948,2.684328,14.1727694824,17.3079401864,17,5,8.595,48.483415921548,12.795276,5.704197,14.1727694824,-2.013246,1.789552,-6.263432,135.5, 15, 1.1,0,0,1024,1024,1684,1024,0,0,100,0,149.6,0,0,100,4.261,4.254,0,0,0,0,4.063,85.64,48.483415921548,12.795276,6,P-GPS,
8600,2022-10-28 21:07:47,-34.9257153189086,-56.1554963252265,13.779528,18.4055124,31.062155521548,49.467667921548,16.4042,1.901399,14.55708708,17.692585868,17,5,8.595,49.467667921548,13.779528,5.704197,14.55708708,-1.342164,1.342164,-6.487126,135.7, 12.9, 1.2,0,0,1024,1024,1684,1024,0,0,100,0,149.6,0,0,100,4.261,4.254,0,0,0,0,4.063,85.64,49.467667921548,13.779528,6,P-GPS,
8700,2022-10-28 21:07:47,-34.9257158532108,-56.1554956463522,15.091864,19.8162736,30.963730321548,50.780003921548,17.388452,1.2750558,14.8383206848,17.97408194,18,5,8.595,50.780003921548,15.091864,5.704197,14.8383206848,-0.894776,0.894776,-6.487126,135.7, 10.9, 1.3,0,0,1024,1024,1684,1024,0,0,100,0,149.6,0,0,100,4.261,4.254,0,0,0,0,4.063,85.64,50.780003921548,15.091864,6,P-GPS,
8800,2022-10-28 21:07:48,-34.9257160129905,-56.1554958816479,16.076116,20.8005256,30.963730321548,51.764255921548,18.372704,0.9395148,14.8244099232,18.0654861424,18,5,8.595,51.764255921548,16.076116,5.704197,14.8383206848,-0.671082,0.671082,-6.487126,135.6, 8.6, 0.8,0,0,1024,1024,1684,1024,0,0,100,0,149.6,0,0,100,4.261,4.254,0,0,0,0,4.063,85.64,51.764255921548,16.076116,6,P-GPS,
8900,2022-10-28 21:07:48,-34.9257162595141,-56.1554956256581,17.060368,21.7847776,30.963730321548,52.748507921548,19.356956,0.6263432,14.941437486,18.1835963824,18,5,8.595,52.748507921548,17.060368,5.704197,14.941437486,-0.447388,0.447388,-6.487126,135.5, 6.5, 1,0,0,1024,1024,1684,1024,0,0,100,0,149.6,0,0,100,4.261,4.254,0,0,0,0,4.063,85.64,52.748507921548,17.060368,6,P-GPS,
9000,2022-10-28 21:07:48,-34.9257163569081,-56.1554955006477,18.372704,23.0971136,30.963730321548,54.060843921548,20.341208,0.3131716,14.9930122908,18.2351711872,18,5,8.595,54.060843921548,18.372704,5.704197,14.9930122908,-0.223694,0.223694,-6.487126,135.4, 5, 1,0,0,1024,1024,1684,1024,0,0,100,0,149.6,0,0,100,4.261,4.254,0,0,0,0,4.063,85.64,54.060843921548,18.372704,6,P-GPS,
9100,2022-10-28 21:07:48,-34.9257163948573,-56.1554954309484,19.356956,24.1469824,30.898113521548,55.045095921548,21.32546,0.3131716,15.0177826328,18.2602039964,18,5,8.517,55.045095921548,19.356956,5.704197,15.0177826328,-0.223694,0.223694,-6.487126,135.5, 4.4, 1.3,0,0,1024,1024,1684,1024,0,0,100,0,149.6,0,0,100,4.242,4.242,0,0,0,0,5.368,85.46,55.045095921548,19.356956,6,P-GPS,
9200,2022-10-28 21:07:48,-34.9257161922952,-56.1554957459509,20.341208,25.0656176,30.963730321548,56.029347921548,22.309712,0.223694,14.89829444,18.3799546564,18,5,8.517,56.029347921548,20.341208,5.704197,15.0177826328,0,0.223694,-6.71082,135.4, 3.3, 1.6,0,0,1024,1024,1684,1024,0,0,100,0,149.6,0,0,100,4.242,4.242,0,0,0,0,5.368,85.46,56.029347921548,20.341208,6,P-GPS,
9300,2022-10-28 21:07:48,-34.9257162121362,-56.155495662783,21.32546,26.0498696,30.963730321548,57.013599921548,23.293964,0.3131716,14.9216540208,18.4058732924,18,5,8.517,57.013599921548,21.32546,5.704197,15.0177826328,-0.223694,0.223694,-6.71082,135.5, 3.1, 2.1,0,0,1048,1024,1684,1024,4,0,100,0,149.6,0,0,100,4.242,4.242,0,0,0,0,5.368,85.46,57.013599921548,21.32546,6,P-GPS,
9400,2022-10-28 21:07:48,-34.9257163197047,-56.1554955191161,22.309712,27.0341216,30.963730321548,57.997851921548,24.278216,0.3131716,14.9798561224,18.464075394,18,5,8.517,57.997851921548,22.309712,5.704197,15.0177826328,-0.223694,0.223694,-6.71082,135.4, 2.8, 2,0,0,1236,1024,1684,1024,32,0,100,0,149.6,0,0,100,4.242,4.242,0,0,0,0,5.368,85.46,57.997851921548,22.309712,6,P-GPS,
9500,2022-10-28 21:07:48,-34.9257164275305,-56.1554954149825,23.293964,28.0839904,30.898113521548,58.982103921548,25.262468,0.3131716,15.0292983812,18.514272246,18,5,8.517,58.982103921548,23.293964,5.704197,15.0292983812,-0.223694,0.223694,-6.71082,135.3, 3, 1.8,0,0,1660,1024,1684,1024,96,0,100,0,149.6,0,0,100,4.242,4.242,0,0,0,0,5.368,85.46,58.982103921548,23.293964,6,P-GPS,
9600,2022-10-28 21:07:48,-34.9257169461378,-56.1554953531434,24.278216,29.1666676,30.799688321548,59.966355921548,26.24672,0.3131716,15.1698823752,18.7043641156,18,5,8.517,59.966355921548,24.278216,5.704197,15.1698823752,-0.223694,0.223694,-6.487126,135.3, 1.1, 1.4,0,0,1660,1024,1684,1024,96,0,100,0,149.6,0,0,100,4.242,4.242,0,0,0,0,5.368,85.46,59.966355921548,24.278216,6,P-GPS,
9700,2022-10-28 21:07:49,-34.9257171070997,-56.1554953136179,25.590552,30.4790036,30.799688321548,61.278691921548,27.230972,0.4921268,15.2182091484,18.764272254,18,5,8.517,61.278691921548,25.590552,5.704197,15.2182091484,-0.447388,0.223694,-6.71082,135.2, -6, 1.5,0,0,1684,1024,1684,1024,100,0,100,0,149.6,0,0,100,4.242,4.242,0,0,0,0,5.368,85.46,61.278691921548,25.590552,6,P-GPS,
9800,2022-10-28 21:07:49,-34.9257174099381,-56.1554952159104,26.574804,31.4632556,30.799688321548,62.262943921548,28.215224,0.9395148,15.3145018024,18.8785767196,18,5,8.517,62.262943921548,26.574804,5.704197,15.3145018024,-0.671082,0.671082,-6.71082,135.1, -12.1, 1.4,0,0,1684,1024,1684,1024,100,0,100,0,149.6,0,0,100,4.242,4.242,0,0,0,0,5.368,85.46,62.262943921548,26.574804,6,P-GPS,
9900,2022-10-28 21:07:49,-34.9257178275168,-56.1554949645077,27.559056,32.5459328,30.701263121548,63.247195921548,28.871392,1.4316416,15.4732288416,19.0484586148,18,5,8.517,63.247195921548,27.559056,5.704197,15.4732288416,-1.11847,0.894776,-6.71082,135.1, -13.5, 1.2,0,0,1684,1024,1684,1024,100,0,100,0,149.6,0,0,100,4.242,4.242,0,0,0,0,5.368,85.46,63.247195921548,27.559056,6,P-GPS,
10000,2022-10-28 21:07:49,-34.9257183944107,-56.1554945169219,28.543308,33.5301848,30.701263121548,64.231447921548,29.855644,2.2145706,15.7122380356,19.2948496988,18,5,8.517,64.231447921548,28.543308,5.704197,15.7122380356,-1.565858,1.565858,-6.71082,135.2, -13.6, 1.3,0,0,1684,1024,1684,1024,100,0,100,0,149.6,0,0,100,4.242,4.242,0,0,0,0,5.368,85.46,64.231447921548,28.543308,6,P-GPS,
10100,2022-10-28 21:07:49,-34.9257193958679,-56.1554941328288,29.52756,34.6784788,30.537221121548,65.215699921548,30.839896,2.2145706,16.0470477576,19.6778877688,18,5,8.475,65.215699921548,29.52756,5.704197,16.0470477576,-2.013246,2.013246,-6.71082,135.2, -13.3, 1.4,0,0,1684,1024,1684,1024,100,0,100,0,149.6,0,0,100,4.249,4.247,0,0,0,0,5.943,85.64,65.215699921548,29.52756,6,P-GPS,
10200,2022-10-28 21:07:49,-34.9257203198731,-56.1554931536352,30.511812,35.7939644,30.405987521548,66.199951921548,31.824148,3.4896264,16.4918640448,20.1244757096,18,5,8.475,66.199951921548,30.511812,5.704197,16.4918640448,-2.460634,2.460634,-6.71082,135.3, -12.6, 2.3,0,0,1684,1024,1684,1024,100,0,100,0,149.6,0,0,100,4.249,4.247,0,0,0,0,5.943,85.64,66.199951921548,30.511812,6,P-GPS,
10300,2022-10-28 21:07:49,-34.9257213427053,-56.1554920264777,31.496064,36.9422584,30.241945521548,67.184203921548,32.8084,3.4896264,16.9936685228,20.6274284816,18,5,8.475,67.184203921548,31.496064,5.704197,16.9936685228,-2.908022,2.684328,-6.487126,135.5, -12.5, 3,0,0,1684,1024,1684,1024,100,0,100,0,149.6,0,0,100,4.249,4.247,0,0,0,0,5.943,85.64,67.184203921548,31.496064,6,P-GPS,
10400,2022-10-28 21:07:49,-34.9257226164677,-56.1554905679468,32.480316,38.1561692,30.012286721548,68.168455921548,33.792652,4.585727,17.63041395,21.2648628852,18,5,8.475,68.168455921548,32.480316,5.704197,17.63041395,-3.35541,3.131716,-6.487126,135.5, -12.8, 2.2,0,0,1684,1024,1684,1024,100,0,100,0,149.6,0,0,100,4.249,4.247,0,0,0,0,5.943,85.64,68.168455921548,32.480316,6,P-GPS,
10500,2022-10-28 21:07:49,-34.9257242948039,-56.1554887050102,33.464568,39.37008,29.782627921548,69.152707921548,34.776904,4.8988986,18.4568903544,22.0928156676,18,5,8.475,69.152707921548,33.464568,5.704197,18.4568903544,-3.579104,3.35541,-6.487126,135.6, -12.6, 1.5,0,0,1684,1024,1684,1024,100,0,100,0,149.6,0,0,100,4.249,4.247,0,0,0,0,5.943,85.64,69.152707921548,33.464568,6,P-GPS,
10600,2022-10-28 21:07:49,-34.9257259347382,-56.15548689483,34.776904,40.9776916,29.487352321548,70.465043921548,35.433072,5.3910254,19.2624021912,22.8998038824,18,5,8.475,70.465043921548,34.776904,5.704197,19.2624021912,-4.026492,3.579104,-6.487126,135.4, -12.8, 0.4,0,0,1684,1024,1684,1024,100,0,100,0,149.6,0,0,100,4.249,4.247,0,0,0,0,5.943,85.64,70.465043921548,34.776904,6,P-GPS,
10700,2022-10-28 21:07:49,-34.925727599705,-56.1554850012207,35.761156,42.2900276,29.159268321548,71.449295921548,36.417324,5.704197,20.0922250524,23.7303813368,18,5,8.475,71.449295921548,35.761156,5.704197,20.0922250524,-4.026492,4.026492,-6.487126,135.5, -12.7, 0.8,0,0,1684,1024,1684,1024,100,0,100,0,149.6,0,0,100,4.249,4.247,0,0,0,0,5.943,85.64,71.449295921548,35.761156,6,P-GPS,
10800,2022-10-28 21:07:50,-34.9257293862676,-56.1554828186737,36.745408,43.47113,28.962417921548,72.433547921548,37.401576,6.1739544,21.014764452,24.6529535448,18,5,8.475,72.433547921548,36.745408,6.1739544,21.014764452,-4.47388,4.250186,-6.487126,135.6, -12.7, 1.3,0,0,1684,1024,1684,1024,100,0,100,0,149.6,0,0,100,4.249,4.247,0,0,0,0,5.943,85.64,72.433547921548,36.745408,6,P-GPS,
10900,2022-10-28 21:07:50,-34.9257313286138,-56.1554801577506,37.72966,44.8162744,28.601525521548,73.417799921548,38.385828,6.3305402,22.0792001816,25.7187016104,18,5,8.475,73.417799921548,37.72966,6.3305402,22.0792001816,-4.47388,4.47388,-6.487126,135.4, -12.5, 1.3,0,0,1684,1024,1684,1024,100,0,100,0,149.6,0,0,100,4.249,4.247,0,0,0,0,5.943,85.64,73.417799921548,37.72966,6,P-GPS,
11000,2022-10-28 21:07:50,-34.9257333399473,-56.1554777851907,38.713912,46.1286104,28.273441521548,74.402051921548,39.37008,6.9568834,23.099738272,26.7396005932,18,5,8.475,74.402051921548,38.713912,6.9568834,23.099738272,-4.921268,4.921268,-6.71082,135.2, -12.9, 1.8,0,0,1684,1024,1684,1024,100,0,100,0,149.6,0,0,100,4.249,4.247,0,0,0,0,5.943,85.64,74.402051921548,38.713912,6,P-GPS,
11100,2022-10-28 21:07:50,-34.9257353365922,-56.1554753681498,39.698164,47.4737548,27.912549121548,75.386303921548,40.354332,7.1134692,24.1260506408,27.7659457704,18,5,8.475,75.386303921548,39.698164,7.1134692,24.1260506408,-4.921268,5.144962,-6.71082,135.3, -13.2, 2.4,0,0,1684,1024,1684,1024,100,0,100,0,149.6,0,0,100,4.249,4.247,0,0,0,0,5.943,85.64,75.386303921548,39.698164,6,P-GPS,
11200,2022-10-28 21:07:50,-34.9257374831908,-56.1554725735908,41.0105,49.0813664,27.617273521548,76.698639921548,41.338584,7.5832266,25.2712278428,28.9114838648,18,5,8.475,76.698639921548,41.0105,7.5832266,25.2712278428,-5.368656,5.368656,-6.71082,135.2, -13, 3.4,0,0,1684,1024,1684,1024,100,0,100,0,149.6,0,0,100,4.249,4.247,0,0,0,0,5.943,85.64,76.698639921548,41.0105,6,P-GPS,
11300,2022-10-28 21:07:50,-34.9257395379256,-56.1554696722912,41.994752,50.524936,27.157955921548,77.682891921548,41.338584,7.9187676,26.4158144936,30.0583014868,18,5,8.471,77.682891921548,41.994752,7.9187676,26.4158144936,-5.368656,5.816044,-6.71082,135.1, -13.5, 3.2,0,0,1684,1024,1684,1024,100,0,100,0,149.6,0,0,100,4.235,4.234,0,0,0,0,5.321,85.64,77.682891921548,41.994752,6,P-GPS,
11400,2022-10-28 21:07:50,-34.9257418866923,-56.1554665507292,42.979004,51.8700804,26.797063521548,78.667143921548,41.338584,8.388525,27.6826124344,31.3257227872,18,5,8.471,78.667143921548,42.979004,8.388525,27.6826124344,-5.816044,6.039738,-6.487126,135.1, -13.9, 3.3,0,0,1684,1024,1684,1024,100,0,100,0,149.6,0,0,100,4.235,4.234,0,0,0,0,5.321,85.64,78.667143921548,42.979004,6,P-GPS,
11500,2022-10-28 21:07:50,-34.9257442210472,-56.1554634625461,43.963256,53.2808416,26.370554321548,79.651395921548,41.338584,8.7016966,28.93864922,32.5822188904,18,5,8.471,79.651395921548,43.963256,8.7016966,28.93864922,-6.039738,6.263432,-6.487126,135, -13.7, 3.4,0,0,1684,1024,1684,1024,100,0,100,0,149.6,0,0,100,4.235,4.234,0,0,0,0,5.321,85.64,79.651395921548,43.963256,6,P-GPS,
11600,2022-10-28 21:07:50,-34.9257467871753,-56.1554601076396,44.947508,54.7244112,25.911236721548,80.635647921548,41.338584,9.0148682,30.3108933584,33.954725496,18,5,8.471,80.635647921548,44.947508,9.0148682,30.3108933584,-6.263432,6.487126,-6.487126,135.1, -13.4, 3.4,0,0,1684,1024,1684,1024,100,0,100,0,149.6,0,0,100,4.235,4.234,0,0,0,0,5.321,85.64,80.635647921548,44.947508,6,P-GPS,
11700,2022-10-28 21:07:50,-34.925749319549,-56.155456828383,45.93176,56.102364,25.517535921548,81.619899921548,41.338584,9.3280398,31.658301538,35.302166484,18,5,8.471,81.619899921548,45.93176,9.3280398,31.658301538,-6.487126,6.71082,-6.487126,135, -13, 3.4,0,0,1684,1024,1684,1024,100,0,100,0,149.6,0,0,100,4.235,4.234,0,0,0,0,5.321,85.64,81.619899921548,45.93176,6,P-GPS,
11800,2022-10-28 21:07:51,-34.9257517706374,-56.1554532864258,46.916012,57.578742,25.025409921548,82.604151921548,41.338584,9.6412114,33.041667724,36.688649468,18,5,8.471,82.604151921548,46.916012,9.6412114,33.041667724,-6.71082,6.934514,-6.71082,134.9, -13.7, 2.9,0,0,1684,1024,1684,1024,100,0,100,0,149.6,0,0,100,4.235,4.234,0,0,0,0,5.321,85.64,82.604151921548,46.916012,6,P-GPS,
11900,2022-10-28 21:07:51,-34.9257544400349,-56.1554499031454,47.900264,58.9566948,24.631709121548,83.588403921548,41.338584,9.7977972,34.446195328,38.093177072,18,5,8.471,83.588403921548,47.900264,9.7977972,34.446195328,-6.934514,6.934514,-6.71082,135, -14.2, 3,0,0,1684,1024,1684,1024,100,0,100,0,149.6,0,0,100,4.235,4.234,0,0,0,0,5.321,85.64,83.588403921548,47.900264,6,P-GPS,
12000,2022-10-28 21:07:51,-34.9257574107597,-56.1554461925902,48.884516,60.4330728,24.139583121548,84.572655921548,41.338584,10.1333382,35.997704564,39.644686308,18,5,8.471,84.572655921548,48.884516,10.1333382,35.997704564,-7.158208,7.158208,-6.71082,135, -14.5, 3.2,0,0,1684,1024,1684,1024,100,0,100,0,149.6,0,0,100,4.235,4.234,0,0,0,0,5.321,85.64,84.572655921548,48.884516,6,P-GPS,
12100,2022-10-28 21:07:51,-34.9257603177211,-56.1554425621362,49.868768,61.8766424,23.680265521548,85.556907921548,41.338584,10.289924,37.515421148,41.162730976,18,5,8.471,85.556907921548,49.868768,10.289924,37.515421148,-7.158208,7.381902,-6.487126,134.9, -14.2, 3.3,0,0,1684,1024,1684,1024,100,0,100,0,149.6,0,0,100,4.235,4.234,0,0,0,0,5.321,85.64,85.556907921548,49.868768,6,P-GPS,
12200,2022-10-28 21:07:51,-34.9257635589565,-56.1554386030335,50.85302,63.484254,23.056905921548,86.541159921548,41.338584,10.6030956,39.188977632,42.83628746,18,5,8.471,86.541159921548,50.85302,10.6030956,39.188977632,-7.381902,7.605596,-6.71082,134.9, -14.6, 3.3,0,0,1684,1024,1684,1024,100,0,100,0,149.6,0,0,100,4.235,4.234,0,0,0,0,5.321,85.64,86.541159921548,50.85302,6,P-GPS,
12300,2022-10-28 21:07:51,-34.9257666035279,-56.1554347864013,51.837272,64.9934404,22.531971521548,87.525411921548,41.338584,10.9162672,40.781825452,44.42913528,18,5,8.471,87.525411921548,51.837272,10.9162672,40.781825452,-7.605596,7.82929,-6.71082,134.8, -15.2, 3.5,0,0,1535,1024,1684,1024,77,0,100,0,149.6,0,0,100,4.235,4.234,0,0,0,0,5.321,85.64,87.525411921548,51.837272,6,P-GPS,
12400,2022-10-28 21:07:51,-34.925769805824,-56.155430664108,52.821524,66.5026268,22.007037121548,88.509663921548,41.338584,11.2294388,42.480644404,46.127954232,18,5,8.471,88.509663921548,52.821524,11.2294388,42.480644404,-7.82929,8.052984,-6.487126,134.9, -15, 3.8,0,0,1024,1024,1684,1024,0,0,100,0,149.6,0,0,100,4.235,4.234,0,0,0,0,5.321,85.64,88.509663921548,52.821524,6,P-GPS,
12500,2022-10-28 21:07:51,-34.9257729339346,-56.1554266628858,53.805776,68.0118132,21.482102721548,89.493915921548,41.338584,11.2294388,44.134187764,47.781825676,18,5,8.471,89.493915921548,53.805776,11.2294388,44.134187764,-7.82929,8.052984,-6.487126,135.1, -7.2, 3.7,0,0,1024,1024,1684,1024,0,0,100,0,149.6,0,0,100,4.235,4.234,0,0,0,0,5.321,85.64,89.493915921548,53.805776,6,P-GPS,
12600,2022-10-28 21:07:51,-34.9257762037199,-56.1554224524247,54.790028,69.553808,20.924359921548,90.478167921548,41.338584,11.2294388,45.869095956,49.516733868,18,5,8.471,90.478167921548,54.790028,11.2294388,45.869095956,-7.82929,8.052984,-6.487126,135.8, 14.8, 3.1,0,0,1024,1024,1684,1024,0,0,100,0,149.6,0,0,100,4.235,4.234,0,0,0,0,5.321,85.64,90.478167921548,54.790028,6,P-GPS,
12700,2022-10-28 21:07:52,-34.925779195621,-56.1554186969499,55.77428,70.9973776,20.465042321548,91.462419921548,41.338584,10.1333382,47.435368972,51.083006884,18,5,8.471,91.462419921548,55.77428,11.2294388,47.435368972,-6.934514,7.381902,-6.71082,135.7, 21.7, 1.2,0,0,1024,1024,1684,1024,0,0,100,0,149.6,0,0,100,4.235,4.234,0,0,0,0,5.321,85.64,91.462419921548,55.77428,6,P-GPS,
12800,2022-10-28 21:07:52,-34.9257819344553,-56.1554151110395,56.758532,72.506564,19.940107921548,92.446671921548,41.338584,8.8582824,48.901248284,52.548886196,18,5,8.471,92.446671921548,56.758532,11.2294388,48.901248284,-6.039738,6.487126,-6.934514,135.7, 21.1, 1.2,0,0,1024,1024,1684,543,0,0,100,-73,149.6,0,0,100,4.235,4.234,0,0,0,0,5.321,85.64,92.446671921548,56.758532,6,P-GPS,
12900,2022-10-28 21:07:52,-34.9257841916285,-56.155412075921,57.742784,73.8517084,19.579215521548,93.430923921548,41.338584,7.605596,50.12631394,53.774936104,18,5,8.471,93.430923921548,57.742784,11.2294388,50.12631394,-5.144962,5.59235,-6.934514,135.7, 20, 1.4,0,0,1024,1024,1684,543,0,0,100,-73,149.6,0,0,100,4.235,4.234,0,0,0,0,5.321,85.64,93.430923921548,57.742784,6,P-GPS,
13000,2022-10-28 21:07:52,-34.9257863818531,-56.1554093313024,58.398952,74.8687688,19.218323121548,94.087091921548,41.338584,6.6437118,51.271983268,54.920605432,18,5,8.471,94.087091921548,58.398952,11.2294388,51.271983268,-4.47388,4.921268,-6.71082,135.8, 19, 1.8,0,0,1024,1024,1671,364,0,0,98,-100,149.1,0,0,100,4.235,4.234,0,0,0,0,5.321,85.64,94.087091921548,58.398952,6,P-GPS,
13100,2022-10-28 21:07:52,-34.9257880915304,-56.1554070164882,59.383204,76.1811048,18.890239121548,95.071343921548,41.338584,5.5476112,52.203741828,55.852363992,18,5,8.458,95.071343921548,59.383204,11.2294388,52.203741828,-3.579104,4.250186,-6.487126,134.7, 18.5, 1.8,0,0,1024,1024,1590,364,0,0,86,-100,146.8,0,0,100,4.235,4.233,0,0,0,0,5.594,85.64,95.071343921548,59.383204,6,P-GPS,
13200,2022-10-28 21:07:52,-34.9257896468117,-56.1554049293029,60.367456,77.4606324,18.594963521548,96.055595921548,41.338584,4.6080964,53.046917708,56.69619604,18,5,8.458,96.055595921548,60.367456,11.2294388,53.046917708,-2.908022,3.579104,-6.039738,132, 18.1, 2.2,0,0,1024,1024,1578,364,0,0,84,-100,143.7,0,0,100,4.235,4.233,0,0,0,0,5.594,85.64,96.055595921548,60.367456,6,P-GPS,
13300,2022-10-28 21:07:52,-34.925790867135,-56.1554032226764,61.351708,78.6745432,18.365304721548,97.039847921548,41.338584,3.9817532,53.723755,57.3736895,18,5,8.458,97.039847921548,61.351708,11.2294388,53.723755,-2.460634,3.131716,-5.59235,128.8, 18.1, 1.1,0,0,1024,1024,1564,364,0,0,82,-100,140.5,0,0,100,4.235,4.233,0,0,0,0,5.594,85.64,97.039847921548,61.351708,6,P-GPS,
13400,2022-10-28 21:07:52,-34.9257915475967,-56.1554020483473,62.33596,79.7900288,18.234071121548,98.024099921548,41.338584,3.9817532,54.148951864,57.803807624,18,5,8.458,98.024099921548,62.33596,11.2294388,54.148951864,-2.013246,2.460634,-5.368656,125.6, 18.2, 0.7,0,0,1024,1024,1569,364,0,0,83,-100,137.3,0,0,100,4.235,4.233,0,0,0,0,5.594,85.64,98.024099921548,62.33596,6,P-GPS,
13500,2022-10-28 21:07:52,-34.925791541389,-56.1554019424165,62.992128,80.4461968,18.234071121548,98.680267921548,41.338584,2.4158952,54.170277324,57.835631772,18,5,8.458,98.680267921548,62.992128,11.2294388,54.170277324,-1.342164,2.013246,-5.368656,122.5, 18.4, 0.3,0,0,1024,1024,1567,364,0,0,82,-100,134.1,0,0,100,4.235,4.233,0,0,0,0,5.594,85.64,98.680267921548,62.992128,6,P-GPS,
13600,2022-10-28 21:07:52,-34.9257917820926,-56.1554012904271,63.97638,81.4960656,18.168454321548,99.664519921548,41.338584,1.6105968,54.372048984,58.049214456,18,5,8.458,99.664519921548,63.97638,11.2294388,54.372048984,-0.894776,1.342164,-5.144962,119.2, 15.5, 0.1,0,0,1024,1024,1567,364,0,0,82,-100,130.9,0,0,100,4.235,4.233,0,0,0,0,5.594,85.64,99.664519921548,63.97638,6,P-GPS,
13700,2022-10-28 21:07:52,-34.925791858662,-56.1554009078622,64.632548,82.1522336,18.168454321548,100.32068792155,41.338584,1.11847,54.474083108,58.167324696,18,5,8.458,100.32068792155,64.632548,11.2294388,54.474083108,-0.671082,0.894776,-5.144962,116, 11.3, 0.6,0,0,1024,1024,1567,364,0,0,82,-100,127.7,0,0,100,4.235,4.233,0,0,0,0,5.594,85.64,100.32068792155,64.632548,6,P-GPS,
13800,2022-10-28 21:07:53,-34.9257920167318,-56.1554006903687,65.6168,83.1364856,18.168454321548,101.30493992155,41.338584,0.8052984,54.561025368,58.254266956,18,5,8.458,101.30493992155,65.6168,11.2294388,54.561025368,-0.447388,0.671082,-5.144962,112.6, 8.2, 0.6,0,0,1024,1024,1566,364,0,0,82,-100,124.5,0,0,100,4.235,4.233,0,0,0,0,5.594,85.64,101.30493992155,65.6168,6,P-GPS,
13900,2022-10-28 21:07:53,-34.9257918679051,-56.1554013290984,66.272968,83.7926536,18.168454321548,101.96110792155,41.338584,0.4921268,54.385172344,58.452757776,18,5,8.458,101.96110792155,66.272968,11.2294388,54.561025368,-0.223694,0.447388,-5.144962,109.5, 6.4, 1.2,0,0,1024,1024,1567,364,0,0,82,-100,121.3,0,0,100,4.235,4.233,0,0,0,0,5.594,85.64,101.96110792155,66.272968,6,P-GPS,
14000,2022-10-28 21:07:53,-34.9257919058543,-56.1554013195064,67.25722,84.7769056,18.168454321548,102.94535992155,41.338584,0.223694,54.396983368,58.466865388,18,5,8.458,102.94535992155,67.25722,11.2294388,54.561025368,0,0.223694,-5.144962,106.2, 5.3, 1.8,0,0,1024,1024,1567,364,0,0,82,-100,118.1,0,0,100,4.235,4.233,0,0,0,0,5.594,85.64,102.94535992155,67.25722,6,P-GPS,
14100,2022-10-28 21:07:53,-34.9257919038025,-56.1554013704551,68.241472,85.7611576,18.168454321548,103.92961192155,41.338584,0.223694,54.385500428,58.482285336,18,5,8.44,103.92961192155,68.241472,11.2294388,54.561025368,0,0.223694,-5.144962,102.9, 4.3, 1.6,0,0,1024,1024,1567,364,0,0,82,-100,114.9,0,0,100,4.242,4.244,0,0,0,0,5.523,85.64,103.92961192155,68.241472,6,P-GPS,
14200,2022-10-28 21:07:53,-34.9257918731031,-56.1554014768561,68.89764,86.4173256,18.168454321548,104.58577992155,41.338584,0.223694,54.354660532,58.515749904,18,5,8.44,104.58577992155,68.89764,11.2294388,54.561025368,0,0.223694,-5.144962,99.7, 3.5, 1.8,0,0,1024,1024,1567,364,0,0,82,-100,111.7,0,0,100,4.242,4.244,0,0,0,0,5.523,85.64,104.58577992155,68.89764,6,P-GPS,
14300,2022-10-28 21:07:53,-34.9257920973919,-56.1554019804714,69.553808,87.0078768,18.234071121548,105.24194792155,41.338584,0,54.302495176,58.687337836,18,5,8.44,105.24194792155,69.553808,11.2294388,54.561025368,0,0,-5.144962,96.5, 3.3, 2.1,0,0,1024,1024,1567,364,0,0,82,-100,108.5,0,0,100,4.242,4.244,0,0,0,0,5.523,85.64,105.24194792155,69.553808,6,P-GPS,
14400,2022-10-28 21:07:53,-34.9257921159562,-56.155402039121,70.53806,87.9921288,18.234071121548,106.22619992155,41.338584,0,54.29462116,58.706038624,18,5,8.44,106.22619992155,70.53806,11.2294388,54.561025368,0,0,-5.144962,93.3, 3.1, 1.7,0,0,1024,1024,1567,364,0,0,82,-100,105.3,0,0,100,4.242,4.244,0,0,0,0,5.523,85.64,106.22619992155,70.53806,6,P-GPS,
14500,2022-10-28 21:07:53,-34.9257921381942,-56.1554021029114,71.194228,88.6482968,18.234071121548,106.88236792155,41.338584,0,54.28641906,58.727036,18,5,8.44,106.88236792155,71.194228,11.2294388,54.561025368,0,0,-5.144962,90.1, 2.8, 1.5,0,0,1024,1024,1568,364,0,0,82,-100,102.1,0,0,100,4.242,4.244,0,0,0,0,5.523,85.64,106.88236792155,71.194228,6,P-GPS,
14600,2022-10-28 21:07:53,-34.9257922632196,-56.1554021151261,71.850396,89.3044648,18.234071121548,107.53853592155,41.338584,0,54.315618536,58.772639676,18,5,8.44,107.53853592155,71.850396,11.2294388,54.561025368,0,0,-5.144962,86.9, 2.9, 1.5,0,0,1024,1024,1565,364,0,0,82,-100,98.9,0,0,100,4.242,4.244,0,0,0,0,5.523,85.64,107.53853592155,71.850396,6,P-GPS,
14700,2022-10-28 21:07:53,-34.9257929414079,-56.1554019197738,72.506564,90.059058,18.135645921548,108.19470392155,41.338584,0,54.529529304,59.026904776,18,5,8.44,108.19470392155,72.506564,11.2294388,54.561025368,0,0,-4.921268,83.6, 2.2, 1,0,0,1024,1024,1565,364,0,0,82,-100,95.7,0,0,100,4.242,4.244,0,0,0,0,5.523,85.64,108.19470392155,72.506564,6,P-GPS,
14800,2022-10-28 21:07:54,-34.9257930456414,-56.1554019847763,73.490816,91.04331,18.135645921548,109.17895592155,41.338584,0,54.541996496,59.069555696,18,5,8.44,109.17895592155,73.490816,11.2294388,54.561025368,0,0,-4.921268,80.4, 2, 0.8,0,0,1024,1024,1565,364,0,0,82,-100,92.5,0,0,100,4.242,4.244,0,0,0,0,5.523,85.64,109.17895592155,73.490816,6,P-GPS,
14900,2022-10-28 21:07:54,-34.9257931195337,-56.155402033698,74.146984,91.699478,18.135645921548,109.83512392155,41.338584,0,54.550198596,59.100395592,18,5,8.44,109.83512392155,74.146984,11.2294388,54.561025368,0,0,-4.921268,77.3, 1.5, 0.8,0,0,1024,1024,1565,364,0,0,82,-100,89.3,0,0,100,4.242,4.244,0,0,0,0,5.523,85.64,109.83512392155,74.146984,6,P-GPS,
15000,2022-10-28 21:07:54,-34.925793133903,-56.1554020759951,74.803152,92.355646,18.135645921548,110.49129192155,41.338584,0,54.544949252,59.113847036,18,5,8.44,110.49129192155,74.803152,11.2294388,54.561025368,0,0,-4.921268,74.1, 1.9, 1,0,0,1024,1024,1562,364,0,0,82,-100,86.1,0,0,100,4.242,4.244,0,0,0,0,5.523,85.64,110.49129192155,74.803152,6,P-GPS,
15100,2022-10-28 21:07:54,-34.9257931382608,-56.1554020928178,75.45932,93.011814,18.135645921548,111.14745992155,41.338584,0,54.54232458,59.11909638,18,5,8.491,111.14745992155,75.45932,11.2294388,54.561025368,0,0,-4.921268,71.1, 2.6, 1.6,0,0,1024,1024,1562,364,0,0,82,-100,82.9,0,0,100,4.247,4.245,0,0,0,0,4.513,85.82,111.14745992155,75.45932,6,P-GPS,
15200,2022-10-28 21:07:54,-34.9257935896329,-56.1554020349832,76.115488,93.7664072,18.037220721548,111.80362792155,41.338584,0,54.669621172,59.2847788,18,5,8.491,111.80362792155,76.115488,11.2294388,54.669621172,0,0,-4.921268,67.6, 1.7, 0.5,0,0,1024,1024,1557,364,0,0,81,-100,79.7,0,0,100,4.247,4.245,0,0,0,0,4.513,85.82,111.80362792155,76.115488,6,P-GPS,
15300,2022-10-28 21:07:54,-34.925793589229,-56.1554020276899,77.09974,94.7506592,18.037220721548,112.78787992155,41.338584,0,54.670933508,59.287075388,18,5,8.491,112.78787992155,77.09974,11.2294388,54.670933508,0,0,-4.921268,64.5, 1.6, 1.1,0,0,1024,1024,1553,364,0,0,80,-100,76.5,0,0,100,4.247,4.245,0,0,0,0,4.513,85.82,112.78787992155,77.09974,6,P-GPS,
15400,2022-10-28 21:07:54,-34.9257935049863,-56.1554020227998,77.755908,95.4068272,18.037220721548,113.44404792155,41.338584,0.223694,54.6505923,59.317915284,18,5,8.491,113.44404792155,77.755908,11.2294388,54.670933508,0.223694,0,-4.921268,61.3, 2.2, 1.2,0,0,1024,1024,1530,364,0,0,77,-100,73.3,0,0,100,4.247,4.245,0,0,0,0,4.513,85.82,113.44404792155,77.755908,6,P-GPS,
15500,2022-10-28 21:07:54,-34.9257934109144,-56.1554020056741,78.412076,95.96457,18.135645921548,114.10021592155,41.338584,0.223694,54.630251092,59.352364104,18,5,8.491,114.10021592155,78.412076,11.2294388,54.670933508,0.223694,0,-4.697574,58.1, 2.5, 1.2,0,0,1024,1024,1531,364,0,0,77,-100,70.1,0,0,100,4.247,4.245,0,0,0,0,4.513,85.82,114.10021592155,78.412076,6,P-GPS,
15600,2022-10-28 21:07:54,-34.9257933272905,-56.1554021639538,79.068244,96.620738,18.135645921548,114.75638392155,41.338584,0.223694,54.57513298,59.408794552,18,5,8.491,114.75638392155,79.068244,11.2294388,54.670933508,0.223694,0,-4.697574,55, 2.4, 1.5,0,0,1024,1024,1531,364,0,0,77,-100,66.9,0,0,100,4.247,4.245,0,0,0,0,4.513,85.82,114.75638392155,79.068244,6,P-GPS,
15700,2022-10-28 21:07:54,-34.9257932238453,-56.1554021567127,80.052496,97.60499,18.135645921548,115.74063592155,41.338584,0.223694,54.55052668,59.446524212,18,5,8.491,115.74063592155,80.052496,11.2294388,54.670933508,0.223694,0,-4.697574,51.8, 2.8, 1.7,0,0,1024,1024,1533,364,0,0,77,-100,63.7,0,0,100,4.247,4.245,0,0,0,0,4.513,85.82,115.74063592155,80.052496,6,P-GPS,
15800,2022-10-28 21:07:55,-34.9257930979014,-56.1554021141439,80.708664,98.261158,18.135645921548,116.39680392155,41.338584,0.223694,54.5275608,59.494424476,18,5,8.491,116.39680392155,80.708664,11.2294388,54.670933508,0.223694,0,-4.47388,48.7, 3.4, 1.6,0,0,1024,1024,1532,364,0,0,77,-100,60.5,0,0,100,4.247,4.245,0,0,0,0,4.513,85.82,116.39680392155,80.708664,6,P-GPS,
15900,2022-10-28 21:07:55,-34.9257929778134,-56.155402054533,81.364832,98.917326,18.135645921548,117.05297192155,41.338584,0.223694,54.509844264,59.541668572,18,5,8.491,117.05297192155,81.364832,11.2294388,54.670933508,0.223694,0,-4.697574,45.5, 3.8, 1.4,0,0,1024,1024,1536,364,0,0,78,-100,57.3,0,0,100,4.247,4.245,0,0,0,0,4.513,85.82,117.05297192155,81.364832,6,P-GPS,
16000,2022-10-28 21:07:55,-34.9257927915064,-56.1554019884021,82.021,99.573494,18.135645921548,117.70913992155,41.338584,0.223694,54.47670778,59.612534716,18,5,8.491,117.70913992155,82.021,11.2294388,54.670933508,0.223694,0,-4.697574,42.3, 4.1, 1.4,0,0,1024,1024,1536,364,0,0,78,-100,54.1,0,0,100,4.247,4.245,0,0,0,0,4.513,85.82,117.70913992155,82.021,6,P-GPS,
