time(millisecond),datetime(utc),latitude,longitude,height_above_takeoff(feet),height_above_ground_at_drone_location(feet),ground_elevation_at_drone_location(feet),altitude_above_seaLevel(feet),height_sonar(feet),speed(mph),distance(feet),mileage(feet),satellites,gpslevel,voltage(v),max_altitude(feet),max_ascent(feet),max_speed(mph),max_distance(feet), xSpeed(mph), ySpeed(mph), zSpeed(mph), compass_heading(degrees), pitch(degrees), roll(degrees),isPhoto,isVideo,rc_elevator,rc_aileron,rc_throttle,rc_rudder,rc_elevator(percent),rc_aileron(percent),rc_throttle(percent),rc_rudder(percent),gimbal_heading(degrees),gimbal_pitch(degrees),gimbal_roll(degrees),battery_percent,voltageCell1,voltageCell2,voltageCell3,voltageCell4,voltageCell5,voltageCell6,current(A),battery_temperature(f),altitude(feet),ascent(feet),flycStateRaw,flycState,message
275700,2022-08-12 04:49:26,0,0,0,,,3.28084E-5,0.328084,0,0,0,0,0,8.232,3.28084E-5,0,0,0,0,0,0,15.9, 3.4, -0.3,0,0,364,364,364,1684,-100,-100,-100,100,18.7,0,0,80,4.121,4.113,0,0,0,0,0.55,95,3.28084E-5,0,38,Tripod,"Baja velocidad de la tarjeta SD. Puede afectar a su uso normal. Sustituye la tarjeta SD (Code: 10028)"
275800,2022-08-12 04:49:26,0,0,0,,,3.28084E-5,0.328084,0,0,0,0,0,8.232,3.28084E-5,0,0,0,0,0,0,16, 3.4, -0.3,0,0,364,364,364,1684,-100,-100,-100,100,18.7,0,0,80,4.121,4.113,0,0,0,0,0.55,95,3.28084E-5,0,41,Motors_Started,
275900,2022-08-12 04:49:27,0,0,0,,,3.28084E-5,0.328084,0,0,0,0,0,8.232,3.28084E-5,0,0,0,0,0,0,15.9, 3.4, -0.3,0,0,364,364,364,1684,-100,-100,-100,100,18.7,0,0,80,4.121,4.113,0,0,0,0,0.55,95,3.28084E-5,0,41,Motors_Started,
276000,2022-08-12 04:49:27,0,0,0,,,3.28084E-5,0.328084,0,0,0,0,0,8.232,3.28084E-5,0,0,0,0,0,0,15.9, 3.4, -0.3,0,0,364,364,364,1684,-100,-100,-100,100,18.6,0,0,80,4.121,4.113,0,0,0,0,0.55,95,3.28084E-5,0,41,Motors_Started,
276100,2022-08-12 04:49:27,0,0,0,,,3.28084E-5,0.328084,0,0,0,0,0,8.232,3.28084E-5,0,0,0,0,0,0,15.9, 3.4, -0.3,0,0,364,364,364,1684,-100,-100,-100,100,18.6,0,0,80,4.121,4.113,0,0,0,0,0.55,95,3.28084E-5,0,41,Motors_Started,
276200,2022-08-12 04:49:27,0,0,0,,,3.28084E-5,0.328084,0,0,0,0,0,8.232,3.28084E-5,0,0,0,0,0,0,15.9, 3.4, -0.3,0,0,364,364,364,1684,-100,-100,-100,100,18.6,0,0,80,4.121,4.113,0,0,0,0,0.55,95,3.28084E-5,0,41,Motors_Started,
276300,2022-08-12 04:49:27,0,0,0,,,3.28084E-5,0.328084,0,0,0,0,0,8.232,3.28084E-5,0,0,0,0,0,0,15.9, 3.4, -0.3,0,0,364,364,364,1684,-100,-100,-100,100,18.6,0,0,80,4.121,4.113,0,0,0,0,0.55,95,3.28084E-5,0,41,Motors_Started,"Setting new Return-To-Home altitude to 40m (131 ft). Data Recorder File Index is 39. Setting new Maximum Flight Altitude to 30m (98 ft)"
276400,2022-08-12 04:49:27,0,0,0,,,3.28084E-5,0.328084,0,0,0,0,0,8.232,3.28084E-5,0,0,0,0,0,0,15.9, 3.4, -0.3,0,0,455,411,364,1684,-86,-93,-100,100,18.6,0,0,80,4.121,4.113,0,0,0,0,0.55,95,3.28084E-5,0,41,Motors_Started,
276500,2022-08-12 04:49:27,0,0,0,,,3.28084E-5,0.328084,0,0,0,0,0,8.232,3.28084E-5,0,0,0,0,0,0,16, 3.4, -0.4,0,0,948,1024,1024,1024,-12,0,0,0,18.6,0,0,80,4.121,4.113,0,0,0,0,0.55,95,3.28084E-5,0,41,Motors_Started,
276600,2022-08-12 04:49:27,0,0,0,,,3.28084E-5,0.328084,0,0,0,0,0,8.232,3.28084E-5,0,0,0,0,0,0,15.9, 3.4, -0.3,0,0,1024,1024,1024,1024,0,0,0,0,18.6,0,0,80,4.121,4.113,0,0,0,0,0.55,95,3.28084E-5,0,41,Motors_Started,
276700,2022-08-12 04:49:27,0,0,0,,,3.28084E-5,0.328084,0,0,0,0,0,8.216,3.28084E-5,0,0,0,0,0,0,16, 3.4, -0.3,0,0,1024,1024,1024,1024,0,0,0,0,18.6,0,0,80,4.111,4.101,0,0,0,0,0.868,95,3.28084E-5,0,41,Motors_Started,
276800,2022-08-12 04:49:27,0,0,0,,,3.28084E-5,0.328084,0,0,0,0,0,8.216,3.28084E-5,0,0,0,0,0,0,15.9, 3.4, -0.3,0,0,1024,1024,1024,1024,0,0,0,0,18.6,0,0,80,4.111,4.101,0,0,0,0,0.868,95,3.28084E-5,0,41,Motors_Started,
276900,2022-08-12 04:49:28,0,0,0,,,3.28084E-5,0.328084,0,0,0,0,0,8.216,3.28084E-5,0,0,0,0,0,0,16, 3.4, -0.3,0,0,1024,1024,1024,1024,0,0,0,0,18.6,0,0,80,4.111,4.101,0,0,0,0,0.868,95,3.28084E-5,0,10,Assisted_Takeoff,
277000,2022-08-12 04:49:28,0,0,0,,,3.28084E-5,0.328084,0,0,0,0,0,8.216,3.28084E-5,0,0,0,0,0,0,16, 3.4, -0.3,0,0,1024,1024,1024,1024,0,0,0,0,18.6,0,0,80,4.111,4.101,0,0,0,0,0.868,95,3.28084E-5,0,10,Assisted_Takeoff,
277100,2022-08-12 04:49:28,0,0,0,,,3.28084E-5,0.328084,0,0,0,0,0,8.216,3.28084E-5,0,0,0,0,0,0,16.1, 3.4, -0.4,0,0,1024,1024,1024,1024,0,0,0,0,18.7,0,0,80,4.111,4.101,0,0,0,0,0.868,95,3.28084E-5,0,10,Assisted_Takeoff,
277200,2022-08-12 04:49:28,0,0,0,,,3.28084E-5,0.328084,0,0,0,0,0,8.216,3.28084E-5,0,0,0,0,0,0,16.2, 3.4, -0.3,0,0,1024,1024,1024,1024,0,0,0,0,18.7,0,0,80,4.111,4.101,0,0,0,0,0.868,95,3.28084E-5,0,10,Assisted_Takeoff,
277300,2022-08-12 04:49:28,0,0,0,,,3.28084E-5,0.328084,0,0,0,0,0,8.216,3.28084E-5,0,0,0,0,0,0,16.2, 3.4, -0.4,0,0,1024,1024,1024,1024,0,0,0,0,18.8,0,0,80,4.111,4.101,0,0,0,0,0.868,95,3.28084E-5,0,10,Assisted_Takeoff,
277400,2022-08-12 04:49:28,0,0,0,,,3.28084E-5,0.328084,0,0,0,0,0,8.216,3.28084E-5,0,0,0,0,0,0,16.3, 3.4, -0.3,0,0,1024,1024,1024,1024,0,0,0,0,18.8,0,0,80,4.111,4.101,0,0,0,0,0.868,95,3.28084E-5,0,10,Assisted_Takeoff,
277500,2022-08-12 04:49:28,0,0,0,,,3.28084E-5,0.328084,0,0,0,0,0,8.216,3.28084E-5,0,0,0,0,0,0,16.2, 3.4, -0.4,0,0,1024,1024,1024,1024,0,0,0,0,18.8,0,0,80,4.111,4.101,0,0,0,0,0.868,95,3.28084E-5,0,10,Assisted_Takeoff,
277600,2022-08-12 04:49:28,0,0,0,,,3.28084E-5,0.328084,0,0,0,0,0,8.216,3.28084E-5,0,0,0,0,0,0,16.3, 3.4, -0.3,0,0,1024,1024,1024,1024,0,0,0,0,18.9,0,0,80,4.111,4.101,0,0,0,0,0.868,95,3.28084E-5,0,10,Assisted_Takeoff,
277700,2022-08-12 04:49:28,0,0,0,,,3.28084E-5,0.328084,0,0,0,0,0,8.215,3.28084E-5,0,0,0,0,0,0,16.3, 3.4, -0.4,0,0,1024,1024,1024,1024,0,0,0,0,18.9,0,0,80,4.115,4.106,0,0,0,0,1.41,95,3.28084E-5,0,10,Assisted_Takeoff,
277800,2022-08-12 04:49:29,0,0,0,,,3.28084E-5,0.328084,0,0,0,0,0,8.215,3.28084E-5,0,0,0,0,0,0,16.3, 3.4, -0.3,0,0,1024,1024,1024,1024,0,0,0,0,18.9,0,0,80,4.115,4.106,0,0,0,0,1.41,95,3.28084E-5,0,10,Assisted_Takeoff,
277900,2022-08-12 04:49:29,0,0,0,,,3.28084E-5,0.328084,0,0,0,0,0,8.215,3.28084E-5,0,0,0,0,0,0,16.3, 3.4, -0.4,0,0,1024,1024,1024,1024,0,0,0,0,18.9,0,0,80,4.115,4.106,0,0,0,0,1.41,95,3.28084E-5,0,10,Assisted_Takeoff,
278000,2022-08-12 04:49:29,0,0,0,,,3.28084E-5,0.328084,0,0,0,0,0,8.215,3.28084E-5,0,0,0,0,0,0,16.4, 3.4, -0.3,0,0,1024,1024,1024,1024,0,0,0,0,18.9,0,0,80,4.115,4.106,0,0,0,0,1.41,95,3.28084E-5,0,10,Assisted_Takeoff,
278100,2022-08-12 04:49:29,0,0,0,,,3.28084E-5,0.328084,0,0,0,0,0,8.215,3.28084E-5,0,0,0,0,0,0,16.4, 3.4, -0.4,0,0,1024,1024,1024,1024,0,0,0,0,19,0,0,80,4.115,4.106,0,0,0,0,1.41,95,3.28084E-5,0,10,Assisted_Takeoff,
278200,2022-08-12 04:49:29,0,0,0,,,3.28084E-5,0.328084,0,0,0,0,0,8.215,3.28084E-5,0,0,0,0,0,0,16.5, 3.4, -0.3,0,0,1024,1024,1024,1024,0,0,0,0,19,0,0,80,4.115,4.106,0,0,0,0,1.41,95,3.28084E-5,0,10,Assisted_Takeoff,
278300,2022-08-12 04:49:29,0,0,0,,,3.28084E-5,0.328084,0,0,0,0,0,8.215,3.28084E-5,0,0,0,0,0,0,16.5, 3.4, -0.4,0,0,1024,1024,1071,1024,0,0,7,0,19,0,0,80,4.115,4.106,0,0,0,0,1.41,95,3.28084E-5,0,10,Assisted_Takeoff,
278400,2022-08-12 04:49:29,0,0,0,,,3.28084E-5,0.328084,0,0,0,0,0,8.215,3.28084E-5,0,0,0,0,0,0,16.6, 3.4, -0.4,0,0,1024,1024,1386,1024,0,0,55,0,19.1,0,0,80,4.115,4.106,0,0,0,0,1.41,95,3.28084E-5,0,10,Assisted_Takeoff,
278500,2022-08-12 04:49:29,0,0,0,,,3.28084E-5,0.328084,0,0,0,0,0,8.215,3.28084E-5,0,0,0,0,0,0,16.6, 3.4, -0.4,0,0,1024,1024,1497,1024,0,0,72,0,19.1,0,0,80,4.115,4.106,0,0,0,0,1.41,95,3.28084E-5,0,10,Assisted_Takeoff,
278600,2022-08-12 04:49:29,0,0,0,,,3.28084E-5,0.328084,0,0,0,0,0,8.215,3.28084E-5,0,0,0,0,0,0,16.7, 3.4, -0.4,0,0,1024,1024,1024,1024,0,0,0,0,19.2,0,0,80,4.115,4.106,0,0,0,0,1.41,95,3.28084E-5,0,10,Assisted_Takeoff,
278700,2022-08-12 04:49:29,0,0,0,,,3.28084E-5,0.328084,0,0,0,0,0,8.215,3.28084E-5,0,0,0,0,0,0,16.6, 3.3, -0.4,0,0,1024,1024,1024,1024,0,0,0,0,19.2,0,0,80,4.115,4.106,0,0,0,0,1.41,95,3.28084E-5,0,10,Assisted_Takeoff,
278800,2022-08-12 04:49:30,0,0,0,,,3.28084E-5,0.328084,0,0,0,0,0,8.224,3.28084E-5,0,0,0,0,0,0,16.8, 3.4, -0.4,0,0,1024,1024,1330,1024,0,0,46,0,19.3,0,0,80,4.117,4.106,0,0,0,0,1.056,95,3.28084E-5,0,10,Assisted_Takeoff,
278900,2022-08-12 04:49:30,0,0,0,,,3.28084E-5,0.328084,0,0,0,0,0,8.224,3.28084E-5,0,0,0,0,0,0,16.9, 3.3, -0.4,0,0,1024,1024,1613,1024,0,0,89,0,19.3,0,0,80,4.117,4.106,0,0,0,0,1.056,95,3.28084E-5,0,10,Assisted_Takeoff,
279000,2022-08-12 04:49:30,0,0,0,,,3.28084E-5,0.328084,0,0,0,0,0,8.224,3.28084E-5,0,0,0,0,0,0,17, 3.3, -0.4,0,0,1024,1024,1613,1024,0,0,89,0,19.5,0,0,80,4.117,4.106,0,0,0,0,1.056,95,3.28084E-5,0,10,Assisted_Takeoff,
279100,2022-08-12 04:49:30,0,0,0,,,3.28084E-5,0.328084,0,0,0,0,0,8.224,3.28084E-5,0,0,0,0,0,0,17.2, 3.4, -0.4,0,0,1024,1024,1380,1024,0,0,54,0,19.5,0,0,80,4.117,4.106,0,0,0,0,1.056,95,3.28084E-5,0,10,Assisted_Takeoff,
279200,2022-08-12 04:49:30,0,0,0,,,3.28084E-5,0.328084,0,0,0,0,0,8.224,3.28084E-5,0,0,0,0,0,0,17.7, 2.1, -0.4,0,0,1024,1024,1307,1024,0,0,43,0,19.7,0,0,80,4.117,4.106,0,0,0,0,1.056,95,3.28084E-5,0,10,Assisted_Takeoff,
279300,2022-08-12 04:49:30,0,0,0,,,3.28084E-5,0.328084,0,0,0,0,0,8.224,3.28084E-5,0,0,0,0,0,0,19, -0.6, -0.3,0,0,1024,1024,1200,1024,0,0,27,0,20.5,0,0,80,4.117,4.106,0,0,0,0,1.056,95,3.28084E-5,0,10,Assisted_Takeoff,
279400,2022-08-12 04:49:30,0,0,0,,,3.28084E-5,0.328084,0,0,0,0,0,8.224,3.28084E-5,0,0,0,0,0,-0.447388,19.7, -1.1, 0.6,0,0,1024,1024,1024,1024,0,0,0,0,21.5,0,0,80,4.117,4.106,0,0,0,0,1.056,95,3.28084E-5,0,38,Tripod,"Baja velocidad de la tarjeta SD. Puede afectar a su uso normal. Sustituye la tarjeta SD (Code: 10028)"
279500,2022-08-12 04:49:30,0,0,0,,,3.28084E-5,0.328084,0,0,0,0,0,8.224,3.28084E-5,0,0,0,0,0,-0.671082,19.6, -0.4, 0.5,0,0,1024,1024,1024,1024,0,0,0,0,21.5,0,0,80,4.117,4.106,0,0,0,0,1.056,95,3.28084E-5,0,38,Tripod,
279600,2022-08-12 04:49:30,0,0,0.328084,,,0.3281168084,0.656168,0,0,0,0,0,8.224,0.3281168084,0.328084,0,0,0,0,-0.671082,19.2, -0.2, 0.8,0,0,1024,1024,1024,1024,0,0,0,0,21.5,0,0,80,4.117,4.106,0,0,0,0,1.056,95,0.3281168084,0.328084,38,Tripod,
279700,2022-08-12 04:49:30,0,0,0.328084,,,0.3281168084,0.656168,0,0,0,0,0,8.224,0.3281168084,0.328084,0,0,0,0,-0.894776,18.9, 0.6, 1,0,0,1024,1024,1024,1024,0,0,0,0,21.5,0,0,80,4.117,4.106,0,0,0,0,1.056,95,0.3281168084,0.328084,38,Tripod,
279800,2022-08-12 04:49:31,0,0,0.328084,,,0.3281168084,0.656168,0,0,0,0,0,8.204,0.3281168084,0.328084,0,0,0,0,-0.894776,18.9, 0.5, 0.4,0,0,1024,1024,1024,1024,0,0,0,0,21.5,0,0,80,4.075,4.062,0,0,0,0,1.785,95,0.3281168084,0.328084,38,Tripod,
279900,2022-08-12 04:49:31,0,0,0.656168,,,0.6562008084,0.984252,0,0,0,0,0,8.204,0.6562008084,0.656168,0,0,0,0,-0.894776,18.9, 0.4, 0.3,0,0,1024,1024,1395,1024,0,0,56,0,21.5,0,0,80,4.075,4.062,0,0,0,0,1.785,95,0.6562008084,0.656168,38,Tripod,
280000,2022-08-12 04:49:31,0,0,0.656168,,,0.6562008084,0.984252,0,0,0,0,0,8.204,0.6562008084,0.656168,0,0,0,0,-0.894776,18.9, 0.4, 0.5,0,0,1024,1024,1395,1024,0,0,56,0,21.5,0,0,80,4.075,4.062,0,0,0,0,1.785,95,0.6562008084,0.656168,38,Tripod,
280100,2022-08-12 04:49:31,0,0,0.656168,,,0.6562008084,1.312336,0,0,0,0,0,8.204,0.6562008084,0.656168,0,0,0,0,-0.894776,19, 0.5, 0.7,0,0,1024,1024,1481,1024,0,0,69,0,21.5,0,0,80,4.075,4.062,0,0,0,0,1.785,95,0.6562008084,0.656168,38,Tripod,
280200,2022-08-12 04:49:31,0,0,0.984252,,,0.9842848084,1.312336,0,0,0,0,0,8.204,0.9842848084,0.984252,0,0,0,0,-1.11847,19, 0.4, 0.7,0,0,1024,1024,1027,1024,0,0,0,0,21.5,0,0,80,4.075,4.062,0,0,0,0,1.785,95,0.9842848084,0.984252,38,Tripod,
280300,2022-08-12 04:49:31,0,0,0.984252,,,0.9842848084,1.64042,0,0,0,0,0,8.204,0.9842848084,0.984252,0,0,0,0,-1.342164,19, 0.4, 0.5,0,0,1024,1024,1024,1024,0,0,0,0,21.5,0,0,80,4.075,4.062,0,0,0,0,1.785,95,0.9842848084,0.984252,38,Tripod,
280400,2022-08-12 04:49:31,0,0,1.312336,,,1.3123688084,1.64042,0,0,0,0,0,8.204,1.3123688084,1.312336,0,0,0,0,-1.11847,18.9, 0.6, 0.2,0,0,1024,1024,1024,1024,0,0,0,0,21.5,0,0,80,4.075,4.062,0,0,0,0,1.785,95,1.3123688084,1.312336,38,Tripod,
280500,2022-08-12 04:49:31,0,0,1.312336,,,1.3123688084,1.64042,0,0,0,0,0,8.204,1.3123688084,1.312336,0,0,0,0,-0.671082,18.9, 0.6, -0.1,0,0,1024,1024,1024,1024,0,0,0,0,21.5,0,0,80,4.075,4.062,0,0,0,0,1.785,95,1.3123688084,1.312336,38,Tripod,
280600,2022-08-12 04:49:31,0,0,1.312336,,,1.3123688084,1.968504,0,0,0,0,0,8.204,1.3123688084,1.312336,0,0,0,0,-0.447388,18.9, 0.5, -0.4,0,0,1024,1024,1024,1024,0,0,0,0,21.5,0,0,80,4.075,4.062,0,0,0,0,1.785,95,1.3123688084,1.312336,38,Tripod,
280700,2022-08-12 04:49:31,0,0,1.64042,,,1.6404528084,1.968504,0,0,0,0,0,8.204,1.6404528084,1.64042,0,0,0,0,-0.223694,18.9, 0.5, -0.5,0,0,1024,1024,1024,1024,0,0,0,0,21.5,0,0,80,4.075,4.062,0,0,0,0,1.785,95,1.6404528084,1.64042,38,Tripod,
280800,2022-08-12 04:49:31,0,0,1.64042,,,1.6404528084,1.968504,0,0,0,0,0,8.128,1.6404528084,1.64042,0,0,0,0,0,18.9, 0.4, -0.7,0,0,1024,1024,1024,1024,0,0,0,0,21.5,0,0,80,4.074,4.062,0,0,0,0,4.247,95.18,1.6404528084,1.64042,38,Tripod,
280900,2022-08-12 04:49:32,0,0,1.64042,,,1.6404528084,1.968504,0,0,0,0,0,8.128,1.6404528084,1.64042,0,0,0,0,0,19, 0.4, -0.6,0,0,1024,1024,1024,1024,0,0,0,0,21.5,0,0,80,4.074,4.062,0,0,0,0,4.247,95.18,1.6404528084,1.64042,38,Tripod,
281000,2022-08-12 04:49:32,0,0,1.64042,,,1.6404528084,1.968504,0,0,0,0,0,8.128,1.6404528084,1.64042,0,0,0,0,0,19, 0.3, -0.6,0,0,1024,1024,1024,1024,0,0,0,0,21.5,0,0,80,4.074,4.062,0,0,0,0,4.247,95.18,1.6404528084,1.64042,38,Tripod,
281100,2022-08-12 04:49:32,0,0,1.64042,,,1.6404528084,1.968504,0,0,0,0,0,8.128,1.6404528084,1.64042,0,0,0,0,0,18.9, 0.3, -0.8,0,0,1024,1024,1024,1024,0,0,0,0,21.5,0,0,80,4.074,4.062,0,0,0,0,4.247,95.18,1.6404528084,1.64042,38,Tripod,
281200,2022-08-12 04:49:32,0,0,1.64042,,,1.6404528084,1.968504,0,0,0,0,0,8.128,1.6404528084,1.64042,0,0,0,0,0,18.9, 0.4, -0.8,0,0,1024,1024,1024,1024,0,0,0,0,21.5,0,0,80,4.074,4.062,0,0,0,0,4.247,95.18,1.6404528084,1.64042,38,Tripod,
281300,2022-08-12 04:49:32,0,0,1.64042,,,1.6404528084,1.968504,0,0,0,0,0,8.128,1.6404528084,1.64042,0,0,0,0,0,18.9, 0.6, -1.4,0,0,1024,571,1024,1024,0,-69,0,0,21.5,0,0,80,4.074,4.062,0,0,0,0,4.247,95.18,1.6404528084,1.64042,38,Tripod,
281400,2022-08-12 04:49:32,0,0,1.64042,,,1.6404528084,1.968504,0,0,0,0,0,8.128,1.6404528084,1.64042,0,0,0,0,0,19, 0.6, -2.4,0,0,1024,761,1024,1024,0,-40,0,0,21.5,0,0,80,4.074,4.062,0,0,0,0,4.247,95.18,1.6404528084,1.64042,38,Tripod,
281500,2022-08-12 04:49:32,0,0,1.64042,,,1.6404528084,1.968504,0,0,0,0,0,8.128,1.6404528084,1.64042,0,0,0,0,0,18.8, 0.3, -5.9,0,0,1024,1024,1024,1024,0,0,0,0,21.5,0,0,80,4.074,4.062,0,0,0,0,4.247,95.18,1.6404528084,1.64042,38,Tripod,
281600,2022-08-12 04:49:32,0,0,1.64042,,,1.6404528084,1.968504,0.223694,0,0,0,0,8.128,1.6404528084,1.64042,0,0,0,-0.223694,0,18.9, 0.3, -1,0,0,1024,1024,1024,1024,0,0,0,0,21.5,0,0,80,4.074,4.062,0,0,0,0,4.247,95.18,1.6404528084,1.64042,38,Tripod,
281700,2022-08-12 04:49:32,0,0,1.64042,,,1.6404528084,1.968504,0.223694,0,0,0,0,8.128,1.6404528084,1.64042,0,0,0,-0.223694,0,19.1, 0.2, 1.7,0,0,1024,1024,1058,1024,0,0,5,0,21.5,0,0,80,4.074,4.062,0,0,0,0,4.247,95.18,1.6404528084,1.64042,38,Tripod,
281800,2022-08-12 04:49:32,0,0,1.64042,,,1.6404528084,1.968504,0.223694,0,0,0,0,8.126,1.6404528084,1.64042,0,0,0,-0.223694,0,19, 0.3, 1.7,0,0,1024,1024,1497,1024,0,0,72,0,21.5,0,0,80,4.066,4.053,0,0,0,0,3.977,95.18,1.6404528084,1.64042,38,Tripod,
281900,2022-08-12 04:49:33,0,0,1.64042,,,1.6404528084,1.968504,0,0,0,0,0,8.126,1.6404528084,1.64042,0,0,0,0,0,19, 0.3, 1.4,0,0,1024,1024,1434,1024,0,0,62,0,21.5,0,0,80,4.066,4.053,0,0,0,0,3.977,95.18,1.6404528084,1.64042,38,Tripod,
282000,2022-08-12 04:49:33,0,0,1.64042,,,1.6404528084,1.968504,0,0,0,0,0,8.126,1.6404528084,1.64042,0,0,0,0,-0.223694,19.1, 0.4, 1,0,0,1024,1024,1024,1024,0,0,0,0,21.5,0,0,80,4.066,4.053,0,0,0,0,3.977,95.18,1.6404528084,1.64042,38,Tripod,
282100,2022-08-12 04:49:33,0,0,1.64042,,,1.6404528084,2.296588,0,0,0,0,0,8.126,1.6404528084,1.64042,0,0,0,0,-0.894776,19, 0.4, 0.7,0,0,1024,1024,1024,1024,0,0,0,0,21.5,0,0,80,4.066,4.053,0,0,0,0,3.977,95.18,1.6404528084,1.64042,38,Tripod,
282200,2022-08-12 04:49:33,0,0,1.968504,,,1.9685368084,2.296588,0,0,0,0,0,8.126,1.9685368084,1.968504,0,0,0,0,-0.671082,19, 0.7, 0,0,0,1024,1024,1024,1024,0,0,0,0,21.5,0,0,80,4.066,4.053,0,0,0,0,3.977,95.18,1.9685368084,1.968504,38,Tripod,
282300,2022-08-12 04:49:33,0,0,1.968504,,,1.9685368084,2.296588,0,0,0,0,0,8.126,1.9685368084,1.968504,0,0,0,0,-0.447388,19, 0.5, 0.4,0,0,1024,1024,1211,1024,0,0,28,0,21.5,0,0,80,4.066,4.053,0,0,0,0,3.977,95.18,1.9685368084,1.968504,38,Tripod,
282400,2022-08-12 04:49:33,0,0,1.968504,,,1.9685368084,2.296588,0,0,0,0,0,8.126,1.9685368084,1.968504,0,0,0,0,-0.223694,19, 0, 0.7,0,0,1024,1024,1197,1024,0,0,26,0,21.5,0,0,80,4.066,4.053,0,0,0,0,3.977,95.18,1.9685368084,1.968504,38,Tripod,
282500,2022-08-12 04:49:33,0,0,1.968504,,,1.9685368084,2.624672,0,0,0,0,0,8.126,1.9685368084,1.968504,0,0,0,0,-0.447388,18.9, 0.2, 0.3,0,0,1024,1024,1310,1024,0,0,43,0,21.5,0,0,80,4.066,4.053,0,0,0,0,3.977,95.18,1.9685368084,1.968504,38,Tripod,
282600,2022-08-12 04:49:33,0,0,2.296588,,,2.2966208084,2.624672,0,0,0,0,0,8.126,2.2966208084,2.296588,0,0,0,0,-0.447388,18.7, 0.4, 0.2,0,0,1024,1024,1618,1024,0,0,90,0,21.5,0,0,80,4.066,4.053,0,0,0,0,3.977,95.18,2.2966208084,2.296588,38,Tripod,
282700,2022-08-12 04:49:33,0,0,2.296588,,,2.2966208084,2.624672,0,0,0,0,0,8.126,2.2966208084,2.296588,0,0,0,0,-0.671082,18.8, 0.1, 0.2,0,0,1024,1024,1193,1024,0,0,26,0,21.5,0,0,80,4.066,4.053,0,0,0,0,3.977,95.18,2.2966208084,2.296588,38,Tripod,
282800,2022-08-12 04:49:33,0,0,2.296588,,,2.2966208084,2.952756,0,0,0,0,0,8.076,2.2966208084,2.296588,0,0,0,0,-1.342164,19, -0.1, 0,0,0,1024,1024,1024,1024,0,0,0,0,21.5,0,0,80,4.054,4.037,0,0,0,0,4.497,95,2.2966208084,2.296588,38,Tripod,
282900,2022-08-12 04:49:34,0,0,2.624672,,,2.6247048084,2.952756,0,0,0,0,0,8.076,2.6247048084,2.624672,0,0,0,0,-1.565858,18.9, -0.2, 0.1,0,0,1024,1024,1024,1024,0,0,0,0,21.5,0,0,80,4.054,4.037,0,0,0,0,4.497,95,2.6247048084,2.624672,38,Tripod,
283000,2022-08-12 04:49:34,0,0,2.952756,,,2.9527888084,3.28084,0,0,0,0,0,8.076,2.9527888084,2.952756,0,0,0,0,-1.11847,18.8, 0.6, 0.1,0,0,1024,1024,1024,1024,0,0,0,0,21.5,0,0,80,4.054,4.037,0,0,0,0,4.497,95,2.9527888084,2.952756,38,Tripod,
283100,2022-08-12 04:49:34,0,0,2.952756,,,2.9527888084,3.608924,0,0,0,0,0,8.076,2.9527888084,2.952756,0,0,0,0,-0.671082,18.7, 0.9, 0.6,0,0,1024,1024,1024,1024,0,0,0,0,21.5,0,0,80,4.054,4.037,0,0,0,0,4.497,95,2.9527888084,2.952756,38,Tripod,
283200,2022-08-12 04:49:34,0,0,3.28084,,,3.2808728084,3.608924,0,0,0,0,0,8.076,3.2808728084,3.28084,0,0,0,0,-0.447388,18.7, 0.7, 0.7,0,0,1024,1024,1024,1024,0,0,0,0,21.5,0,0,80,4.054,4.037,0,0,0,0,4.497,95,3.2808728084,3.28084,38,Tripod,
283300,2022-08-12 04:49:34,0,0,3.28084,,,3.2808728084,3.608924,0,0,0,0,0,8.076,3.2808728084,3.28084,0,0,0,0,-0.223694,18.8, 0.6, 0.5,0,0,1024,1024,1024,1024,0,0,0,0,21.5,0,0,80,4.054,4.037,0,0,0,0,4.497,95,3.2808728084,3.28084,38,Tripod,
283400,2022-08-12 04:49:34,0,0,3.28084,,,3.2808728084,3.608924,0,0,0,0,0,8.076,3.2808728084,3.28084,0,0,0,0,0,18.8, 0.6, 0.4,0,0,1024,1024,1024,1024,0,0,0,0,21.5,0,0,80,4.054,4.037,0,0,0,0,4.497,95,3.2808728084,3.28084,38,Tripod,
283500,2022-08-12 04:49:34,0,0,3.28084,,,3.2808728084,3.608924,0,0,0,0,0,8.076,3.2808728084,3.28084,0,0,0,0,0,18.8, 0.5, 0.2,0,0,1024,1024,1024,1024,0,0,0,0,21.5,0,0,80,4.054,4.037,0,0,0,0,4.497,95,3.2808728084,3.28084,38,Tripod,
283600,2022-08-12 04:49:34,0,0,3.28084,,,3.2808728084,3.608924,0,0,0,0,0,8.076,3.2808728084,3.28084,0,0,0,0,0,18.8, 0.5, 0,0,0,1024,1024,1024,1024,0,0,0,0,21.5,0,0,80,4.054,4.037,0,0,0,0,4.497,95,3.2808728084,3.28084,38,Tripod,
283700,2022-08-12 04:49:34,0,0,3.28084,,,3.2808728084,3.608924,0,0,0,0,0,8.076,3.2808728084,3.28084,0,0,0,0,0,18.8, 0.5, 0.1,0,0,1024,1024,1024,1024,0,0,0,0,21.5,0,0,80,4.054,4.037,0,0,0,0,4.497,95,3.2808728084,3.28084,38,Tripod,
283800,2022-08-12 04:49:35,0,0,3.28084,,,3.2808728084,3.608924,0,0,0,0,0,8.076,3.2808728084,3.28084,0,0,0,0,0,18.8, 0.4, 0,0,0,1024,1024,1024,1024,0,0,0,0,21.5,0,0,80,4.054,4.037,0,0,0,0,4.497,95,3.2808728084,3.28084,38,Tripod,
283900,2022-08-12 04:49:35,0,0,3.28084,,,3.2808728084,3.608924,0,0,0,0,0,8.126,3.2808728084,3.28084,0,0,0,0,0,18.8, 0.3, 0,0,0,1024,1024,1024,1024,0,0,0,0,21.5,0,0,80,4.064,4.051,0,0,0,0,4.285,95.18,3.2808728084,3.28084,38,Tripod,
284000,2022-08-12 04:49:35,0,0,3.28084,,,3.2808728084,3.608924,0,0,0,0,0,8.126,3.2808728084,3.28084,0,0,0,0,0,18.8, 0.2, 0.2,0,0,1024,1024,1024,1024,0,0,0,0,21.5,0,0,80,4.064,4.051,0,0,0,0,4.285,95.18,3.2808728084,3.28084,38,Tripod,
284100,2022-08-12 04:49:35,0,0,3.28084,,,3.2808728084,3.608924,0,0,0,0,0,8.126,3.2808728084,3.28084,0,0,0,0,0,18.8, 0.1, 0.4,0,0,1024,1024,1024,1024,0,0,0,0,21.5,0,0,80,4.064,4.051,0,0,0,0,4.285,95.18,3.2808728084,3.28084,38,Tripod,
284200,2022-08-12 04:49:35,0,0,3.28084,,,3.2808728084,3.608924,0,0,0,0,0,8.126,3.2808728084,3.28084,0,0,0,0,0,18.7, 0.1, 0.4,0,0,1024,1024,1024,1024,0,0,0,0,21.5,0,0,80,4.064,4.051,0,0,0,0,4.285,95.18,3.2808728084,3.28084,38,Tripod,
284300,2022-08-12 04:49:35,0,0,3.28084,,,3.2808728084,3.608924,0,0,0,0,0,8.126,3.2808728084,3.28084,0,0,0,0,0,18.8, 0.2, 0.5,0,0,1024,1024,1024,1024,0,0,0,0,21.5,0,0,80,4.064,4.051,0,0,0,0,4.285,95.18,3.2808728084,3.28084,38,Tripod,
284400,2022-08-12 04:49:35,0,0,3.28084,,,3.2808728084,3.608924,0,0,0,0,0,8.126,3.2808728084,3.28084,0,0,0,0,0,18.8, 0.2, 0.4,0,0,1024,1024,1024,1024,0,0,0,0,21.5,0,0,80,4.064,4.051,0,0,0,0,4.285,95.18,3.2808728084,3.28084,38,Tripod,
284500,2022-08-12 04:49:35,0,0,3.28084,,,3.2808728084,3.608924,0,0,0,0,0,8.126,3.2808728084,3.28084,0,0,0,0,0,18.8, 0.2, 0.5,0,0,1024,1024,1024,1024,0,0,0,0,21.5,0,0,80,4.064,4.051,0,0,0,0,4.285,95.18,3.2808728084,3.28084,38,Tripod,
284600,2022-08-12 04:49:35,0,0,3.28084,,,3.2808728084,3.608924,0,0,0,0,0,8.126,3.2808728084,3.28084,0,0,0,0,0,18.8, 0.2, 0.3,0,0,1024,1024,1024,1024,0,0,0,0,21.5,0,0,80,4.064,4.051,0,0,0,0,4.285,95.18,3.2808728084,3.28084,38,Tripod,
284700,2022-08-12 04:49:35,0,0,3.28084,,,3.2808728084,3.608924,0,0,0,0,0,8.126,3.2808728084,3.28084,0,0,0,0,0,18.8, 0.2, 0.4,0,0,1024,1024,1024,1024,0,0,0,0,21.5,0,0,80,4.064,4.051,0,0,0,0,4.285,95.18,3.2808728084,3.28084,38,Tripod,
284800,2022-08-12 04:49:36,0,0,3.28084,,,3.2808728084,3.608924,0,0,0,0,0,8.126,3.2808728084,3.28084,0,0,0,0,0,18.8, 0.4, 0.2,0,0,1024,1024,1024,1024,0,0,0,0,21.5,0,0,80,4.064,4.051,0,0,0,0,4.285,95.18,3.2808728084,3.28084,38,Tripod,
284900,2022-08-12 04:49:36,0,0,3.28084,,,3.2808728084,3.608924,0,0,0,0,0,8.126,3.2808728084,3.28084,0,0,0,0,0,18.8, 0.6, 0.1,0,0,1024,1024,1024,1024,0,0,0,0,21.5,0,0,80,4.06,4.048,0,0,0,0,4.285,95.18,3.2808728084,3.28084,38,Tripod,
285000,2022-08-12 04:49:36,0,0,3.28084,,,3.2808728084,3.608924,0,0,0,0,0,8.126,3.2808728084,3.28084,0,0,0,0,0,18.8, 0.5, 0.2,0,0,1024,1024,1024,1024,0,0,0,0,21.5,0,0,80,4.06,4.048,0,0,0,0,4.285,95.18,3.2808728084,3.28084,38,Tripod,
285100,2022-08-12 04:49:36,0,0,3.28084,,,3.2808728084,3.608924,0,0,0,0,0,8.126,3.2808728084,3.28084,0,0,0,0,0,18.8, 0.4, 0.4,0,0,1024,1024,1024,1024,0,0,0,0,21.5,0,0,80,4.06,4.048,0,0,0,0,4.285,95.18,3.2808728084,3.28084,38,Tripod,
285200,2022-08-12 04:49:36,0,0,3.28084,,,3.2808728084,3.608924,0,0,0,0,0,8.126,3.2808728084,3.28084,0,0,0,0,0,18.9, 0.5, 0.3,0,0,1024,1024,1024,1024,0,0,0,0,21.5,0,0,80,4.06,4.048,0,0,0,0,4.285,95.18,3.2808728084,3.28084,38,Tripod,
285300,2022-08-12 04:49:36,0,0,3.28084,,,3.2808728084,3.608924,0,0,0,0,0,8.126,3.2808728084,3.28084,0,0,0,0,0,18.8, 0.5, 0.3,0,0,1024,1024,1024,1024,0,0,0,0,21.5,0,0,80,4.06,4.048,0,0,0,0,4.285,95.18,3.2808728084,3.28084,38,Tripod,
285400,2022-08-12 04:49:36,0,0,3.28084,,,3.2808728084,3.608924,0,0,0,0,0,8.126,3.2808728084,3.28084,0,0,0,0,0,18.8, 0.3, 0,0,0,1024,1024,1024,1024,0,0,0,0,21.5,0,0,80,4.06,4.048,0,0,0,0,4.285,95.18,3.2808728084,3.28084,38,Tripod,
285500,2022-08-12 04:49:36,0,0,3.28084,,,3.2808728084,3.608924,0,0,0,0,0,8.126,3.2808728084,3.28084,0,0,0,0,0,18.7, 0.3, 0,0,0,1024,1024,1024,1024,0,0,0,0,21.5,0,0,80,4.06,4.048,0,0,0,0,4.285,95.18,3.2808728084,3.28084,38,Tripod,
285600,2022-08-12 04:49:36,0,0,3.28084,,,3.2808728084,3.608924,0,0,0,0,0,8.126,3.2808728084,3.28084,0,0,0,0,0,18.8, 0.4, 0.3,0,0,1024,1024,1024,1024,0,0,0,0,21.5,0,0,80,4.06,4.048,0,0,0,0,4.285,95.18,3.2808728084,3.28084,38,Tripod,
285700,2022-08-12 04:49:36,0,0,3.28084,,,3.2808728084,3.608924,0,0,0,0,0,8.126,3.2808728084,3.28084,0,0,0,0,0,18.9, 0.2, 0.6,0,0,1024,1024,1024,1024,0,0,0,0,21.5,0,0,80,4.06,4.048,0,0,0,0,4.285,95.18,3.2808728084,3.28084,38,Tripod,
285800,2022-08-12 04:49:37,0,0,3.28084,,,3.2808728084,3.608924,0,0,0,0,0,8.126,3.2808728084,3.28084,0,0,0,0,0,18.9, 0.3, 0.9,0,0,1024,1024,1024,1024,0,0,0,0,21.5,0,0,80,4.06,4.048,0,0,0,0,4.285,95.18,3.2808728084,3.28084,38,Tripod,
285900,2022-08-12 04:49:37,0,0,3.28084,,,3.2808728084,3.608924,0,0,0,0,0,8.109,3.2808728084,3.28084,0,0,0,0,0,18.9, 0.2, 0.8,0,0,1024,1024,1024,1024,0,0,0,0,21.5,0,0,80,4.058,4.047,0,0,0,0,4.109,95.18,3.2808728084,3.28084,38,Tripod,
286000,2022-08-12 04:49:37,0,0,3.28084,,,3.2808728084,3.608924,0,0,0,0,0,8.109,3.2808728084,3.28084,0,0,0,0,0,18.8, 0.3, 0.7,0,0,1024,1024,1024,1024,0,0,0,0,21.5,0,0,80,4.058,4.047,0,0,0,0,4.109,95.18,3.2808728084,3.28084,38,Tripod,
286100,2022-08-12 04:49:37,0,0,3.28084,,,3.2808728084,3.608924,0,0,0,0,0,8.109,3.2808728084,3.28084,0,0,0,0,0,18.9, 0.1, 0.7,0,0,1024,1024,1024,1024,0,0,0,0,21.5,0,0,80,4.058,4.047,0,0,0,0,4.109,95.18,3.2808728084,3.28084,38,Tripod,
286200,2022-08-12 04:49:37,0,0,3.28084,,,3.2808728084,3.608924,0,0,0,0,0,8.109,3.2808728084,3.28084,0,0,0,0,0,18.9, 0, 0.4,0,0,1024,1024,1024,1024,0,0,0,0,21.5,0,0,80,4.058,4.047,0,0,0,0,4.109,95.18,3.2808728084,3.28084,38,Tripod,
286300,2022-08-12 04:49:37,0,0,3.28084,,,3.2808728084,3.608924,0,0,0,0,0,8.109,3.2808728084,3.28084,0,0,0,0,0,18.9, -0.1, 0.1,0,0,1024,1024,1024,1024,0,0,0,0,21.5,0,0,80,4.058,4.047,0,0,0,0,4.109,95.18,3.2808728084,3.28084,38,Tripod,
286400,2022-08-12 04:49:37,0,0,3.28084,,,3.2808728084,3.608924,0,0,0,0,0,8.109,3.2808728084,3.28084,0,0,0,0,0,18.9, 0.1, 0,0,0,1024,1024,1024,1024,0,0,0,0,21.5,0,0,80,4.058,4.047,0,0,0,0,4.109,95.18,3.2808728084,3.28084,38,Tripod,
286500,2022-08-12 04:49:37,0,0,3.28084,,,3.2808728084,3.608924,0,0,0,0,0,8.109,3.2808728084,3.28084,0,0,0,0,0,18.9, 0.4, -0.1,0,0,1024,1024,1024,1024,0,0,0,0,21.5,0,0,80,4.058,4.047,0,0,0,0,4.109,95.18,3.2808728084,3.28084,38,Tripod,
286600,2022-08-12 04:49:37,0,0,3.28084,,,3.2808728084,3.608924,0,0,0,0,0,8.109,3.2808728084,3.28084,0,0,0,0,0,18.9, 0.3, 0,0,0,1024,1024,1024,1024,0,0,0,0,21.5,0,0,80,4.058,4.047,0,0,0,0,4.109,95.18,3.2808728084,3.28084,38,Tripod,
286700,2022-08-12 04:49:37,0,0,3.28084,,,3.2808728084,3.608924,0,0,0,0,0,8.109,3.2808728084,3.28084,0,0,0,0,0,18.8, 0.3, 0,0,0,1024,1024,1024,1024,0,0,0,0,21.5,0,0,80,4.058,4.047,0,0,0,0,4.109,95.18,3.2808728084,3.28084,38,Tripod,
286800,2022-08-12 04:49:37,0,0,3.28084,,,3.2808728084,3.608924,0,0,0,0,0,8.109,3.2808728084,3.28084,0,0,0,0,0,18.9, 0.6, 0.1,0,0,1024,1024,1024,1024,0,0,0,0,21.5,0,0,80,4.058,4.047,0,0,0,0,4.109,95.18,3.2808728084,3.28084,38,Tripod,
286900,2022-08-12 04:49:38,0,0,3.28084,,,3.2808728084,3.608924,0,0,0,0,0,8.105,3.2808728084,3.28084,0,0,0,0,0,18.9, 0.4, 0.3,0,0,1024,1024,1024,1024,0,0,0,0,21.5,0,0,80,4.056,4.043,0,0,0,0,4.186,95.18,3.2808728084,3.28084,38,Tripod,
287000,2022-08-12 04:49:38,0,0,3.28084,,,3.2808728084,3.608924,0,0,0,0,0,8.105,3.2808728084,3.28084,0,0,0,0,0,18.9, 0.2, 0.1,0,0,1024,1024,1024,1024,0,0,0,0,21.5,0,0,80,4.056,4.043,0,0,0,0,4.186,95.18,3.2808728084,3.28084,38,Tripod,
287100,2022-08-12 04:49:38,0,0,3.28084,,,3.2808728084,3.608924,0,0,0,0,0,8.105,3.2808728084,3.28084,0,0,0,0,0,18.9, 0.3, 0.2,0,0,1024,1024,1024,1024,0,0,0,0,21.5,0,0,80,4.056,4.043,0,0,0,0,4.186,95.18,3.2808728084,3.28084,38,Tripod,
287200,2022-08-12 04:49:38,0,0,3.28084,,,3.2808728084,3.608924,0,0,0,0,0,8.105,3.2808728084,3.28084,0,0,0,0,0,18.9, 0.2, 0,0,0,1024,1024,1024,1024,0,0,0,0,21.5,0,0,80,4.056,4.043,0,0,0,0,4.186,95.18,3.2808728084,3.28084,38,Tripod,
287300,2022-08-12 04:49:38,0,0,3.28084,,,3.2808728084,3.608924,0,0,0,0,0,8.105,3.2808728084,3.28084,0,0,0,0,0,19, 0.3, 0.2,0,0,1024,1024,1024,1024,0,0,0,0,21.5,0,0,80,4.056,4.043,0,0,0,0,4.186,95.18,3.2808728084,3.28084,38,Tripod,
287400,2022-08-12 04:49:38,0,0,3.28084,,,3.2808728084,3.608924,0,0,0,0,0,8.105,3.2808728084,3.28084,0,0,0,0,0,19, 0.4, 0,0,0,1064,1024,1024,1024,6,0,0,0,21.5,0,0,80,4.056,4.043,0,0,0,0,4.186,95.18,3.2808728084,3.28084,38,Tripod,
287500,2022-08-12 04:49:38,0,0,3.28084,,,3.2808728084,3.608924,0,0,0,0,0,8.105,3.2808728084,3.28084,0,0,0,0,0,19, 0.2, 0.3,0,0,1064,1024,1024,1024,6,0,0,0,21.5,0,0,80,4.056,4.043,0,0,0,0,4.186,95.18,3.2808728084,3.28084,38,Tripod,
287600,2022-08-12 04:49:38,0,0,3.28084,,,3.2808728084,3.608924,0,0,0,0,0,8.105,3.2808728084,3.28084,0,0,0,0,0,18.9, 0.3, 0.3,0,0,1024,1024,1024,1024,0,0,0,0,21.5,0,0,80,4.056,4.043,0,0,0,0,4.186,95.18,3.2808728084,3.28084,38,Tripod,
287700,2022-08-12 04:49:38,0,0,3.28084,,,3.2808728084,3.608924,0,0,0,0,0,8.105,3.2808728084,3.28084,0,0,0,0,0,18.8, 0.5, 0.9,0,0,1024,1024,1024,1024,0,0,0,0,21.5,0,0,80,4.056,4.043,0,0,0,0,4.186,95.18,3.2808728084,3.28084,38,Tripod,
287800,2022-08-12 04:49:38,0,0,3.28084,,,3.2808728084,3.608924,0,0,0,0,0,8.105,3.2808728084,3.28084,0,0,0,0,0,18.9, 0.3, 1.3,0,0,1024,1024,1024,1024,0,0,0,0,21.5,0,0,80,4.056,4.043,0,0,0,0,4.186,95.18,3.2808728084,3.28084,38,Tripod,
287900,2022-08-12 04:49:39,0,0,3.28084,,,3.2808728084,3.608924,0,0,0,0,0,8.102,3.2808728084,3.28084,0,0,0,0,0,18.9, 0.3, 1.2,0,0,1024,1024,1024,1024,0,0,0,0,21.5,0,0,80,4.056,4.044,0,0,0,0,4.167,95.18,3.2808728084,3.28084,38,Tripod,
288000,2022-08-12 04:49:39,0,0,3.28084,,,3.2808728084,3.608924,0,0,0,0,0,8.102,3.2808728084,3.28084,0,0,0,0,0,19, 0.1, 1,0,0,1024,1024,1024,1024,0,0,0,0,21.5,0,0,80,4.056,4.044,0,0,0,0,4.167,95.18,3.2808728084,3.28084,38,Tripod,
288100,2022-08-12 04:49:39,0,0,3.28084,,,3.2808728084,3.608924,0,0,0,0,0,8.102,3.2808728084,3.28084,0,0,0,0,0,18.9, 0.1, 0.6,0,0,1024,1024,1024,1024,0,0,0,0,21.5,0,0,80,4.056,4.044,0,0,0,0,4.167,95.18,3.2808728084,3.28084,38,Tripod,
288200,2022-08-12 04:49:39,0,0,3.28084,,,3.2808728084,3.608924,0,0,0,0,0,8.102,3.2808728084,3.28084,0,0,0,0,0,18.9, 0, 0,0,0,1024,1024,1024,1024,0,0,0,0,21.5,0,0,80,4.056,4.044,0,0,0,0,4.167,95.18,3.2808728084,3.28084,38,Tripod,
288300,2022-08-12 04:49:39,0,0,3.28084,,,3.2808728084,3.608924,0,0,0,0,0,8.102,3.2808728084,3.28084,0,0,0,0,0,18.9, 0.2, -0.1,0,0,1024,1024,1024,1024,0,0,0,0,21.5,0,0,80,4.056,4.044,0,0,0,0,4.167,95.18,3.2808728084,3.28084,38,Tripod,
288400,2022-08-12 04:49:39,0,0,3.28084,,,3.2808728084,3.608924,0,0,0,0,0,8.102,3.2808728084,3.28084,0,0,0,0,0,18.9, 0.3, -0.3,0,0,1024,1024,1024,1024,0,0,0,0,21.5,0,0,80,4.056,4.044,0,0,0,0,4.167,95.18,3.2808728084,3.28084,38,Tripod,
288500,2022-08-12 04:49:39,0,0,3.28084,,,3.2808728084,3.608924,0,0,0,0,0,8.102,3.2808728084,3.28084,0,0,0,0,0,18.9, 0.2, -0.4,0,0,1024,1024,1024,1024,0,0,0,0,21.5,0,0,80,4.056,4.044,0,0,0,0,4.167,95.18,3.2808728084,3.28084,38,Tripod,
288600,2022-08-12 04:49:39,0,0,3.28084,,,3.2808728084,3.608924,0,0,0,0,0,8.102,3.2808728084,3.28084,0,0,0,0,0,18.9, 0.2, -0.2,0,0,1024,1024,1024,1024,0,0,0,0,21.5,0,0,80,4.056,4.044,0,0,0,0,4.167,95.18,3.2808728084,3.28084,38,Tripod,
288700,2022-08-12 04:49:39,0,0,3.28084,,,3.2808728084,3.608924,0,0,0,0,0,8.102,3.2808728084,3.28084,0,0,0,0,0,18.9, 0.4, -0.1,0,0,1024,1024,1024,1024,0,0,0,0,21.5,0,0,80,4.056,4.044,0,0,0,0,4.167,95.18,3.2808728084,3.28084,38,Tripod,
288800,2022-08-12 04:49:39,0,0,3.28084,,,3.2808728084,3.608924,0,0,0,0,0,8.102,3.2808728084,3.28084,0,0,0,0,0,18.9, 0.2, 0,0,0,1024,1024,1024,1024,0,0,0,0,21.5,0,0,80,4.056,4.044,0,0,0,0,4.167,95.18,3.2808728084,3.28084,38,Tripod,
288900,2022-08-12 04:49:40,0,0,3.28084,,,3.2808728084,3.608924,0,0,0,0,0,8.099,3.2808728084,3.28084,0,0,0,0,0,18.9, 0.3, 0,0,0,1024,1024,1024,1024,0,0,0,0,21.5,0,0,80,4.052,4.04,0,0,0,0,4.208,95.18,3.2808728084,3.28084,38,Tripod,
289000,2022-08-12 04:49:40,0,0,3.28084,,,3.2808728084,3.608924,0,0,0,0,0,8.099,3.2808728084,3.28084,0,0,0,0,0,18.8, 0.2, 0.1,0,0,1024,1024,1024,1024,0,0,0,0,21.5,0,0,80,4.052,4.04,0,0,0,0,4.208,95.18,3.2808728084,3.28084,38,Tripod,
289100,2022-08-12 04:49:40,0,0,3.28084,,,3.2808728084,3.608924,0,0,0,0,0,8.099,3.2808728084,3.28084,0,0,0,0,0,18.8, 0.1, 0,0,0,1024,1024,1024,1024,0,0,0,0,21.5,0,0,80,4.052,4.04,0,0,0,0,4.208,95.18,3.2808728084,3.28084,38,Tripod,
289200,2022-08-12 04:49:40,0,0,3.28084,,,3.2808728084,3.608924,0,0,0,0,0,8.099,3.2808728084,3.28084,0,0,0,0,0,18.8, 0.1, 0.1,0,0,1024,821,1024,1024,0,-31,0,0,21.5,0,0,80,4.052,4.04,0,0,0,0,4.208,95.18,3.2808728084,3.28084,38,Tripod,
289300,2022-08-12 04:49:40,0,0,3.28084,,,3.2808728084,3.608924,0,0,0,0,0,8.099,3.2808728084,3.28084,0,0,0,0,0,18.7, 0.1, 0,0,0,1024,478,1024,1024,0,-83,0,0,21.5,0,0,80,4.052,4.04,0,0,0,0,4.208,95.18,3.2808728084,3.28084,38,Tripod,
289400,2022-08-12 04:49:40,0,0,3.28084,,,3.2808728084,3.608924,0,0,0,0,0,8.099,3.2808728084,3.28084,0,0,0,0,0,18.7, 0.2, -3.2,0,0,1024,1024,1024,1024,0,0,0,0,21.5,0,0,80,4.052,4.04,0,0,0,0,4.208,95.18,3.2808728084,3.28084,38,Tripod,
289500,2022-08-12 04:49:40,0,0,3.28084,,,3.2808728084,3.608924,0.223694,0,0,0,0,8.099,3.2808728084,3.28084,0,0,0,-0.223694,0,18.6, 0.1, -7.3,0,0,1024,1024,1024,1024,0,0,0,0,21.5,0,0,80,4.052,4.04,0,0,0,0,4.208,95.18,3.2808728084,3.28084,38,Tripod,
289600,2022-08-12 04:49:40,0,0,3.28084,,,3.2808728084,3.608924,0.447388,0,0,0,0,8.099,3.2808728084,3.28084,0,0,0,-0.447388,0,18.9, 0.2, 0.8,0,0,1024,1024,1024,1024,0,0,0,0,21.5,0,0,80,4.052,4.04,0,0,0,0,4.208,95.18,3.2808728084,3.28084,38,Tripod,
289700,2022-08-12 04:49:40,0,0,3.28084,,,3.2808728084,3.608924,0.223694,0,0,0,0,8.099,3.2808728084,3.28084,0,0,0,-0.223694,0,19.1, 0.4, 2.8,0,0,1024,1024,1024,1024,0,0,0,0,21.5,0,0,80,4.052,4.04,0,0,0,0,4.208,95.18,3.2808728084,3.28084,38,Tripod,
289800,2022-08-12 04:49:41,0,0,3.28084,,,3.2808728084,3.608924,0.223694,0,0,0,0,8.099,3.2808728084,3.28084,0,0,0,-0.223694,0,19, 0.5, 2.6,0,0,1024,1024,1024,1024,0,0,0,0,21.5,0,0,80,4.052,4.04,0,0,0,0,4.208,95.18,3.2808728084,3.28084,38,Tripod,
289900,2022-08-12 04:49:41,0,0,3.28084,,,3.2808728084,3.608924,0.223694,0,0,0,0,8.094,3.2808728084,3.28084,0,0,0,-0.223694,0,19, 0.5, 2.4,0,0,1024,1024,1024,1024,0,0,0,0,21.5,0,0,80,4.051,4.038,0,0,0,0,4.229,95.18,3.2808728084,3.28084,38,Tripod,
290000,2022-08-12 04:49:41,0,0,3.28084,,,3.2808728084,3.608924,0,0,0,0,0,8.094,3.2808728084,3.28084,0,0,0,0,0,19, 0.4, 2,0,0,1024,364,1024,1024,0,-100,0,0,21.5,0,0,80,4.051,4.038,0,0,0,0,4.229,95.18,3.2808728084,3.28084,38,Tripod,
290100,2022-08-12 04:49:41,0,0,3.28084,,,3.2808728084,3.608924,0,0,0,0,0,8.094,3.2808728084,3.28084,0,0,0,0,0,18.8, 0.2, -4.1,0,0,1024,1024,1024,1024,0,0,0,0,21.5,0,0,80,4.051,4.038,0,0,0,0,4.229,95.18,3.2808728084,3.28084,38,Tripod,
290200,2022-08-12 04:49:41,0,0,3.28084,,,3.2808728084,3.608924,0.223694,0,0,0,0,8.094,3.2808728084,3.28084,0,0,0,-0.223694,0,18.6, 0.3, -9.7,0,0,1024,1024,1024,1024,0,0,0,0,21.5,0,0,80,4.051,4.038,0,0,0,0,4.229,95.18,3.2808728084,3.28084,38,Tripod,
290300,2022-08-12 04:49:41,0,0,3.28084,,,3.2808728084,3.608924,0.447388,0,0,0,0,8.094,3.2808728084,3.28084,0,0,0,-0.447388,0,19, 0.4, 0.7,0,0,1024,1024,1024,1024,0,0,0,0,21.5,0,0,80,4.051,4.038,0,0,0,0,4.229,95.18,3.2808728084,3.28084,38,Tripod,
290400,2022-08-12 04:49:41,0,0,3.28084,,,3.2808728084,3.608924,0.447388,0,0,0,0,8.094,3.2808728084,3.28084,0,0,0,-0.447388,0,19.1, 0.3, 3,0,0,1024,693,1024,1024,0,-50,0,0,21.5,0,0,80,4.051,4.038,0,0,0,0,4.229,95.18,3.2808728084,3.28084,38,Tripod,
290500,2022-08-12 04:49:41,0,0,3.28084,,,3.2808728084,3.608924,0.447388,0,0,0,0,8.094,3.2808728084,3.28084,0,0,0,-0.447388,0,18.9, 0.1, 2.8,0,0,1024,548,1024,1024,0,-72,0,0,21.5,0,0,80,4.051,4.038,0,0,0,0,4.229,95.18,3.2808728084,3.28084,38,Tripod,
290600,2022-08-12 04:49:41,0,0,3.28084,,,3.2808728084,3.608924,0.223694,0,0,0,0,8.094,3.2808728084,3.28084,0,0,0,-0.223694,0,18.9, 0.2, 0.6,0,0,1024,548,1024,1024,0,-72,0,0,21.5,0,0,80,4.051,4.038,0,0,0,0,4.229,95.18,3.2808728084,3.28084,38,Tripod,
290700,2022-08-12 04:49:41,0,0,3.28084,,,3.2808728084,3.608924,0.223694,0,0,0,0,8.094,3.2808728084,3.28084,0,0,0,-0.223694,0,18.7, 0, -5.1,0,0,1024,1024,1024,1024,0,0,0,0,21.5,0,0,80,4.051,4.038,0,0,0,0,4.229,95.18,3.2808728084,3.28084,38,Tripod,
290800,2022-08-12 04:49:42,0,0,3.28084,,,3.2808728084,3.608924,0.447388,0,0,0,0,8.094,3.2808728084,3.28084,0,0,0,-0.447388,0,19, 0.2, 0.2,0,0,1024,1024,1024,1024,0,0,0,0,21.5,0,0,80,4.051,4.038,0,0,0,0,4.229,95.18,3.2808728084,3.28084,38,Tripod,
290900,2022-08-12 04:49:42,0,0,3.28084,,,3.2808728084,3.608924,0.447388,0,0,0,0,8.092,3.2808728084,3.28084,0,0,0,-0.447388,0,19.1, 0.2, 3.2,0,0,1024,1024,1024,1024,0,0,0,0,21.5,0,0,80,4.05,4.037,0,0,0,0,4.217,95.36,3.2808728084,3.28084,38,Tripod,
291000,2022-08-12 04:49:42,0,0,3.28084,,,3.2808728084,3.608924,0.223694,0,0,0,0,8.092,3.2808728084,3.28084,0,0,0,-0.223694,0,19, 0.4, 3.2,0,0,1024,1024,1024,1024,0,0,0,0,21.5,0,0,80,4.05,4.037,0,0,0,0,4.217,95.36,3.2808728084,3.28084,38,Tripod,
291100,2022-08-12 04:49:42,0,0,3.28084,,,3.2808728084,3.608924,0.223694,0,0,0,0,8.092,3.2808728084,3.28084,0,0,0,-0.223694,0,18.9, 0.3, 2.7,0,0,1024,1024,1024,1024,0,0,0,0,21.5,0,0,80,4.05,4.037,0,0,0,0,4.217,95.36,3.2808728084,3.28084,38,Tripod,
291200,2022-08-12 04:49:42,0,0,3.28084,,,3.2808728084,3.608924,0,0,0,0,0,8.092,3.2808728084,3.28084,0,0,0,0,0,18.9, 0.4, 2.2,0,0,1024,1024,1024,1024,0,0,0,0,21.5,0,0,80,4.05,4.037,0,0,0,0,4.217,95.36,3.2808728084,3.28084,38,Tripod,
291300,2022-08-12 04:49:42,0,0,3.28084,,,3.2808728084,3.608924,0,0,0,0,0,8.092,3.2808728084,3.28084,0,0,0,0,0,18.9, 0.4, 2.1,0,0,1024,1024,1024,1024,0,0,0,0,21.5,0,0,80,4.05,4.037,0,0,0,0,4.217,95.36,3.2808728084,3.28084,38,Tripod,
291400,2022-08-12 04:49:42,0,0,3.28084,,,3.2808728084,3.608924,0,0,0,0,0,8.092,3.2808728084,3.28084,0,0,0,0,0,18.8, 0.4, 1.4,0,0,1024,1024,1024,1024,0,0,0,0,21.5,0,0,80,4.05,4.037,0,0,0,0,4.217,95.36,3.2808728084,3.28084,38,Tripod,
291500,2022-08-12 04:49:42,0,0,3.28084,,,3.2808728084,3.608924,0,0,0,0,0,8.092,3.2808728084,3.28084,0,0,0,0,0,18.8, 0.5, 0.8,0,0,1024,1024,1024,1024,0,0,0,0,21.5,0,0,80,4.05,4.037,0,0,0,0,4.217,95.36,3.2808728084,3.28084,38,Tripod,
291600,2022-08-12 04:49:42,0,0,3.28084,,,3.2808728084,3.608924,0,0,0,0,0,8.092,3.2808728084,3.28084,0,0,0,0,0,18.8, 0.4, 0.4,0,0,1024,1024,1024,1024,0,0,0,0,21.5,0,0,80,4.05,4.037,0,0,0,0,4.217,95.36,3.2808728084,3.28084,38,Tripod,
291700,2022-08-12 04:49:42,0,0,3.28084,,,3.2808728084,3.608924,0,0,0,0,0,8.092,3.2808728084,3.28084,0,0,0,0,0,18.9, 0.3, 0.1,0,0,1024,1024,1024,1024,0,0,0,0,21.5,0,0,80,4.05,4.037,0,0,0,0,4.217,95.36,3.2808728084,3.28084,38,Tripod,
291800,2022-08-12 04:49:43,0,0,3.28084,,,3.2808728084,3.608924,0,0,0,0,0,8.092,3.2808728084,3.28084,0,0,0,0,0,18.9, 0.2, 0.1,0,0,1024,1024,1024,1024,0,0,0,0,21.5,0,0,80,4.05,4.037,0,0,0,0,4.217,95.36,3.2808728084,3.28084,38,Tripod,
291900,2022-08-12 04:49:43,0,0,3.28084,,,3.2808728084,3.608924,0,0,0,0,0,8.084,3.2808728084,3.28084,0,0,0,0,0,18.9, 0.2, 0,0,0,1024,1024,1024,1024,0,0,0,0,21.5,0,0,80,4.049,4.036,0,0,0,0,4.321,95.36,3.2808728084,3.28084,38,Tripod,
292000,2022-08-12 04:49:43,0,0,3.28084,,,3.2808728084,3.608924,0,0,0,0,0,8.084,3.2808728084,3.28084,0,0,0,0,0,18.9, 0.2, 0.1,0,0,1024,1024,1024,1024,0,0,0,0,21.5,0,0,80,4.049,4.036,0,0,0,0,4.321,95.36,3.2808728084,3.28084,38,Tripod,
292100,2022-08-12 04:49:43,0,0,3.28084,,,3.2808728084,3.608924,0,0,0,0,0,8.084,3.2808728084,3.28084,0,0,0,0,0,18.9, 0.2, 0.3,0,0,1024,1024,1024,1024,0,0,0,0,21.5,0,0,80,4.049,4.036,0,0,0,0,4.321,95.36,3.2808728084,3.28084,38,Tripod,
292200,2022-08-12 04:49:43,0,0,3.28084,,,3.2808728084,3.608924,0,0,0,0,0,8.084,3.2808728084,3.28084,0,0,0,0,0,18.9, 0.1, 0.3,0,0,1024,1024,1024,1024,0,0,0,0,21.5,0,0,80,4.049,4.036,0,0,0,0,4.321,95.36,3.2808728084,3.28084,38,Tripod,
292300,2022-08-12 04:49:43,0,0,3.28084,,,3.2808728084,3.608924,0,0,0,0,0,8.084,3.2808728084,3.28084,0,0,0,0,0,18.9, 0, 0.5,0,0,1024,1024,1024,1024,0,0,0,0,21.5,0,0,80,4.049,4.036,0,0,0,0,4.321,95.36,3.2808728084,3.28084,38,Tripod,
292400,2022-08-12 04:49:43,0,0,3.28084,,,3.2808728084,3.608924,0,0,0,0,0,8.084,3.2808728084,3.28084,0,0,0,0,0,18.9, 0.1, 0.3,0,0,1024,1024,1024,1024,0,0,0,0,21.5,0,0,80,4.049,4.036,0,0,0,0,4.321,95.36,3.2808728084,3.28084,38,Tripod,
292500,2022-08-12 04:49:43,0,0,3.28084,,,3.2808728084,3.608924,0,0,0,0,0,8.084,3.2808728084,3.28084,0,0,0,0,0,18.9, 0.1, 0.4,0,0,1024,1024,1024,1024,0,0,0,0,21.5,0,0,80,4.049,4.036,0,0,0,0,4.321,95.36,3.2808728084,3.28084,38,Tripod,
292600,2022-08-12 04:49:43,0,0,3.28084,,,3.2808728084,3.608924,0,0,0,0,0,8.084,3.2808728084,3.28084,0,0,0,0,0,18.9, 0.2, 0.3,0,0,1024,1024,1024,1024,0,0,0,0,21.5,0,0,80,4.049,4.036,0,0,0,0,4.321,95.36,3.2808728084,3.28084,38,Tripod,
292700,2022-08-12 04:49:43,0,0,3.28084,,,3.2808728084,3.608924,0,0,0,0,0,8.084,3.2808728084,3.28084,0,0,0,0,0,18.9, 0.3, 0.2,0,0,1024,1024,1024,1024,0,0,0,0,21.5,0,0,80,4.049,4.036,0,0,0,0,4.321,95.36,3.2808728084,3.28084,38,Tripod,
292800,2022-08-12 04:49:43,0,0,3.28084,,,3.2808728084,3.608924,0,0,0,0,0,8.084,3.2808728084,3.28084,0,0,0,0,0,18.9, 0.4, 0,0,0,1024,1024,1024,1024,0,0,0,0,21.5,0,0,80,4.049,4.036,0,0,0,0,4.321,95.36,3.2808728084,3.28084,38,Tripod,
292900,2022-08-12 04:49:44,0,0,3.28084,,,3.2808728084,3.608924,0,0,0,0,0,8.084,3.2808728084,3.28084,0,0,0,0,0,19, 0.4, 0,0,0,1024,1024,1024,1024,0,0,0,0,21.5,0,0,80,4.049,4.036,0,0,0,0,4.321,95.36,3.2808728084,3.28084,38,Tripod,
293000,2022-08-12 04:49:44,0,0,3.28084,,,3.2808728084,3.608924,0,0,0,0,0,8.082,3.2808728084,3.28084,0,0,0,0,0,19, 0.2, 0,0,0,1024,1024,1024,1024,0,0,0,0,21.5,0,0,79,4.048,4.035,0,0,0,0,4.258,95.36,3.2808728084,3.28084,38,Tripod,
293100,2022-08-12 04:49:44,0,0,3.28084,,,3.2808728084,3.608924,0,0,0,0,0,8.082,3.2808728084,3.28084,0,0,0,0,0,18.9, 0.3, 0.1,0,0,1024,1024,1024,1024,0,0,0,0,21.5,0,0,79,4.048,4.035,0,0,0,0,4.258,95.36,3.2808728084,3.28084,38,Tripod,
293200,2022-08-12 04:49:44,0,0,3.28084,,,3.2808728084,3.608924,0,0,0,0,0,8.082,3.2808728084,3.28084,0,0,0,0,0,18.9, 0.4, 0.3,0,0,1024,1024,1024,1024,0,0,0,0,21.5,0,0,79,4.048,4.035,0,0,0,0,4.258,95.36,3.2808728084,3.28084,38,Tripod,
293300,2022-08-12 04:49:44,0,0,3.28084,,,3.2808728084,3.608924,0,0,0,0,0,8.082,3.2808728084,3.28084,0,0,0,0,0,19, 0.3, 0.4,0,0,1024,1024,1028,1024,0,0,1,0,21.5,0,0,79,4.048,4.035,0,0,0,0,4.258,95.36,3.2808728084,3.28084,38,Tripod,
293400,2022-08-12 04:49:44,0,0,3.28084,,,3.2808728084,3.608924,0,0,0,0,0,8.082,3.2808728084,3.28084,0,0,0,0,0,18.9, 0.1, 0.4,0,0,1024,1024,1029,1024,0,0,1,0,21.5,0,0,79,4.048,4.035,0,0,0,0,4.258,95.36,3.2808728084,3.28084,38,Tripod,
293500,2022-08-12 04:49:44,0,0,3.28084,,,3.2808728084,3.608924,0,0,0,0,0,8.082,3.2808728084,3.28084,0,0,0,0,0,18.9, 0.2, 0.5,0,0,1024,1024,1030,1024,0,0,1,0,21.5,0,0,79,4.048,4.035,0,0,0,0,4.258,95.36,3.2808728084,3.28084,38,Tripod,
293600,2022-08-12 04:49:44,0,0,3.28084,,,3.2808728084,3.608924,0,0,0,0,0,8.082,3.2808728084,3.28084,0,0,0,0,0,18.9, 0.1, 0.4,0,0,1024,1024,1029,1024,0,0,1,0,21.5,0,0,79,4.048,4.035,0,0,0,0,4.258,95.36,3.2808728084,3.28084,38,Tripod,
293700,2022-08-12 04:49:44,0,0,3.28084,,,3.2808728084,3.608924,0,0,0,0,0,8.082,3.2808728084,3.28084,0,0,0,0,0,18.9, 0, 0.5,0,0,1024,1024,1030,1024,0,0,1,0,21.5,0,0,79,4.048,4.035,0,0,0,0,4.258,95.36,3.2808728084,3.28084,38,Tripod,
293800,2022-08-12 04:49:44,0,0,3.28084,,,3.2808728084,3.608924,0,0,0,0,0,8.082,3.2808728084,3.28084,0,0,0,0,0,18.9, 0.1, 0.7,0,0,1024,1024,1077,1024,0,0,8,0,21.5,0,0,79,4.048,4.035,0,0,0,0,4.258,95.36,3.2808728084,3.28084,38,Tripod,
293900,2022-08-12 04:49:45,0,0,3.28084,,,3.2808728084,3.608924,0,0,0,0,0,8.082,3.2808728084,3.28084,0,0,0,0,0,18.8, 0.2, 0.8,0,0,1024,1024,1077,1024,0,0,8,0,21.5,0,0,79,4.048,4.035,0,0,0,0,4.258,95.36,3.2808728084,3.28084,38,Tripod,
294000,2022-08-12 04:49:45,0,0,3.28084,,,3.2808728084,3.608924,0,0,0,0,0,8.082,3.2808728084,3.28084,0,0,0,0,0,18.8, 0, 0.4,0,0,1024,1024,1249,1024,0,0,34,0,21.5,0,0,79,4.048,4.035,0,0,0,0,4.258,95.36,3.2808728084,3.28084,38,Tripod,
294100,2022-08-12 04:49:45,0,0,3.608924,,,3.6089568084,3.608924,0,0,0,0,0,8.082,3.6089568084,3.608924,0,0,0,0,0,18.9, 0, 0.1,0,0,1024,1024,1302,1024,0,0,42,0,21.5,0,0,79,4.048,4.035,0,0,0,0,4.258,95.36,3.6089568084,3.608924,38,Tripod,
294200,2022-08-12 04:49:45,0,0,3.608924,,,3.6089568084,3.608924,0,0,0,0,0,8.082,3.6089568084,3.608924,0,0,0,0,-0.447388,18.9, 0.1, 0.2,0,0,1024,1024,1285,1024,0,0,40,0,21.5,0,0,79,4.048,4.035,0,0,0,0,4.258,95.36,3.6089568084,3.608924,38,Tripod,
294300,2022-08-12 04:49:45,0,0,3.608924,,,3.6089568084,3.937008,0,0,0,0,0,8.082,3.6089568084,3.608924,0,0,0,0,-0.671082,18.9, 0.3, 0.3,0,0,1024,1024,1191,1024,0,0,25,0,21.5,0,0,79,4.048,4.035,0,0,0,0,4.258,95.36,3.6089568084,3.608924,38,Tripod,
294400,2022-08-12 04:49:45,0,0,3.608924,,,3.6089568084,3.937008,0,0,0,0,0,8.082,3.6089568084,3.608924,0,0,0,0,-0.894776,19, 0.2, 0.3,0,0,1024,1024,1024,1024,0,0,0,0,21.5,0,0,79,4.048,4.035,0,0,0,0,4.258,95.36,3.6089568084,3.608924,38,Tripod,
294500,2022-08-12 04:49:45,0,0,3.937008,,,3.9370408084,3.937008,0,0,0,0,0,8.082,3.9370408084,3.937008,0,0,0,0,-0.671082,19, 0.2, 0.1,0,0,1024,1024,1024,1024,0,0,0,0,21.5,0,0,79,4.048,4.035,0,0,0,0,4.258,95.36,3.9370408084,3.937008,38,Tripod,
294600,2022-08-12 04:49:45,0,0,3.937008,,,3.9370408084,4.265092,0,0,0,0,0,8.082,3.9370408084,3.937008,0,0,0,0,-0.447388,19, 0.4, 0.1,0,0,1024,1024,1024,1024,0,0,0,0,21.5,0,0,79,4.048,4.035,0,0,0,0,4.258,95.36,3.9370408084,3.937008,38,Tripod,
294700,2022-08-12 04:49:45,0,0,3.937008,,,3.9370408084,4.265092,0,0,0,0,0,8.082,3.9370408084,3.937008,0,0,0,0,-0.223694,19, 0.3, 0,0,0,1024,1024,1024,1024,0,0,0,0,21.5,0,0,79,4.048,4.035,0,0,0,0,4.258,95.36,3.9370408084,3.937008,38,Tripod,
294800,2022-08-12 04:49:45,0,0,3.937008,,,3.9370408084,4.265092,0,0,0,0,0,8.082,3.9370408084,3.937008,0,0,0,0,0,19, 0.2, -0.2,0,0,1024,1024,1024,1024,0,0,0,0,21.5,0,0,79,4.048,4.035,0,0,0,0,4.258,95.36,3.9370408084,3.937008,38,Tripod,
294900,2022-08-12 04:49:46,0,0,3.937008,,,3.9370408084,4.265092,0,0,0,0,0,8.081,3.9370408084,3.937008,0,0,0,0,0,19, 0.1, -0.1,0,0,1024,1024,1024,1024,0,0,0,0,21.5,0,0,79,4.047,4.034,0,0,0,0,4.246,95.36,3.9370408084,3.937008,38,Tripod,
295000,2022-08-12 04:49:46,0,0,3.937008,,,3.9370408084,4.265092,0,0,0,0,0,8.081,3.9370408084,3.937008,0,0,0,0,0,19, 0.2, -0.2,0,0,1024,1024,1024,1024,0,0,0,0,21.5,0,0,79,4.047,4.034,0,0,0,0,4.246,95.36,3.9370408084,3.937008,38,Tripod,
295100,2022-08-12 04:49:46,0,0,3.937008,,,3.9370408084,4.265092,0,0,0,0,0,8.081,3.9370408084,3.937008,0,0,0,0,0,19, 0.1, -0.1,0,0,1288,1024,1024,1024,40,0,0,0,21.5,0,0,79,4.047,4.034,0,0,0,0,4.246,95.36,3.9370408084,3.937008,38,Tripod,
295200,2022-08-12 04:49:46,0,0,3.937008,,,3.9370408084,4.265092,0,0,0,0,0,8.081,3.9370408084,3.937008,0,0,0,0,0,19, -0.3, 0,0,0,1446,1024,1024,1024,64,0,0,0,21.5,0,0,79,4.047,4.034,0,0,0,0,4.246,95.36,3.9370408084,3.937008,38,Tripod,
295300,2022-08-12 04:49:46,0,0,3.937008,,,3.9370408084,4.265092,0,0,0,0,0,8.081,3.9370408084,3.937008,0,0,0,0,0,19.1, -3, 0.1,0,0,1397,1024,1024,1024,57,0,0,0,21.5,0,0,79,4.047,4.034,0,0,0,0,4.246,95.36,3.9370408084,3.937008,38,Tripod,
295400,2022-08-12 04:49:46,0,0,3.937008,,,3.9370408084,4.265092,0.223694,0,0,0,0,8.081,3.9370408084,3.937008,0,0,0.223694,0,0,19, -5.7, 0.2,0,0,1344,1024,1024,1024,48,0,0,0,21.5,0,0,79,4.047,4.034,0,0,0,0,4.246,95.36,3.9370408084,3.937008,38,Tripod,
295500,2022-08-12 04:49:46,0,0,3.937008,,,3.9370408084,4.265092,0.223694,0,0,0,0,8.081,3.9370408084,3.937008,0,0,0.223694,0,0,18.9, -5.4, 0,0,0,1337,1024,1024,1024,47,0,0,0,21.5,0,0,79,4.047,4.034,0,0,0,0,4.246,95.36,3.9370408084,3.937008,38,Tripod,
295600,2022-08-12 04:49:46,0,0,3.937008,,,3.9370408084,4.265092,0.447388,0,0,0,0,8.081,3.9370408084,3.937008,0,0,0.447388,0,0,18.9, -4, 0,0,0,1337,1024,1024,1024,47,0,0,0,21.5,0,0,79,4.047,4.034,0,0,0,0,4.246,95.36,3.9370408084,3.937008,38,Tripod,
295700,2022-08-12 04:49:46,0,0,3.937008,,,3.9370408084,4.265092,0.7158208,0,0,0,0,8.081,3.9370408084,3.937008,0,0,0.671082,0.223694,0,18.9, -3, 0,0,0,1328,1024,1024,1024,46,0,0,0,21.5,0,0,79,4.047,4.034,0,0,0,0,4.246,95.36,3.9370408084,3.937008,38,Tripod,
295800,2022-08-12 04:49:47,0,0,3.937008,,,3.9370408084,4.265092,0.7158208,0,0,0,0,8.081,3.9370408084,3.937008,0,0,0.671082,0.223694,0,18.8, -2.6, -0.2,0,0,1306,1024,1024,1024,43,0,0,0,21.5,0,0,79,4.047,4.034,0,0,0,0,4.246,95.36,3.9370408084,3.937008,38,Tripod,
295900,2022-08-12 04:49:47,0,0,4.265092,,,4.2651248084,4.265092,0.9171454,0,0,0,0,8.068,4.2651248084,4.265092,0,0,0.894776,0.223694,0,18.7, -2.4, -0.2,0,0,1305,1024,1024,1024,43,0,0,0,21.5,0,0,79,4.049,4.036,0,0,0,0,4.472,95.54,4.2651248084,4.265092,38,Tripod,
296000,2022-08-12 04:49:47,0,0,4.265092,,,4.2651248084,4.265092,0.9171454,0,0,0,0,8.068,4.2651248084,4.265092,0,0,0.894776,0.223694,0,18.8, -2.5, 0,0,0,1303,1024,1024,1024,42,0,0,0,21.5,0,0,79,4.049,4.036,0,0,0,0,4.472,95.54,4.2651248084,4.265092,38,Tripod,
296100,2022-08-12 04:49:47,0,0,4.265092,,,4.2651248084,4.265092,1.1408394,0,0,0,0,8.068,4.2651248084,4.265092,0,0,1.11847,0.223694,0,18.9, -2.6, 0.2,0,0,1300,1024,1024,1024,42,0,0,0,21.5,0,0,79,4.049,4.036,0,0,0,0,4.472,95.54,4.2651248084,4.265092,38,Tripod,
296200,2022-08-12 04:49:47,0,0,4.265092,,,4.2651248084,4.265092,1.1408394,0,0,0,0,8.068,4.2651248084,4.265092,0,0,1.11847,0.223694,0,18.8, -2.6, 0.3,0,0,1293,1024,1024,1024,41,0,0,0,21.5,0,0,79,4.049,4.036,0,0,0,0,4.472,95.54,4.2651248084,4.265092,38,Tripod,
296300,2022-08-12 04:49:47,0,0,4.265092,,,4.2651248084,4.265092,1.1408394,0,0,0,0,8.068,4.2651248084,4.265092,0,0,1.11847,0.223694,0,18.9, -2.6, 0.5,0,0,1287,1024,1024,1024,40,0,0,0,21.5,0,0,79,4.049,4.036,0,0,0,0,4.472,95.54,4.2651248084,4.265092,38,Tripod,
296400,2022-08-12 04:49:47,0,0,4.265092,,,4.2651248084,4.265092,1.3645334,0,0,0,0,8.068,4.2651248084,4.265092,0,0,1.342164,0.223694,0,19, -2.5, 1.1,0,0,1202,1024,1024,1024,27,0,0,0,21.5,0,0,79,4.049,4.036,0,0,0,0,4.472,95.54,4.2651248084,4.265092,38,Tripod,
296500,2022-08-12 04:49:47,0,0,4.265092,,,4.2651248084,4.265092,1.3645334,0,0,0,0,8.068,4.2651248084,4.265092,0,0,1.342164,0.223694,0,19, -2.3, 1.4,0,0,1202,1024,1024,1024,27,0,0,0,21.5,0,0,79,4.049,4.036,0,0,0,0,4.472,95.54,4.2651248084,4.265092,38,Tripod,
296600,2022-08-12 04:49:47,0,0,4.265092,,,4.2651248084,4.265092,1.3645334,0,0,0,0,8.068,4.2651248084,4.265092,0,0,1.342164,0.223694,0,19, -1.7, 1.3,0,0,1191,1024,1024,1024,25,0,0,0,21.5,0,0,79,4.049,4.036,0,0,0,0,4.472,95.54,4.2651248084,4.265092,38,Tripod,
296700,2022-08-12 04:49:47,0,0,4.265092,,,4.2651248084,4.265092,1.3645334,0,0,0,0,8.068,4.2651248084,4.265092,0,0,1.342164,0.223694,0,19.1, -0.9, 0.6,0,0,1190,1024,1024,1024,25,0,0,0,21.5,0,0,79,4.049,4.036,0,0,0,0,4.472,95.54,4.2651248084,4.265092,38,Tripod,
296800,2022-08-12 04:49:48,0,0,4.265092,,,4.2651248084,4.265092,1.3645334,0,0,0,0,8.068,4.2651248084,4.265092,0,0,1.342164,0.223694,0,19.1, -0.4, 0.7,0,0,1190,1024,1024,1024,25,0,0,0,21.5,0,0,79,4.049,4.036,0,0,0,0,4.472,95.54,4.2651248084,4.265092,38,Tripod,
296900,2022-08-12 04:49:48,0,0,4.265092,,,4.2651248084,4.265092,1.3645334,0,0,0,0,8.076,4.2651248084,4.265092,0,0,1.342164,0.223694,0,19.1, -0.3, 1,0,0,1191,1024,1024,1024,25,0,0,0,21.5,0,0,79,4.043,4.032,0,0,0,0,4.113,95.54,4.2651248084,4.265092,38,Tripod,
297000,2022-08-12 04:49:48,0,0,4.265092,,,4.2651248084,4.265092,1.4092722,0,0,0,0,8.076,4.2651248084,4.265092,0,0,1.342164,0.447388,0,19.1, -0.4, 0.8,0,0,1186,1024,1024,1024,25,0,0,0,21.5,0,0,79,4.043,4.032,0,0,0,0,4.113,95.54,4.2651248084,4.265092,38,Tripod,
297100,2022-08-12 04:49:48,0,0,4.265092,,,4.2651248084,4.265092,1.4092722,0,0,0,0,8.076,4.2651248084,4.265092,0,0,1.342164,0.447388,0,19.1, -0.7, 0.5,0,0,1186,1024,1024,1024,25,0,0,0,21.5,0,0,79,4.043,4.032,0,0,0,0,4.113,95.54,4.2651248084,4.265092,38,Tripod,
297200,2022-08-12 04:49:48,0,0,4.265092,,,4.2651248084,4.265092,1.4092722,0,0,0,0,8.076,4.2651248084,4.265092,0,0,1.342164,0.447388,0,19.1, -0.9, 0.6,0,0,1186,1024,1024,1024,25,0,0,0,21.5,0,0,79,4.043,4.032,0,0,0,0,4.113,95.54,4.2651248084,4.265092,38,Tripod,
297300,2022-08-12 04:49:48,0,0,4.265092,,,4.2651248084,4.265092,1.4092722,0,0,0,0,8.076,4.2651248084,4.265092,0,0,1.342164,0.447388,0,19, -0.9, 0.3,0,0,1182,1024,1024,1024,24,0,0,0,21.5,0,0,79,4.043,4.032,0,0,0,0,4.113,95.54,4.2651248084,4.265092,38,Tripod,
297400,2022-08-12 04:49:48,0,0,4.265092,,,4.2651248084,4.265092,1.4092722,0,0,0,0,8.076,4.2651248084,4.265092,0,0,1.342164,0.447388,0,19, -0.8, -0.1,0,0,1130,1024,1024,1024,16,0,0,0,21.5,0,0,79,4.043,4.032,0,0,0,0,4.113,95.54,4.2651248084,4.265092,38,Tripod,
297500,2022-08-12 04:49:48,0,0,4.265092,,,4.2651248084,4.265092,1.4092722,0,0,0,0,8.076,4.2651248084,4.265092,0,0,1.342164,0.447388,0,19, -0.6, -0.2,0,0,1130,1024,1024,1024,16,0,0,0,21.5,0,0,79,4.043,4.032,0,0,0,0,4.113,95.54,4.2651248084,4.265092,38,Tripod,
297600,2022-08-12 04:49:48,0,0,4.265092,,,4.2651248084,4.265092,1.4092722,0,0,0,0,8.076,4.2651248084,4.265092,0,0,1.342164,0.447388,0,19, -0.4, 0.1,0,0,1024,1024,1024,1024,0,0,0,0,21.5,0,0,79,4.043,4.032,0,0,0,0,4.113,95.54,4.2651248084,4.265092,38,Tripod,
297700,2022-08-12 04:49:48,0,0,4.265092,,,4.2651248084,4.265092,1.4092722,0,0,0,0,8.076,4.2651248084,4.265092,0,0,1.342164,0.447388,0,18.9, 2.4, 0,0,0,1024,1024,1024,1024,0,0,0,0,21.5,0,0,79,4.043,4.032,0,0,0,0,4.113,95.54,4.2651248084,4.265092,38,Tripod,
297800,2022-08-12 04:49:49,0,0,4.265092,,,4.2651248084,4.265092,1.2079476,0,0,0,0,8.076,4.2651248084,4.265092,0,0,1.11847,0.447388,0,18.9, 5.5, 0,0,0,1024,1024,1024,1024,0,0,0,0,21.5,0,0,79,4.043,4.032,0,0,0,0,4.113,95.54,4.2651248084,4.265092,38,Tripod,
297900,2022-08-12 04:49:49,0,0,4.265092,,,4.2651248084,4.265092,1.2079476,0,0,0,0,8.076,4.2651248084,4.265092,0,0,0.894776,0.223694,0,18.8, 5.9, 0,0,0,1024,1024,1024,1024,0,0,0,0,21.5,0,0,79,4.043,4.031,0,0,0,0,4.216,95.54,4.2651248084,4.265092,38,Tripod,
298000,2022-08-12 04:49:49,0,0,4.265092,,,4.2651248084,4.265092,0.7158208,0,0,0,0,8.076,4.2651248084,4.265092,0,0,0.671082,0.223694,0,18.9, 5.3, -0.1,0,0,1024,1024,1024,1024,0,0,0,0,21.5,0,0,79,4.043,4.031,0,0,0,0,4.216,95.54,4.2651248084,4.265092,38,Tripod,
298100,2022-08-12 04:49:49,0,0,4.265092,,,4.2651248084,4.265092,0.4921268,0,0,0,0,8.076,4.2651248084,4.265092,0,0,0.447388,0.223694,0,18.9, 4.7, 0,0,0,1024,1024,1024,1024,0,0,0,0,21.5,0,0,79,4.043,4.031,0,0,0,0,4.216,95.54,4.2651248084,4.265092,38,Tripod,
298200,2022-08-12 04:49:49,0,0,4.265092,,,4.2651248084,4.265092,0.447388,0,0,0,0,8.076,4.2651248084,4.265092,0,0,0.447388,0,0,18.9, 3.7, 0.1,0,0,1024,1024,1024,1024,0,0,0,0,21.5,0,0,79,4.043,4.031,0,0,0,0,4.216,95.54,4.2651248084,4.265092,38,Tripod,
298300,2022-08-12 04:49:49,0,0,4.265092,,,4.2651248084,4.265092,0.223694,0,0,0,0,8.076,4.2651248084,4.265092,0,0,0.223694,0,0,18.9, 3.1, 0.2,0,0,1024,1024,1024,1024,0,0,0,0,21.5,0,0,79,4.043,4.031,0,0,0,0,4.216,95.54,4.2651248084,4.265092,38,Tripod,
298400,2022-08-12 04:49:49,0,0,4.265092,,,4.2651248084,4.265092,0.223694,0,0,0,0,8.076,4.2651248084,4.265092,0,0,0.223694,0,0,18.8, 2.5, 0.3,0,0,1024,1024,1024,379,0,0,0,-98,21.5,0,0,79,4.043,4.031,0,0,0,0,4.216,95.54,4.2651248084,4.265092,38,Tripod,
298500,2022-08-12 04:49:49,0,0,4.265092,,,4.2651248084,4.265092,0,0,0,0,0,8.076,4.2651248084,4.265092,0,0,0,0,0,18.8, 2, 0.2,0,0,1024,1024,1024,364,0,0,0,-100,21.5,0,0,79,4.043,4.031,0,0,0,0,4.216,95.54,4.2651248084,4.265092,38,Tripod,
298600,2022-08-12 04:49:49,0,0,4.265092,,,4.2651248084,4.265092,0,0,0,0,0,8.076,4.2651248084,4.265092,0,0,0,0,0,18.8, 1.6, 0.2,0,0,1024,1024,1024,364,0,0,0,-100,21.2,0,0,79,4.043,4.031,0,0,0,0,4.216,95.54,4.2651248084,4.265092,38,Tripod,
298700,2022-08-12 04:49:49,0,0,4.265092,,,4.2651248084,4.265092,0,0,0,0,0,8.076,4.2651248084,4.265092,0,0,0,0,0,18.1, 1.8, 0.2,0,0,1024,1024,1024,364,0,0,0,-100,19.9,0,0,79,4.043,4.031,0,0,0,0,4.216,95.54,4.2651248084,4.265092,38,Tripod,
298800,2022-08-12 04:49:49,0,0,4.265092,,,4.2651248084,4.265092,0,0,0,0,0,8.076,4.2651248084,4.265092,0,0,0,0,0,16.5, 1.5, 0,0,0,1024,1024,1024,364,0,0,0,-100,17.9,0,0,79,4.043,4.031,0,0,0,0,4.216,95.54,4.2651248084,4.265092,38,Tripod,
298900,2022-08-12 04:49:50,0,0,4.265092,,,4.2651248084,4.265092,0,0,0,0,0,8.074,4.2651248084,4.265092,0,0,0,0,0,14.4, 1.4, 0,0,0,1024,1024,1024,364,0,0,0,-100,15.6,0,0,79,4.042,4.029,0,0,0,0,4.18,95.54,4.2651248084,4.265092,38,Tripod,
299000,2022-08-12 04:49:50,0,0,4.265092,,,4.2651248084,4.265092,0,0,0,0,0,8.074,4.2651248084,4.265092,0,0,0,0,0,12.1, 1.3, 0,0,0,1024,1024,1024,364,0,0,0,-100,13.3,0,0,79,4.042,4.029,0,0,0,0,4.18,95.54,4.2651248084,4.265092,38,Tripod,
299100,2022-08-12 04:49:50,0,0,4.265092,,,4.2651248084,4.265092,0,0,0,0,0,8.074,4.2651248084,4.265092,0,0,0,0,0,9.8, 1.8, -0.2,0,0,1024,1024,1024,364,0,0,0,-100,10.9,0,0,79,4.042,4.029,0,0,0,0,4.18,95.54,4.2651248084,4.265092,38,Tripod,
299200,2022-08-12 04:49:50,0,0,4.265092,,,4.2651248084,4.265092,0,0,0,0,0,8.074,4.2651248084,4.265092,0,0,0,0,0,7.4, 1.4, -0.3,0,0,1024,1024,1024,364,0,0,0,-100,8.5,0,0,79,4.042,4.029,0,0,0,0,4.18,95.54,4.2651248084,4.265092,38,Tripod,
299300,2022-08-12 04:49:50,0,0,4.265092,,,4.2651248084,4.265092,0,0,0,0,0,8.074,4.2651248084,4.265092,0,0,0,0,0,5.1, 1.1, -0.3,0,0,1024,1024,1024,364,0,0,0,-100,6.1,0,0,79,4.042,4.029,0,0,0,0,4.18,95.54,4.2651248084,4.265092,38,Tripod,
299400,2022-08-12 04:49:50,0,0,4.593176,,,4.5932088084,4.265092,0,0,0,0,0,8.074,4.5932088084,4.593176,0,0,0,0,0,2.7, 1, -0.3,0,0,1024,1024,1024,364,0,0,0,-100,3.7,0,0,79,4.042,4.029,0,0,0,0,4.18,95.54,4.5932088084,4.593176,38,Tripod,
299500,2022-08-12 04:49:50,0,0,4.593176,,,4.5932088084,4.265092,0,0,0,0,0,8.074,4.5932088084,4.593176,0,0,0,0,0,0.3, 1.2, -0.2,0,0,1024,1024,1024,364,0,0,0,-100,1.3,0,0,79,4.042,4.029,0,0,0,0,4.18,95.54,4.5932088084,4.593176,38,Tripod,
299600,2022-08-12 04:49:50,0,0,4.593176,,,4.5932088084,4.265092,0,0,0,0,0,8.074,4.5932088084,4.593176,0,0,0,0,0,358, 1, 0,0,0,1024,1024,1024,364,0,0,0,-100,359,0,0,79,4.042,4.029,0,0,0,0,4.18,95.54,4.5932088084,4.593176,38,Tripod,
299700,2022-08-12 04:49:50,0,0,4.593176,,,4.5932088084,4.265092,0,0,0,0,0,8.074,4.5932088084,4.593176,0,0,0,0,0,355.6, 0.9, 0,0,0,1024,1024,1024,364,0,0,0,-100,356.6,0,0,79,4.042,4.029,0,0,0,0,4.18,95.54,4.5932088084,4.593176,38,Tripod,
299800,2022-08-12 04:49:50,0,0,4.593176,,,4.5932088084,4.265092,0,0,0,0,0,8.074,4.5932088084,4.593176,0,0,0,0,0,353.2, 0.7, 0,0,0,1024,1024,1024,364,0,0,0,-100,354.2,0,0,79,4.042,4.029,0,0,0,0,4.18,95.54,4.5932088084,4.593176,38,Tripod,
299900,2022-08-12 04:49:51,0,0,4.593176,,,4.5932088084,4.265092,0,0,0,0,0,8.07,4.5932088084,4.593176,0,0,0,0,0,350.8, 0.8, 0,0,0,1024,1024,1024,364,0,0,0,-100,351.8,0,0,79,4.04,4.027,0,0,0,0,4.215,95.54,4.5932088084,4.593176,38,Tripod,
300000,2022-08-12 04:49:51,0,0,4.593176,,,4.5932088084,4.265092,0,0,0,0,0,8.07,4.5932088084,4.593176,0,0,0,0,0,348.4, 0.8, -0.2,0,0,1024,1024,1024,364,0,0,0,-100,349.4,0,0,79,4.04,4.027,0,0,0,0,4.215,95.54,4.5932088084,4.593176,38,Tripod,
300100,2022-08-12 04:49:51,0,0,4.593176,,,4.5932088084,4.265092,0,0,0,0,0,8.07,4.5932088084,4.593176,0,0,0,0,0,346, 0.6, 0,0,0,1024,1024,1024,364,0,0,0,-100,347,0,0,79,4.04,4.027,0,0,0,0,4.215,95.54,4.5932088084,4.593176,38,Tripod,
300200,2022-08-12 04:49:51,0,0,4.265092,,,4.2651248084,4.265092,0,0,0,0,0,8.07,4.5932088084,4.593176,0,0,0,0,0,343.6, 0.5, 0,0,0,1024,1024,1024,364,0,0,0,-100,344.6,0,0,79,4.04,4.027,0,0,0,0,4.215,95.54,4.2651248084,4.265092,38,Tripod,
300300,2022-08-12 04:49:51,0,0,4.593176,,,4.5932088084,4.265092,0,0,0,0,0,8.07,4.5932088084,4.593176,0,0,0,0,0,341.2, 0.3, 0,0,0,1024,1024,1024,364,0,0,0,-100,342.2,0,0,79,4.04,4.027,0,0,0,0,4.215,95.54,4.5932088084,4.593176,38,Tripod,
300400,2022-08-12 04:49:51,0,0,4.593176,,,4.5932088084,4.265092,0,0,0,0,0,8.07,4.5932088084,4.593176,0,0,0,0,0,338.7, 0.3, -0.4,0,0,1024,1024,1024,364,0,0,0,-100,339.8,0,0,79,4.04,4.027,0,0,0,0,4.215,95.54,4.5932088084,4.593176,38,Tripod,
300500,2022-08-12 04:49:51,0,0,4.593176,,,4.5932088084,4.265092,0,0,0,0,0,8.07,4.5932088084,4.593176,0,0,0,0,0,336.4, 0.2, -0.4,0,0,1024,1024,1024,364,0,0,0,-100,337.4,0,0,79,4.04,4.027,0,0,0,0,4.215,95.54,4.5932088084,4.593176,38,Tripod,
