time(millisecond),datetime(utc),latitude,longitude,height_above_takeoff(feet),height_above_ground_at_drone_location(feet),ground_elevation_at_drone_location(feet),altitude_above_seaLevel(feet),height_sonar(feet),speed(mph),distance(feet),mileage(feet),satellites,gpslevel,voltage(v),max_altitude(feet),max_ascent(feet),max_speed(mph),max_distance(feet), xSpeed(mph), ySpeed(mph), zSpeed(mph), compass_heading(degrees), pitch(degrees), roll(degrees),isPhoto,isVideo,rc_elevator,rc_aileron,rc_throttle,rc_rudder,rc_elevator(percent),rc_aileron(percent),rc_throttle(percent),rc_rudder(percent),gimbal_heading(degrees),gimbal_pitch(degrees),gimbal_roll(degrees),battery_percent,voltageCell1,voltageCell2,voltageCell3,voltageCell4,voltageCell5,voltageCell6,current(A),battery_temperature(f),altitude(feet),ascent(feet),flycStateRaw,flycState,message
0,2022-10-24 22:15:23,-34.9205035438472,-56.1474000152904,0,0,0,0,0.328084,0,0,0,23,5,0,0,0,0,0,0,0,0,213.8, -9.4, 1.8,0,0,364,364,364,1684,-100,-100,-100,100,224.5,0,0,36,3.82,3.817,0,0,0,0,0,99.5,0,0,6,P-GPS,"Aeronave en Zona de altitud restringida (150). Vuela con precaución (Code: 190001). Error de calibración del estabilizador. Reinicia la aeronave o contacta con la Asistencia DJI (Code: 40011)"
100,2022-10-24 22:15:23,-34.9205037358,-56.1474000562801,0,0,0,0,0.328084,0,0.071099411724,0.071099411724,23,5,0,0,0,0,0.071099411724,0,0,0,213.7, -9.9, 1.3,0,0,364,364,364,1684,-100,-100,-100,100,224.2,0,0,36,3.82,3.817,0,0,0,0,0,99.5,0,0,41,Motors_Started,
200,2022-10-24 22:15:23,-34.9205038479347,-56.1474000140888,0,0,0,0,0.328084,0,0.110946853944,0.113914373724,23,5,0,0,0,0,0.110946853944,0,0,0,214.3, -9.5, 1,0,0,364,364,364,1684,-100,-100,-100,100,224.1,0,0,36,3.82,3.817,0,0,0,0,0,99.5,0,0,41,Motors_Started,
300,2022-10-24 22:15:23,-34.9205038478923,-56.147400010733,0,0,0,0,0.328084,0,0.110938979928,0.114918310764,23,5,0,0,0,0,0.110946853944,0,0,0,215.3, -8.2, 0.8,0,0,364,364,364,1684,-100,-100,-100,100,225.1,0,0,36,3.82,3.817,0,0,0,0,0,99.5,0,0,41,Motors_Started,
400,2022-10-24 22:15:23,-34.9205038348705,-56.1474000133084,0,0,0,0,0.328084,0,0.106181433844,0.119731303044,23,5,0,0,0,0,0.110946853944,0,0,0,215.2, -7, 1.2,0,0,771,1024,364,1476,-38,0,-100,68,225.8,0,0,36,3.82,3.817,0,0,0,0,0,99.5,0,0,41,Motors_Started,
500,2022-10-24 22:15:23,-34.9205034762904,-56.1473998612854,0,0,0,0,0.328084,0,0.05225065784,0.258238525324,23,5,0,0,0,0,0.110946853944,0,0,0,216.1, -7.2, 0.3,0,0,1024,1024,1227,1024,0,0,31,0,226.2,0,0,36,3.82,3.817,0,0,0,0,0,99.5,0,0,41,Motors_Started,
600,2022-10-24 22:15:23,-34.9205033759196,-56.1473997987285,0,0,0,0,0.328084,0,0.089168638024,0.29936352664,23,5,0,0,0,0,0.110946853944,0,0,0,216.4, -6.5, 0.4,0,0,1024,1024,1684,943,0,0,100,-12,226.7,0,0,36,3.82,3.817,0,0,0,0,0,99.5,0,0,41,Motors_Started,
700,2022-10-24 22:15:24,-34.9205033573529,-56.147399672301,0,0,0,0,0.328084,0,0.123118114176,0.33778872472,23,5,0,0,0,0,0.123118114176,0,0,0,216.9, -6.5, 0.5,0,0,1024,1024,1684,451,0,0,100,-87,227.1,0,0,36,3.82,3.817,0,0,0,0,0,99.5,0,0,41,Motors_Started,"Setting new Return-To-Home altitude to 100m (328 ft). Data Recorder File Index is 27. Setting new Maximum Flight Altitude to 120m (394 ft)"
800,2022-10-24 22:15:24,-34.9205033504548,-56.1473995467107,0,0,0,0,0.328084,0,0.156935372476,0.3754429254,23,5,0,0,0,0,0.156935372476,0,0,0,216.8, -7, 0.5,0,0,1024,1024,1684,524,0,0,100,-76,227.5,0,0,36,3.82,3.817,0,0,0,0,0,99.5,0,0,41,Motors_Started,
900,2022-10-24 22:15:24,-34.9205034528563,-56.1473993781395,0,0,0,0,0.328084,0,0.19347769648,0.43820211376,23,5,7.635,0,0,0,0.19347769648,0,0,0,216, -7.2, 0.9,0,0,1024,1024,1684,794,0,0,100,-35,227.1,0,0,36,3.82,3.817,0,0,0,0,0.642,99.5,0,0,41,Motors_Started,
1000,2022-10-24 22:15:24,-34.9205034904945,-56.1473993443891,0,0,0,0,0.328084,0,0.201646659996,0.4552493584,23,5,7.635,0,0,0,0.201646659996,0,0,0,216, -8.3, 0.4,0,0,1024,1024,1684,1024,0,0,100,0,226.9,0,0,36,3.82,3.817,0,0,0,0,0.642,99.5,0,0,41,Motors_Started,
1100,2022-10-24 22:15:24,-34.9205035802641,-56.1473993462332,0,0,0,0,0.328084,0,0.20059383844,0.48800526496,23,5,7.635,0,0,0,0.201646659996,0,0,0,215.8, -8.2, 0.6,0,0,1024,1024,1684,1024,0,0,100,0,226.7,0,0,36,3.82,3.817,0,0,0,0,0.642,99.5,0,0,41,Motors_Started,
1200,2022-10-24 22:15:24,-34.9205036637398,-56.1473993582833,0,0,0,0,0.328084,0,0.201357289908,0.51867455728,23,5,7.635,0,0,0,0.201646659996,0,0,0,215.9, -7.8, 1.5,0,0,1024,1024,1684,1024,0,0,100,0,226.6,0,0,36,3.82,3.817,0,0,0,0,0.642,99.5,0,0,10,Assisted_Takeoff,
1300,2022-10-24 22:15:24,-34.9205039397553,-56.1473993745845,0,0,0,0,0.328084,0,0.240006241276,0.61949477048,23,5,7.635,0,0,0,0.240006241276,0,0,0,216, -6.5, 0.8,0,0,1024,1024,1684,1024,0,0,100,0,226.6,0,0,36,3.82,3.817,0,0,0,0,0.642,99.5,0,0,10,Assisted_Takeoff,
1400,2022-10-24 22:15:24,-34.9205040068505,-56.1473993102776,0,0,0,0,0.328084,0,0.270220481088,0.65062994208,23,5,7.635,0,0,0,0.270220481088,0,0,0,216.9, -5.1, 0.6,0,0,1024,1024,1684,1024,0,0,100,0,227,0,0,36,3.82,3.817,0,0,0,0,0.642,99.5,0,0,10,Assisted_Takeoff,
1500,2022-10-24 22:15:24,-34.9205040929219,-56.1473992901876,0,0,0,0,0.328084,0,0.295272975328,0.68260500872,23,5,7.635,0,0,0,0.295272975328,0,0,0,216.3, -4.4, 0.2,0,0,1024,1024,1684,1024,0,0,100,0,227.2,0,0,36,3.82,3.817,0,0,0,0,0.642,99.5,0,0,10,Assisted_Takeoff,
1600,2022-10-24 22:15:24,-34.9205041918425,-56.1473992619382,0,0,0,0,0.328084,0,0.326629275544,0.71967193904,23,5,7.635,0,0,0,0.326629275544,0,0,0,216.3, -5, 0,0,0,1024,1024,1666,1024,0,0,97,0,227.1,0,0,36,3.82,3.817,0,0,0,0,0.642,99.5,0,0,10,Assisted_Takeoff,
1700,2022-10-24 22:15:25,-34.9205042981278,-56.1473992023428,0,0,0,0,0.328084,0,0.36726051044,0.7623523866,23,5,7.635,0,0,0,0.36726051044,0,0,0,215.1, -4.6, -1.1,0,0,1024,1024,1391,1024,0,0,56,0,226.4,0,0,36,3.82,3.817,0,0,0,0,0.642,99.5,0,0,10,Assisted_Takeoff,
1800,2022-10-24 22:15:25,-34.9205045754152,-56.147399149369,0,0,0,0,0.328084,0,0.45689962092,0.86475396468,23,5,7.635,0,0,0,0.45689962092,0,0,0,213.1, -4.3, -1.5,0,0,1024,1024,1439,1024,0,0,63,0,224.6,0,0,36,3.82,3.817,0,0,0,0,0.642,99.5,0,0,10,Assisted_Takeoff,
1900,2022-10-24 22:15:25,-34.9205046671576,-56.1473991261876,0,0,0,0,0.328084,0,0.4885826928,0.89893703664,23,5,7.61,0,0,0,0.4885826928,0,0,0,210.1, -5, -2.2,0,0,1024,1024,1684,1024,0,0,100,0,221.9,0,0,36,3.806,3.801,0,0,0,0,1.473,99.5,0,0,10,Assisted_Takeoff,
2000,2022-10-24 22:15:25,-34.9205047860389,-56.1473990958662,0,0,0,0,0.328084,0.223694,0.53014765476,0.94324806168,23,5,7.61,0,0,0.223694,0.53014765476,-0.223694,0,-0.223694,208, -4.9, -2.5,0,0,1024,1024,1666,1024,0,0,97,0,219.1,0,0,36,3.806,3.801,0,0,0,0,1.473,99.5,0,0,6,P-GPS,"Error de calibración del estabilizador. Reinicia la aeronave o contacta con la Asistencia DJI (Code: 40011)"
2100,2022-10-24 22:15:25,-34.9205051171415,-56.1473990950734,0,0,0,0,0.328084,0.447388,0.6366141936,1.06405187132,23,5,7.61,0,0,0.447388,0.6366141936,-0.447388,0,-0.894776,208.4, -0.3, 0.4,0,0,1024,1024,1666,1024,0,0,97,0,218.9,0,0,36,3.806,3.801,0,0,0,0,1.473,99.5,0,0,6,P-GPS,
2200,2022-10-24 22:15:25,-34.9205055917661,-56.1473992608653,0,0,0,0,0.656168,0.447388,0.78052495936,1.24417982984,23,5,7.61,0,0,0.447388,0.78052495936,-0.447388,0,-1.565858,208.2, 1.4, 1.3,0,0,1024,1024,1024,1024,0,0,0,0,218.9,0,0,36,3.806,3.801,0,0,0,0,1.473,99.5,0,0,6,P-GPS,
2300,2022-10-24 22:15:25,-34.9205058516902,-56.147399248462,0.328084,0.328084,0,0.328084,0.984252,0.447388,0.87270672084,1.33908468852,23,5,7.61,0.328084,0.328084,0.447388,0.87270672084,-0.447388,0,-2.013246,208.3, 2.3, 1.9,0,0,1024,1024,1024,1024,0,0,0,0,218.9,0,0,36,3.806,3.801,0,0,0,0,1.473,99.5,0.328084,0.328084,6,P-GPS,
2400,2022-10-24 22:15:25,-34.9205060631583,-56.147399254535,0.656168,0.656168,0,0.656168,1.312336,0.223694,0.94692588332,1.41625988784,23,5,7.61,0.656168,0.656168,0.447388,0.94692588332,-0.223694,0,-2.23694,208.3, 2.6, 0.9,0,0,1024,1024,1024,1024,0,0,0,0,218.9,0,0,36,3.806,3.801,0,0,0,0,1.473,99.5,0.656168,0.656168,6,P-GPS,
2500,2022-10-24 22:15:25,-34.9205063398057,-56.1473992547146,0.984252,0.984252,0,0.984252,1.64042,0.223694,1.04517063712,1.51719493044,23,5,7.61,0.984252,0.984252,0.447388,1.04517063712,-0.223694,0,-2.013246,208.4, 2.9, 1.2,0,0,1024,1024,1024,1024,0,0,0,0,218.9,0,0,36,3.806,3.801,0,0,0,0,1.473,99.5,0.984252,0.984252,6,P-GPS,
2600,2022-10-24 22:15:26,-34.9205066224417,-56.1473992197927,0.984252,0.984252,0,0.984252,4.593176,0.223694,1.14815620472,1.62084322772,23,5,7.61,0.984252,0.984252,0.447388,1.14815620472,-0.223694,0,-1.565858,208.5, 3.3, 0.9,0,0,1024,1024,1024,1024,0,0,0,0,218.9,0,0,36,3.806,3.801,0,0,0,0,1.473,99.5,0.984252,0.984252,6,P-GPS,
2700,2022-10-24 22:15:26,-34.920506903709,-56.1473992632358,1.312336,1.312336,0,1.312336,4.92126,0,1.24631893752,1.72428483208,23,5,7.61,1.312336,1.312336,0.447388,1.24631893752,0,0,-1.11847,208.5, 2.9, 0.7,0,0,1024,1024,1024,1024,0,0,0,0,218.9,0,0,36,3.806,3.801,0,0,0,0,1.473,99.5,1.312336,1.312336,6,P-GPS,
2800,2022-10-24 22:15:26,-34.9205071542126,-56.147399303673,1.312336,1.312336,0,1.312336,4.92126,0,1.33433075136,1.81647643608,23,5,7.61,1.312336,1.312336,0.447388,1.33433075136,0,0,-0.671082,208.4, 2.6, 0.4,0,0,1024,1024,1024,1024,0,0,0,0,218.9,0,0,36,3.806,3.801,0,0,0,0,1.473,99.5,1.312336,1.312336,6,P-GPS,"Error de calibración del estabilizador. Reinicia la aeronave o contacta con la Asistencia DJI (Code: 40011)"
2900,2022-10-24 22:15:26,-34.9205073072928,-56.1473992910986,1.64042,1.64042,0,1.64042,5.249344,0,1.39007878464,1.87245412816,23,5,7.554,1.64042,1.64042,0.447388,1.39007878464,0,0,-0.447388,208.4, 2.4, 0.7,0,0,1024,1024,1024,1024,0,0,0,0,218.9,0,0,36,3.763,3.752,0,0,0,0,3.019,99.5,1.64042,1.64042,6,P-GPS,
3000,2022-10-24 22:15:26,-34.9205074413056,-56.147399286024,1.64042,1.64042,0,1.64042,5.249344,0,1.43862537412,1.92137145256,23,5,7.554,1.64042,1.64042,0.447388,1.43862537412,0,0,-0.223694,208.4, 2.4, 0.3,0,0,1024,1024,1024,1024,0,0,0,0,218.9,0,0,36,3.763,3.752,0,0,0,0,3.019,99.5,1.64042,1.64042,6,P-GPS,
3100,2022-10-24 22:15:26,-34.9205075945634,-56.1473994506901,1.64042,1.64042,0,1.64042,5.249344,0,1.48752301348,1.99589245232,23,5,7.554,1.64042,1.64042,0.447388,1.48752301348,0,0,0,208.4, 2.3, -0.1,0,0,1024,1024,1024,1024,0,0,0,0,218.9,0,0,36,3.763,3.752,0,0,0,0,3.019,99.5,1.64042,1.64042,6,P-GPS,
3200,2022-10-24 22:15:26,-34.9205077326408,-56.1473996082129,1.64042,1.64042,0,1.64042,5.249344,0,1.53312340864,2.06487539416,23,5,7.554,1.64042,1.64042,0.447388,1.53312340864,0,0,0,208.5, 2.1, -0.2,0,0,1024,1024,1024,1024,0,0,0,0,218.9,0,0,36,3.763,3.752,0,0,0,0,3.019,99.5,1.64042,1.64042,6,P-GPS,
3300,2022-10-24 22:15:26,-34.9205078127928,-56.1473995852372,1.64042,1.64042,0,1.64042,5.249344,0,1.562828134,2.0949147652,23,5,7.554,1.64042,1.64042,0.447388,1.562828134,0,0,0,208.6, 2.3, 0.1,0,0,1024,1024,1024,1024,0,0,0,0,218.9,0,0,36,3.763,3.752,0,0,0,0,3.019,99.5,1.64042,1.64042,6,P-GPS,
3400,2022-10-24 22:15:26,-34.9205078813625,-56.1473995561702,1.64042,1.64042,0,1.64042,5.249344,0,1.58848758364,2.12140098652,23,5,7.554,1.64042,1.64042,0.447388,1.58848758364,0,0,0,208.8, 2.3, 0.2,0,0,1024,1024,1024,1024,0,0,0,0,218.9,0,0,36,3.763,3.752,0,0,0,0,3.019,99.5,1.64042,1.64042,6,P-GPS,
3500,2022-10-24 22:15:26,-34.9205076253043,-56.1473996060383,1.64042,1.64042,0,1.64042,5.249344,0,1.49414046776,2.21600728876,23,5,7.554,1.64042,1.64042,0.447388,1.58848758364,0,0,0,208.9, 2.9, 0.2,0,0,1024,1024,1024,1024,0,0,0,0,218.9,0,0,36,3.763,3.752,0,0,0,0,3.019,99.5,1.64042,1.64042,6,P-GPS,
3600,2022-10-24 22:15:26,-34.9205075957611,-56.1473996690954,1.64042,1.64042,0,1.64042,5.249344,0,1.48196198968,2.23773301124,23,5,7.554,1.64042,1.64042,0.447388,1.58848758364,0,0,0,209, 2.7, 0.3,0,0,1024,1024,1024,1024,0,0,0,0,218.9,0,0,36,3.763,3.752,0,0,0,0,3.019,99.5,1.64042,1.64042,6,P-GPS,
3700,2022-10-24 22:15:27,-34.9205076111556,-56.1473996608269,1.64042,1.64042,0,1.64042,5.249344,0,1.48773954892,2.24387146288,23,5,7.554,1.64042,1.64042,0.447388,1.58848758364,0,0,0,209.1, 2.5, 0.5,0,0,1024,1024,1024,1024,0,0,0,0,218.9,0,0,36,3.763,3.752,0,0,0,0,3.019,99.5,1.64042,1.64042,6,P-GPS,
3800,2022-10-24 22:15:27,-34.9205076132343,-56.1473996544574,1.64042,1.64042,0,1.64042,5.249344,0,1.4886319374,2.24592198788,23,5,7.554,1.64042,1.64042,0.447388,1.58848758364,0,0,0,209.2, 2.5, 0.4,0,0,1024,1024,1024,1024,0,0,0,0,218.9,0,0,36,3.763,3.752,0,0,0,0,3.019,99.5,1.64042,1.64042,6,P-GPS,
3900,2022-10-24 22:15:27,-34.9205076768291,-56.14739966141,1.64042,1.64042,0,1.64042,5.249344,0,1.51162734496,2.26921595188,23,5,7.546,1.64042,1.64042,0.447388,1.58848758364,0,0,0,209.3, 2.4, 0.1,0,0,1024,1024,1024,1024,0,0,0,0,218.9,0,0,36,3.773,3.767,0,0,0,0,4.742,99.5,1.64042,1.64042,6,P-GPS,
4000,2022-10-24 22:15:27,-34.9205077062412,-56.1473996957841,1.64042,1.64042,0,1.64042,5.249344,0,1.521653592,2.28407815708,23,5,7.546,1.64042,1.64042,0.447388,1.58848758364,0,0,0,209.4, 2.3, -0.2,0,0,1024,1024,1024,1024,0,0,0,0,218.9,0,0,36,3.773,3.767,0,0,0,0,4.742,99.5,1.64042,1.64042,6,P-GPS,
4100,2022-10-24 22:15:27,-34.9205077688101,-56.1473996939543,1.64042,1.64042,0,1.64042,5.249344,0,1.54446855336,2.30691608432,23,5,7.546,1.64042,1.64042,0.447388,1.58848758364,0,0,0,209.5, 2.3, 0,0,0,1024,1024,1024,1024,0,0,0,0,218.9,0,0,36,3.773,3.767,0,0,0,0,4.742,99.5,1.64042,1.64042,6,P-GPS,
4200,2022-10-24 22:15:27,-34.920507831918,-56.1473996836569,1.64042,1.64042,0,1.64042,5.249344,0,1.56764112628,2.33014443152,23,5,7.546,1.64042,1.64042,0.447388,1.58848758364,0,0,0,209.5, 2.5, 0.1,0,0,1024,1024,1024,1024,0,0,0,0,218.9,0,0,36,3.773,3.767,0,0,0,0,4.742,99.5,1.64042,1.64042,6,P-GPS,
4300,2022-10-24 22:15:27,-34.9205079740535,-56.1473997361763,1.64042,1.64042,0,1.64042,5.249344,0,1.61851383132,2.38433078496,23,5,7.546,1.64042,1.64042,0.447388,1.61851383132,0,0,0,209.7, 2.5, 0.2,0,0,1024,1024,1024,1024,0,0,0,0,218.9,0,0,36,3.773,3.767,0,0,0,0,4.742,99.5,1.64042,1.64042,31,Sport,"Error de calibración del estabilizador. Reinicia la aeronave o contacta con la Asistencia DJI (Code: 40011)"
4400,2022-10-24 22:15:27,-34.920508006304,-56.1473997667922,1.64042,1.64042,0,1.64042,5.249344,0,1.62981960596,2.39924220276,23,5,7.546,1.64042,1.64042,0.447388,1.62981960596,0,0,0,209.8, 2.3, 0.1,0,0,1024,1024,1024,1024,0,0,0,0,218.9,0,0,36,3.773,3.767,0,0,0,0,4.742,99.5,1.64042,1.64042,31,Sport,
4500,2022-10-24 22:15:27,-34.9205080451563,-56.1473997559959,1.64042,1.64042,0,1.64042,5.249344,0,1.64413063004,2.4137796048,23,5,7.546,1.64042,1.64042,0.447388,1.64413063004,0,0,0,209.9, 2.4, 0.3,0,0,1024,1024,1024,1024,0,0,0,0,218.9,0,0,36,3.773,3.767,0,0,0,0,4.742,99.5,1.64042,1.64042,31,Sport,
4600,2022-10-24 22:15:27,-34.9205080788895,-56.1473997480207,1.64042,1.64042,0,1.64042,5.249344,0,1.65653876692,2.42631569444,23,5,7.546,1.64042,1.64042,0.447388,1.65653876692,0,0,0,210, 2.7, 0.3,0,0,1024,1024,1024,1024,0,0,0,0,218.9,0,0,36,3.773,3.767,0,0,0,0,4.742,99.5,1.64042,1.64042,31,Sport,
4700,2022-10-24 22:15:28,-34.9205081692624,-56.1473996804284,1.64042,1.64042,0,1.64042,5.249344,0,1.6905512352,2.46499679804,23,5,7.546,1.64042,1.64042,0.447388,1.6905512352,0,0,0,210.1, 2.5, 0.2,0,0,1024,1024,1024,1024,0,0,0,0,218.9,0,0,36,3.773,3.767,0,0,0,0,4.742,99.5,1.64042,1.64042,31,Sport,
4800,2022-10-24 22:15:28,-34.9205081895952,-56.1473996741249,1.64042,1.64042,0,1.64042,5.249344,0,1.69806763964,2.47265099776,23,5,7.546,1.64042,1.64042,0.447388,1.69806763964,0,0,0,210.1, 2.2, 0.2,0,0,1024,1024,1024,1024,0,0,0,0,218.9,0,0,36,3.773,3.767,0,0,0,0,4.742,99.5,1.64042,1.64042,31,Sport,
4900,2022-10-24 22:15:28,-34.9205081517965,-56.147399690428,1.64042,1.64042,0,1.64042,5.249344,0,1.68401580192,2.48727698248,23,5,7.523,1.64042,1.64042,0.447388,1.69806763964,0,0,0,210.1, 2.1, -0.2,0,0,1024,1024,1024,1024,0,0,0,0,218.9,0,0,36,3.763,3.757,0,0,0,0,4.408,99.5,1.64042,1.64042,31,Sport,"Punto de origen actualizado. Altitud de RPO establecida en 100m (Code: 3000001)"
5000,2022-10-24 22:15:28,-34.9205081086208,-56.147399715494,1.64042,1.64042,0,1.64042,5.249344,0,1.66786750744,2.5047244896,23,5,7.523,1.64042,1.64042,0.447388,1.69806763964,0,0,0,210.2, 2.1, -0.2,0,0,1024,1024,1024,1024,0,0,0,0,218.9,0,0,36,3.763,3.757,0,0,0,0,4.408,99.5,1.64042,1.64042,31,Sport,
5100,2022-10-24 22:15:28,-34.9205080512352,-56.1473998119025,1.64042,1.64042,0,1.64042,5.249344,0,1.64564309728,2.54036425452,23,5,7.523,1.64042,1.64042,0.447388,1.69806763964,0,0,0,210.3, 2.1, -0.9,0,0,1024,1024,1024,1024,0,0,0,0,218.9,0,0,36,3.763,3.757,0,0,0,0,4.408,99.5,1.64042,1.64042,31,Sport,
5200,2022-10-24 22:15:28,-34.9205078996401,-56.1473999858485,1.64042,1.64042,0,1.64042,5.249344,0,1.58923233432,2.616305858,23,5,7.523,1.64042,1.64042,0.447388,1.69806763964,0,0,0,210.2, 2, -1.4,0,0,1024,1024,1196,1024,0,0,26,0,218.9,0,0,36,3.763,3.757,0,0,0,0,4.408,99.5,1.64042,1.64042,31,Sport,
5300,2022-10-24 22:15:28,-34.9205078606356,-56.1474000389445,1.64042,1.64042,0,1.64042,5.249344,0,1.57499348872,2.637631318,23,5,7.523,1.64042,1.64042,0.447388,1.69806763964,0,0,0,210.2, 1.8, -1,0,0,1024,1024,1196,1024,0,0,26,0,218.9,0,0,36,3.763,3.757,0,0,0,0,4.408,99.5,1.64042,1.64042,31,Sport,
5400,2022-10-24 22:15:28,-34.9205078259262,-56.1474000903583,1.64042,1.64042,0,1.64042,5.249344,0,1.56247380328,2.65755585932,23,5,7.523,1.64042,1.64042,0.447388,1.69806763964,0,0,0,210.3, 1.6, -0.8,0,0,1024,1024,1684,1024,0,0,100,0,218.9,0,0,36,3.763,3.757,0,0,0,0,4.408,99.5,1.64042,1.64042,31,Sport,
5500,2022-10-24 22:15:28,-34.9205078151907,-56.1474001660459,1.64042,1.64042,0,1.64042,5.249344,0,1.55904860632,2.68053158184,23,5,7.523,1.64042,1.64042,0.447388,1.69806763964,0,0,-0.671082,210.2, 1.5, -1.3,0,0,1024,1024,1684,1024,0,0,100,0,218.9,0,0,36,3.763,3.757,0,0,0,0,4.408,99.5,1.64042,1.64042,31,Sport,
5600,2022-10-24 22:15:28,-34.920507853543,-56.1474002353967,1.968504,1.968504,0,1.968504,5.577428,0,1.5737697354,2.70555782936,23,5,7.523,1.968504,1.968504,0.447388,1.69806763964,0,0,-1.565858,210.2, 1.4, -1.9,0,0,1024,1024,1684,1024,0,0,100,0,218.9,0,0,36,3.763,3.757,0,0,0,0,4.408,99.5,1.968504,1.968504,31,Sport,
5700,2022-10-24 22:15:29,-34.9205078427138,-56.1474002615056,2.296588,2.296588,0,2.296588,5.905512,0,1.57016737308,2.71431111048,23,5,7.523,2.296588,2.296588,0.447388,1.69806763964,0,0,-2.460634,210.4, 1.8, -1.2,0,0,1024,1024,1024,1024,0,0,0,0,218.9,0,0,36,3.763,3.757,0,0,0,0,4.408,99.5,2.296588,2.296588,31,Sport,
5800,2022-10-24 22:15:29,-34.9205078490371,-56.1474002721765,2.624672,2.624672,0,2.624672,6.233596,0,1.57262472224,2.71824811848,23,5,7.523,2.624672,2.624672,0.447388,1.69806763964,0,0,-3.579104,210.5, 2.1, -0.8,0,0,1024,1024,1024,1024,0,0,0,0,218.9,0,0,36,3.763,3.757,0,0,0,0,4.408,99.5,2.624672,2.624672,31,Sport,
5900,2022-10-24 22:15:29,-34.9205079067996,-56.1474002777826,3.28084,3.28084,0,3.28084,6.889764,0,1.59375661268,2.73938985144,23,5,7.516,3.28084,3.28084,0.447388,1.69806763964,0,0,-3.579104,210.7, 3.9, -0.9,0,0,1024,1024,1024,1024,0,0,0,0,218.9,0,0,36,3.759,3.753,0,0,0,0,4.482,99.5,3.28084,3.28084,31,Sport,
6000,2022-10-24 22:15:29,-34.9205079861064,-56.1474002637996,3.937008,3.937008,0,3.937008,7.217848,0,1.62246068184,2.76862541668,23,5,7.516,3.937008,3.937008,0.447388,1.69806763964,0,0,-2.684328,210.7, 4.5, -1.2,0,0,1024,1024,443,1024,0,0,-88,0,218.9,0,0,36,3.759,3.753,0,0,0,0,4.482,99.5,3.937008,3.937008,31,Sport,
6100,2022-10-24 22:15:29,-34.9205081118573,-56.1474002185418,4.265092,4.265092,0,4.265092,7.545932,0,1.66774611636,2.81646334472,23,5,7.516,4.265092,4.265092,0.447388,1.69806763964,0,0,-2.013246,210.7, 4.2, -0.9,0,0,1024,1024,364,964,0,0,-100,-9,218.9,0,0,36,3.759,3.753,0,0,0,0,4.482,99.5,4.265092,4.265092,31,Sport,
6200,2022-10-24 22:15:29,-34.9205082343008,-56.1474001724128,4.265092,4.265092,0,4.265092,7.874016,0,1.71195543536,2.86321859556,23,5,7.516,4.265092,4.265092,0.447388,1.71195543536,0,0,-1.11847,210.8, 3.9, -0.7,0,0,1024,1024,364,1024,0,0,-100,0,218.9,0,0,36,3.759,3.753,0,0,0,0,4.482,99.5,4.265092,4.265092,31,Sport,
6300,2022-10-24 22:15:29,-34.9205082945077,-56.1474001973573,4.265092,4.265092,0,4.265092,7.874016,0,1.73413063292,2.8864174152,23,5,7.516,4.265092,4.265092,0.447388,1.73413063292,0,0,0,210.8, 4, -0.6,0,0,1024,1024,364,1024,0,0,-100,0,218.8,0,0,36,3.759,3.753,0,0,0,0,4.482,99.5,4.265092,4.265092,31,Sport,
6400,2022-10-24 22:15:29,-34.9205083499139,-56.1474002292336,4.265092,4.265092,0,4.265092,7.874016,0,1.7546588488,2.90876977812,23,5,7.516,4.265092,4.265092,0.447388,1.7546588488,0,0,0.671082,210.7, 3.7, -1,0,0,1024,1024,1024,1024,0,0,0,0,218.8,0,0,36,3.759,3.753,0,0,0,0,4.482,99.5,4.265092,4.265092,31,Sport,
6500,2022-10-24 22:15:29,-34.9205084313401,-56.1474003339804,4.265092,4.265092,0,4.265092,7.545932,0,1.7857448078,2.95194891336,23,5,7.516,4.265092,4.265092,0.447388,1.7857448078,0,0,1.342164,210.6, 2.8, -0.6,0,0,1081,1024,1024,1024,9,0,0,0,218.8,0,0,36,3.759,3.753,0,0,0,0,4.482,99.5,4.265092,4.265092,31,Sport,
6600,2022-10-24 22:15:30,-34.920508498318,-56.147400443741,3.937008,3.937008,0,3.937008,7.545932,0,1.81217525484,2.9928806732,23,5,7.516,4.265092,4.265092,0.447388,1.81217525484,0,0,1.11847,210.5, 2, -1,0,0,1684,816,1024,1024,100,-32,0,0,218.8,0,0,36,3.759,3.753,0,0,0,0,4.482,99.5,3.937008,3.937008,31,Sport,
6700,2022-10-24 22:15:30,-34.9205085161983,-56.1474004445142,3.937008,3.937008,0,3.937008,7.217848,0,1.81869756476,2.9994095448,23,5,7.516,4.265092,4.265092,0.447388,1.81869756476,0,0,0.671082,210.6, -3.2, -1.1,0,0,1684,724,1024,1024,100,-45,0,0,218.8,0,0,36,3.759,3.753,0,0,0,0,4.482,99.5,3.937008,3.937008,31,Sport,
6800,2022-10-24 22:15:30,-34.9205086002448,-56.1474005019063,3.937008,3.937008,0,3.937008,7.217848,0.3131716,1.850557802,3.03455062204,23,5,7.516,4.265092,4.265092,0.447388,1.850557802,-0.223694,-0.223694,0.447388,211.4, -18.3, -5,0,0,1684,870,1024,1024,100,-23,0,0,218.8,0,0,36,3.759,3.753,0,0,0,0,4.482,99.5,3.937008,3.937008,31,Sport,
6900,2022-10-24 22:15:30,-34.9205087916358,-56.1474005814043,3.937008,3.937008,0,3.937008,6.889764,0.3131716,1.9221293266,3.10832030944,23,5,7.433,4.265092,4.265092,0.447388,1.9221293266,-1.11847,-0.447388,0.223694,212.2, -22.2, -9,0,0,1684,874,1024,1024,100,-23,0,0,218.8,0,0,36,3.776,3.773,0,0,0,0,5.59,99.5,3.937008,3.937008,31,Sport,
7000,2022-10-24 22:15:30,-34.9205094534021,-56.1474008987145,3.937008,3.937008,0,3.937008,6.56168,2.4158952,2.17223432148,3.3677494516,23,5,7.433,4.265092,4.265092,2.4158952,2.17223432148,-2.23694,-0.894776,0,212.3, -22.5, -6.9,0,0,1684,843,1024,1024,100,-27,0,0,218.8,0,0,36,3.776,3.773,0,0,0,0,5.59,99.5,3.937008,3.937008,31,Sport,
7100,2022-10-24 22:15:30,-34.9205105712246,-56.1474014906774,3.937008,3.937008,0,3.937008,6.56168,3.3330406,2.60164706488,3.8123688884,23,5,7.433,4.265092,4.265092,3.3330406,2.60164706488,-3.131716,-1.11847,0,211.8, -21.6, -5.2,0,0,1684,843,1024,1024,100,-27,0,0,218.8,0,0,36,3.776,3.773,0,0,0,0,5.59,99.5,3.937008,3.937008,31,Sport,"Error de calibración del estabilizador. Reinicia la aeronave o contacta con la Asistencia DJI (Code: 40011)"
7200,2022-10-24 22:15:30,-34.9205119581948,-56.147402199603,3.937008,3.937008,0,3.937008,6.889764,4.3172942,3.13874353876,4.36105657,23,5,7.433,4.265092,4.265092,4.3172942,3.13874353876,-4.026492,-1.565858,0,211.6, -21, -5.4,0,0,1684,849,1024,1024,100,-27,0,0,218.8,0,0,36,3.776,3.773,0,0,0,0,5.59,99.5,3.937008,3.937008,31,Sport,
7300,2022-10-24 22:15:30,-34.9205138317962,-56.1474030527129,3.608924,3.608924,0,3.608924,6.889764,5.2344396,3.8619751892,5.090715386,23,5,7.433,4.265092,4.265092,5.2344396,3.8619751892,-4.921268,-1.789552,0,211.6, -21, -4.7,0,0,1684,868,1024,1024,100,-24,0,0,218.8,0,0,36,3.776,3.773,0,0,0,0,5.59,99.5,3.608924,3.608924,31,Sport,"Error de calibración del estabilizador. Reinicia la aeronave o contacta con la Asistencia DJI (Code: 40011)"
7400,2022-10-24 22:15:30,-34.9205160061467,-56.1474039944969,3.608924,3.608924,0,3.608924,6.889764,6.2410626,4.7000985756,5.93257893,23,5,7.433,4.265092,4.265092,6.2410626,4.7000985756,-5.816044,-2.23694,0,211.4, -20.9, -5,0,0,1684,866,1024,1024,100,-24,0,0,218.8,0,0,36,3.776,3.773,0,0,0,0,5.59,99.5,3.608924,3.608924,31,Sport,
7500,2022-10-24 22:15:30,-34.920518547713,-56.1474051219199,3.608924,3.608924,0,3.608924,6.889764,6.934514,5.6833335152,6.91929156,23,5,7.433,4.265092,4.265092,6.934514,5.6833335152,-6.487126,-2.460634,0,211.2, -20.6, -4.7,0,0,1684,853,1664,1024,100,-26,97,0,218.8,0,0,36,3.776,3.773,0,0,0,0,5.59,99.5,3.608924,3.608924,31,Sport,
7600,2022-10-24 22:15:30,-34.9205215071087,-56.1474064403954,3.608924,3.608924,0,3.608924,6.889764,7.8516594,6.8299214784,8.0688322792,23,5,7.433,4.265092,4.265092,7.8516594,6.8299214784,-7.381902,-2.684328,0,211.3, -20.2, -4.3,0,0,1684,840,1684,1024,100,-28,100,0,218.8,0,0,36,3.776,3.773,0,0,0,0,5.59,99.5,3.608924,3.608924,31,Sport,
7700,2022-10-24 22:15:31,-34.9205253614305,-56.1474078882383,3.937008,3.937008,0,3.937008,7.217848,8.6345884,8.3012469848,9.5402562108,23,5,7.433,4.265092,4.265092,8.6345884,8.3012469848,-8.052984,-3.131716,-0.671082,211.1, -19, -3.8,0,0,1684,825,1530,1024,100,-30,77,0,218.8,0,0,36,3.776,3.773,0,0,0,0,5.59,99.5,3.937008,3.937008,31,Sport,
7800,2022-10-24 22:15:31,-34.9205288976715,-56.1474093882713,3.937008,3.937008,0,3.937008,7.217848,9.5517338,9.6659779996,10.9062667532,23,5,7.433,4.265092,4.265092,9.5517338,9.6659779996,-8.94776,-3.35541,-1.565858,211.1, -17.4, -4,0,0,1684,826,1024,1024,100,-30,0,0,218.8,0,0,36,3.776,3.773,0,0,0,0,5.59,99.5,3.937008,3.937008,31,Sport,
7900,2022-10-24 22:15:31,-34.9205329742075,-56.147411068748,4.265092,4.265092,0,4.265092,7.874016,10.2675546,11.2352693884,12.4762799268,23,5,7.484,4.265092,4.265092,10.2675546,11.2352693884,-9.618842,-3.579104,-2.460634,211.1, -16.6, -4.2,0,0,1684,812,1024,1183,100,-32,0,24,218.8,0,0,36,3.747,3.74,0,0,0,0,4.159,99.5,4.265092,4.265092,31,Sport,
8000,2022-10-24 22:15:31,-34.9205370735677,-56.1474127543613,4.593176,4.593176,0,4.593176,8.2021,10.7596814,12.813156578,14.054626434,23,5,7.484,4.593176,4.593176,10.7596814,12.813156578,-10.06623,-3.802798,-2.23694,211.5, -17.6, -4.7,0,0,1684,812,1024,1183,100,-32,0,24,218.8,0,0,36,3.747,3.74,0,0,0,0,4.159,99.5,4.593176,4.593176,31,Sport,
8100,2022-10-24 22:15:31,-34.9205420207838,-56.1474143826817,4.92126,4.92126,0,4.92126,8.530184,10.961006,14.6815293412,15.924213108,23,5,7.484,4.92126,4.92126,10.961006,14.6815293412,-10.289924,-3.802798,-1.565858,211.9, -20.4, -5.3,0,0,1684,779,1137,1684,100,-37,17,100,219.6,0,0,36,3.747,3.74,0,0,0,0,4.159,99.5,4.92126,4.92126,31,Sport,
8200,2022-10-24 22:15:31,-34.9205463710352,-56.1474161388179,5.249344,5.249344,0,5.249344,8.530184,11.1847,16.353018896,17.5960635552,23,5,7.484,5.249344,5.249344,11.1847,16.353018896,-10.513618,-3.802798,-0.894776,215.3, -21.4, -7.5,0,0,1684,779,1094,1684,100,-37,11,100,227.6,0,0,36,3.747,3.74,0,0,0,0,4.159,99.5,5.249344,5.249344,31,Sport,
8300,2022-10-24 22:15:31,-34.9205510279714,-56.1474179945075,5.249344,5.249344,0,5.249344,8.858268,11.8781514,18.1402892944,19.383530804,23,5,7.484,5.249344,5.249344,11.8781514,18.1402892944,-11.1847,-4.026492,-0.894776,225.8, -21, -10.1,0,0,1684,778,1069,1402,100,-37,7,57,238,0,0,36,3.747,3.74,0,0,0,0,4.159,99.5,5.249344,5.249344,31,Sport,
8400,2022-10-24 22:15:31,-34.9205556730232,-56.1474198410445,5.577428,5.577428,0,5.577428,8.858268,12.3926476,19.9226056244,21.1660439844,23,5,7.484,5.577428,5.577428,12.3926476,19.9226056244,-11.632088,-4.250186,-0.447388,236.3, -21.6, -9.9,0,0,1684,753,1024,1024,100,-41,0,0,246,0,0,36,3.747,3.74,0,0,0,0,4.159,99.5,5.577428,5.577428,31,Sport,
8500,2022-10-24 22:15:31,-34.9205607042377,-56.1474217750645,5.577428,5.577428,0,5.577428,8.858268,12.9518826,21.847277602,23.090715962,23,5,7.484,5.577428,5.577428,12.9518826,21.847277602,-12.079476,-4.697574,-0.223694,241.9, -23.3, -7,0,0,1684,720,1024,1024,100,-46,0,0,248.6,0,0,36,3.747,3.74,0,0,0,0,4.159,99.5,5.577428,5.577428,31,Sport,
8600,2022-10-24 22:15:31,-34.9205654325421,-56.1474233219958,5.577428,5.577428,0,5.577428,8.858268,13.309793,23.6320217536,24.876805258,23,5,7.484,5.577428,5.577428,13.309793,23.6320217536,-12.526864,-4.47388,0,239.3, -22.9, -4.9,0,0,1677,1024,1024,1024,99,0,0,0,248.9,0,0,36,3.747,3.74,0,0,0,0,4.159,99.5,5.577428,5.577428,31,Sport,
8700,2022-10-24 22:15:32,-34.9205706671428,-56.1474257544617,5.577428,5.577428,0,5.577428,8.858268,13.9585056,25.6718840236,26.920604536,23,5,7.484,5.577428,5.577428,13.9585056,25.6718840236,-12.974252,-5.144962,0,239.2, -21.7, -5.6,0,0,1024,1024,1024,1024,0,0,0,0,248.9,0,0,36,3.747,3.74,0,0,0,0,4.159,99.5,5.577428,5.577428,31,Sport,
8800,2022-10-24 22:15:32,-34.920575764661,-56.1474282898062,5.905512,5.905512,0,5.905512,8.858268,14.3387854,27.6740822504,28.929134784,23,5,7.484,5.905512,5.905512,14.3387854,27.6740822504,-13.197946,-5.59235,0,239, -20.4, -2.7,0,0,1024,1024,1024,1024,0,0,0,0,248.9,0,0,36,3.747,3.74,0,0,0,0,4.159,99.5,5.905512,5.905512,31,Sport,
8900,2022-10-24 22:15:32,-34.920581407467,-56.1474311643107,5.905512,5.905512,0,5.905512,9.186352,14.428263,29.8977699856,31.160270026,23,5,7.431,5.905512,5.905512,14.428263,29.8977699856,-13.197946,-5.816044,0,239.1, 3.1, 5.9,0,0,906,1024,759,1024,-18,0,-40,0,248.9,0,0,36,3.729,3.731,0,0,0,0,5.815,99.5,5.905512,5.905512,31,Sport,
9000,2022-10-24 22:15:32,-34.9205867267337,-56.1474331612787,5.577428,5.577428,0,5.577428,8.858268,13.309793,31.9280522028,33.190945944,23,5,7.431,5.905512,5.905512,14.428263,31.9280522028,-12.079476,-5.59235,0,242.3, 23.8, 15.3,0,0,364,1065,364,1024,-100,6,-100,0,248.9,0,0,36,3.729,3.731,0,0,0,0,5.815,99.5,5.577428,5.577428,31,Sport,
9100,2022-10-24 22:15:32,-34.9205916353785,-56.1474359027877,5.577428,5.577428,0,5.577428,8.858268,12.30317,33.885827856,35.16076228,23,5,7.431,5.905512,5.905512,14.428263,33.885827856,-11.1847,-5.144962,0.223694,240.7, 24.9, 12.2,0,0,855,1024,870,1024,-26,0,-23,0,248.9,0,0,36,3.729,3.731,0,0,0,0,5.815,99.5,5.577428,5.577428,31,Sport,
9200,2022-10-24 22:15:32,-34.9205960122451,-56.1474383120874,5.249344,5.249344,0,5.249344,8.858268,11.520241,35.629266232,36.91273084,23,5,7.431,5.905512,5.905512,14.428263,35.629266232,-10.513618,-4.697574,1.11847,240.2, 28, 9.6,0,0,1024,1024,1024,1024,0,0,0,0,248.9,0,0,36,3.729,3.731,0,0,0,0,5.815,99.5,5.249344,5.249344,31,Sport,
9300,2022-10-24 22:15:32,-34.9206002762476,-56.1474406835278,4.92126,4.92126,0,4.92126,8.858268,10.4241404,37.33103794,38.622376564,23,5,7.431,5.905512,5.905512,14.428263,37.33103794,-9.618842,-4.026492,1.342164,240.3, 28.4, 11.4,0,0,1024,1024,1024,1024,0,0,0,0,248.9,0,0,36,3.729,3.731,0,0,0,0,5.815,99.5,4.92126,4.92126,31,Sport,
9400,2022-10-24 22:15:32,-34.9206035585654,-56.1474428318724,4.92126,4.92126,0,4.92126,8.530184,8.6345884,38.673229584,39.981628576,23,5,7.431,5.905512,5.905512,14.428263,38.673229584,-8.052984,-3.131716,1.11847,240.4, 24.5, 16.1,0,0,1024,1024,1024,1024,0,0,0,0,248.9,0,0,36,3.729,3.731,0,0,0,0,5.815,99.5,4.92126,4.92126,31,Sport,
9500,2022-10-24 22:15:32,-34.9206065770752,-56.1474444298772,4.92126,4.92126,0,4.92126,8.530184,7.158208,39.870736184,41.182087932,23,5,7.431,5.905512,5.905512,14.428263,39.870736184,-6.71082,-2.460634,0.894776,240.3, 22.3, 16.2,0,0,1024,1024,1024,1024,0,0,0,0,248.9,0,0,36,3.729,3.731,0,0,0,0,5.815,99.5,4.92126,4.92126,31,Sport,
9600,2022-10-24 22:15:32,-34.9206090341627,-56.14744575266,4.92126,4.92126,0,4.92126,8.2021,5.7265664,40.847770336,42.16207484,23,5,7.431,5.905512,5.905512,14.428263,40.847770336,-5.368656,-2.013246,0.671082,240.3, 21.4, 15.7,0,0,1024,1024,1024,1024,0,0,0,0,248.9,0,0,36,3.729,3.731,0,0,0,0,5.815,99.5,4.92126,4.92126,31,Sport,
9700,2022-10-24 22:15:33,-34.9206105632325,-56.1474464455293,4.92126,4.92126,0,4.92126,8.2021,4.3172942,41.442914712,42.757219216,23,5,7.431,5.905512,5.905512,14.428263,41.442914712,-4.026492,-1.565858,0.223694,240.4, 20.5, 15.2,0,0,1024,1024,1024,1024,0,0,0,0,248.9,0,0,36,3.729,3.731,0,0,0,0,5.815,99.5,4.92126,4.92126,31,Sport,
9800,2022-10-24 22:15:33,-34.9206116631487,-56.1474469250927,4.92126,4.92126,0,4.92126,8.2021,3.1093466,41.869095828,43.183400332,23,5,7.431,5.905512,5.905512,14.428263,41.869095828,-2.908022,-1.11847,0,240, 18.8, 13.6,0,0,1024,1024,1024,1024,0,0,0,0,248.9,0,0,36,3.729,3.731,0,0,0,0,5.815,99.5,4.92126,4.92126,31,Sport,
9900,2022-10-24 22:15:33,-34.9206118674598,-56.147446972653,4.92126,4.92126,0,4.92126,8.2021,2.125093,41.944227064,43.259187736,23,5,7.483,5.905512,5.905512,14.428263,41.944227064,-2.013246,-0.671082,0,239.1, 14.5, 10,0,0,1024,1024,1024,1024,0,0,0,0,248.9,0,0,36,3.716,3.707,0,0,0,0,4.545,99.5,4.92126,4.92126,31,Sport,
10000,2022-10-24 22:15:33,-34.9206117558137,-56.1474468633697,4.92126,4.92126,0,4.92126,8.530184,1.4092722,41.89468638,43.311681176,23,5,7.483,5.905512,5.905512,14.428263,41.944227064,-1.342164,-0.447388,0,238.7, 11.3, 7.6,0,0,1024,1024,1024,1024,0,0,0,0,248.9,0,0,36,3.716,3.707,0,0,0,0,4.545,99.5,4.92126,4.92126,31,Sport,
10100,2022-10-24 22:15:33,-34.9206120030115,-56.1474469700723,4.92126,4.92126,0,4.92126,8.530184,1.006623,41.990486908,43.40715362,23,5,7.483,5.905512,5.905512,14.428263,41.990486908,-0.894776,-0.447388,0,238.4, 9, 5.7,0,0,1024,1024,1493,1024,0,0,71,0,248.9,0,0,36,3.716,3.707,0,0,0,0,4.545,99.5,4.92126,4.92126,31,Sport,
10200,2022-10-24 22:15:33,-34.9206120856062,-56.1474469947092,4.92126,4.92126,0,4.92126,8.530184,0.7158208,42.021326804,43.4383216,23,5,7.483,5.905512,5.905512,14.428263,42.021326804,-0.671082,-0.223694,0,238.1, 7.1, 4,0,0,1024,1024,1684,1024,0,0,100,0,248.9,0,0,36,3.716,3.707,0,0,0,0,4.545,99.5,4.92126,4.92126,31,Sport,
10300,2022-10-24 22:15:33,-34.9206115801763,-56.1474469249725,4.92126,4.92126,0,4.92126,8.530184,0.3131716,41.84055252,43.62368906,23,5,7.483,5.905512,5.905512,14.428263,42.021326804,-0.223694,-0.223694,-0.671082,237.9, 4.7, 2.5,0,0,1024,1024,1684,1024,0,0,100,0,248.9,0,0,36,3.716,3.707,0,0,0,0,4.545,99.5,4.92126,4.92126,31,Sport,
10400,2022-10-24 22:15:33,-34.9206115182042,-56.1474469087934,5.249344,5.249344,0,5.249344,8.858268,0.3131716,41.81758664,43.646983024,23,5,7.483,5.905512,5.905512,14.428263,42.021326804,-0.223694,-0.223694,-1.565858,237.8, 3.5, 1.6,0,0,1024,1024,1684,1024,0,0,100,0,248.9,0,0,36,3.716,3.707,0,0,0,0,4.545,99.5,5.249344,5.249344,31,Sport,
10500,2022-10-24 22:15:33,-34.9206115802284,-56.1474469600838,5.577428,5.577428,0,5.577428,9.186352,0.223694,41.844161444,43.674213996,23,5,7.483,5.905512,5.905512,14.428263,42.021326804,-0.223694,0,-2.684328,237.9, 2.8, 1,0,0,1024,1024,1684,1024,0,0,100,0,248.9,0,0,36,3.716,3.707,0,0,0,0,4.545,99.5,5.577428,5.577428,31,Sport,
10600,2022-10-24 22:15:34,-34.9206116138785,-56.1474469964019,6.233596,6.233596,0,6.233596,9.84252,0.223694,41.859253308,43.690618196,23,5,7.483,6.233596,6.233596,14.428263,42.021326804,0,-0.223694,-3.579104,238, 2.3, 0.9,0,0,1358,1024,1684,1024,51,0,100,0,248.9,0,0,36,3.716,3.707,0,0,0,0,4.545,99.5,6.233596,6.233596,31,Sport,
10700,2022-10-24 22:15:34,-34.9206123542473,-56.1474474908226,6.889764,6.889764,0,6.889764,10.498688,0.223694,42.163387176,43.998689072,23,5,7.483,6.889764,6.889764,14.428263,42.163387176,0,-0.223694,-4.697574,237.9, 2.7, 0.3,0,0,1684,979,1684,1024,100,-7,100,0,248.9,0,0,36,3.716,3.707,0,0,0,0,4.545,99.5,6.889764,6.889764,31,Sport,
10800,2022-10-24 22:15:34,-34.9206124654375,-56.1474475653865,7.545932,7.545932,0,7.545932,11.154856,0.3131716,42.209318936,44.044948916,23,5,7.483,7.545932,7.545932,14.428263,42.209318936,-0.223694,-0.223694,-5.816044,237.8, -1.6, 0.1,0,0,1684,1024,1684,1024,100,0,100,0,248.9,0,0,36,3.716,3.707,0,0,0,0,4.545,99.5,7.545932,7.545932,31,Sport,
10900,2022-10-24 22:15:34,-34.9206126562781,-56.1474477727682,8.530184,8.530184,0,8.530184,12.139108,0.3131716,42.295605028,44.138124772,23,5,7.474,8.530184,8.530184,14.428263,42.295605028,-0.447388,-0.671082,-6.934514,237.9, -17.4, -0.7,0,0,1684,1024,1684,1024,100,0,100,0,248.9,0,0,36,3.715,3.71,0,0,0,0,5.967,99.5,8.530184,8.530184,31,Sport,
11000,2022-10-24 22:15:34,-34.9206130399135,-56.1474483165046,9.84252,9.84252,0,9.84252,13.12336,2.1027236,42.482612908,44.352691708,23,5,7.474,9.84252,9.84252,14.428263,42.482612908,-1.11847,-1.789552,-7.82929,237.8, -21, 0.5,0,0,1684,1024,1684,1024,100,0,100,0,248.9,0,0,36,3.715,3.71,0,0,0,0,5.967,99.5,9.84252,9.84252,31,Sport,
11100,2022-10-24 22:15:34,-34.9206141471902,-56.1474497771205,11.154856,11.154856,0,11.154856,14.435696,3.5343652,43.0118124,44.947836084,23,5,7.474,11.154856,11.154856,14.428263,43.0118124,-2.013246,-2.908022,-8.94776,237.6, -17.8, 0.9,0,0,1684,1024,943,1024,100,0,-12,0,248.9,0,0,36,3.715,3.71,0,0,0,0,5.967,99.5,11.154856,11.154856,31,Sport,
11200,2022-10-24 22:15:34,-34.9206150259507,-56.1474513141129,12.467192,12.467192,0,12.467192,15.748032,4.5186188,43.473098504,45.50853164,23,5,7.474,12.467192,12.467192,14.428263,43.473098504,-2.460634,-3.802798,-9.842536,237.7, -15.6, 0.7,0,0,1684,989,1024,1024,100,-5,0,0,248.9,0,0,36,3.715,3.71,0,0,0,0,5.967,99.5,12.467192,12.467192,31,Sport,
11300,2022-10-24 22:15:34,-34.92061605686,-56.1474533977986,14.107612,14.107612,0,14.107612,17.388452,5.3462866,44.047245504,46.236550036,23,5,7.474,14.107612,14.107612,14.428263,44.047245504,-2.908022,-4.47388,-9.618842,237.9, -16, 0.7,0,0,1684,969,1024,1024,100,-8,0,0,248.9,0,0,36,3.715,3.71,0,0,0,0,5.967,99.5,14.107612,14.107612,31,Sport,
11400,2022-10-24 22:15:34,-34.9206171273079,-56.147455572504,15.419948,15.419948,0,15.419948,18.700788,5.8384134,44.649607728,46.995408328,23,5,7.474,15.419948,15.419948,14.428263,44.649607728,-3.131716,-4.921268,-8.94776,238, -18.1, 0.3,0,0,1684,957,1024,1024,100,-10,0,0,248.9,0,0,36,3.715,3.71,0,0,0,0,5.967,99.5,15.419948,15.419948,31,Sport,
11500,2022-10-24 22:15:34,-34.9206189405998,-56.1474588307382,16.732284,16.732284,0,16.732284,19.68504,6.4423872,45.631235056,48.173229888,23,5,7.474,16.732284,16.732284,14.428263,45.631235056,-3.579104,-5.368656,-8.052984,238, -20.6, -0.1,0,0,1684,931,1024,1024,100,-14,0,0,248.9,0,0,36,3.715,3.71,0,0,0,0,5.967,99.5,16.732284,16.732284,31,Sport,
11600,2022-10-24 22:15:34,-34.9206204096387,-56.1474614983076,17.716536,17.716536,0,17.716536,20.669292,6.9568834,46.436353192,49.134516008,23,5,7.474,17.716536,17.716536,14.428263,46.436353192,-3.802798,-5.816044,-7.158208,238.1, -22.5, -0.5,0,0,1684,861,1024,1024,100,-25,0,0,248.9,0,0,36,3.715,3.71,0,0,0,0,5.967,99.5,17.716536,17.716536,31,Sport,
11700,2022-10-24 22:15:35,-34.9206221868052,-56.1474646052671,18.700788,18.700788,0,18.700788,21.653544,7.4490102,47.403544824,50.268046228,23,5,7.474,18.700788,18.700788,14.428263,47.403544824,-4.026492,-6.263432,-6.039738,238.2, -23.8, -1.2,0,0,1684,859,1024,1024,100,-25,0,0,248.9,0,0,36,3.715,3.71,0,0,0,0,5.967,99.5,18.700788,18.700788,31,Sport,
11800,2022-10-24 22:15:35,-34.9206240026636,-56.1474677684275,19.356956,19.356956,0,19.356956,21.981628,7.7621818,48.397967428,51.423229992,23,5,7.474,19.356956,19.356956,14.428263,48.397967428,-4.250186,-6.487126,-4.921268,238.5, -24.9, -2.9,0,0,1684,859,1024,1024,100,-25,0,0,248.9,0,0,36,3.715,3.71,0,0,0,0,5.967,99.5,19.356956,19.356956,31,Sport,
11900,2022-10-24 22:15:35,-34.9206258389491,-56.147471105457,20.013124,20.013124,0,20.013124,22.637796,8.3661556,49.428479272,52.625329768,23,5,7.343,20.013124,20.013124,14.428263,49.428479272,-4.697574,-6.934514,-3.802798,238.8, -25.7, -4.1,0,0,1684,889,1024,1024,100,-20,0,0,248.9,0,0,36,3.732,3.721,0,0,0,0,8.599,99.5,20.013124,20.013124,31,Sport,
12000,2022-10-24 22:15:35,-34.9206279338316,-56.1474746127352,20.341208,20.341208,0,20.341208,22.96588,8.8806518,50.573492432,53.923558156,23,5,7.343,20.341208,20.341208,14.428263,50.573492432,-4.921268,-7.381902,-2.908022,238.9, -26.1, -4.1,0,0,1684,891,1024,670,100,-20,0,-54,248.9,0,0,36,3.732,3.721,0,0,0,0,8.599,99.5,20.341208,20.341208,31,Sport,
12100,2022-10-24 22:15:35,-34.9206301194119,-56.147478357554,20.669292,20.669292,0,20.669292,23.293964,9.4846256,51.787731316,55.2985582,23,5,7.343,20.669292,20.669292,14.428263,51.787731316,-5.368656,-7.82929,-1.789552,238.8, -26.6, -4,0,0,1684,892,1024,364,100,-20,0,-100,248,-3.3,0,36,3.732,3.721,0,0,0,0,8.599,99.5,20.669292,20.669292,31,Sport,"El ángulo de posición de vuelo es mayor en el modo Sport. El estabilizador rotará cuando la aeronave comience a moverse o se detenga. Si es necesario, usa el modo Normal para una captura estable (Code: 40022). Error de calibración del estabilizador. "
12200,2022-10-24 22:15:35,-34.9206323456772,-56.1474821133382,20.997376,20.997376,0,20.997376,23.293964,10.1109688,53.024279912,56.685041184,23,5,7.343,20.997376,20.997376,14.428263,53.024279912,-5.816044,-8.276678,-0.894776,235.6, -27, -2.1,0,0,1684,895,1024,364,100,-20,0,-100,240.7,-4.2,0,36,3.732,3.721,0,0,0,0,8.599,99.5,20.997376,20.997376,31,Sport,
12300,2022-10-24 22:15:35,-34.920634871446,-56.1474863386868,20.997376,20.997376,0,20.997376,23.293964,10.9162672,54.43077602,58.249345696,23,5,7.343,20.997376,20.997376,14.428263,54.43077602,-6.263432,-8.94776,-0.223694,225.4, -26, 1.7,0,0,1684,974,1024,672,100,-8,0,-53,230.4,-4.2,0,36,3.732,3.721,0,0,0,0,8.599,99.5,20.997376,20.997376,31,Sport,
12400,2022-10-24 22:15:35,-34.9206374888375,-56.1474905090464,20.997376,20.997376,0,20.997376,23.622048,11.5426104,55.867127772,59.820211888,23,5,7.343,20.997376,20.997376,14.428263,55.867127772,-6.71082,-9.395148,0,214.8, -24.1, 1.7,0,0,1684,1024,1024,1024,100,0,0,0,220.6,-4.2,0,36,3.732,3.721,0,0,0,0,8.599,99.5,20.997376,20.997376,31,Sport,
12500,2022-10-24 22:15:35,-34.9206404475248,-56.1474953000832,20.997376,20.997376,0,20.997376,23.622048,12.30317,57.510500528,61.614831368,23,5,7.343,20.997376,20.997376,14.428263,57.510500528,-7.381902,-9.842536,0,207, -23.4, 0.7,0,0,1684,1024,1024,1024,100,0,0,0,217,-4.2,0,36,3.732,3.721,0,0,0,0,8.599,99.5,20.997376,20.997376,31,Sport,
12600,2022-10-24 22:15:35,-34.9206435086478,-56.1474999899185,20.997376,20.997376,0,20.997376,23.622048,12.8847744,59.17979192,63.407810428,23,5,7.343,20.997376,20.997376,14.428263,59.17979192,-8.052984,-10.06623,0,205.9, -22.9, -1.7,0,0,1684,1024,1024,1024,100,0,0,0,216.5,-4.2,0,36,3.732,3.721,0,0,0,0,8.599,99.5,20.997376,20.997376,31,Sport,
12700,2022-10-24 22:15:36,-34.920647073937,-56.147505067613,20.997376,20.997376,0,20.997376,23.622048,13.4663788,61.073492768,65.407810492,23,5,7.343,20.997376,20.997376,14.428263,61.073492768,-8.94776,-10.06623,0,206, -21.5, -2.8,0,0,1684,1024,1024,1024,100,0,0,0,216.5,-4.2,0,36,3.732,3.721,0,0,0,0,8.599,99.5,20.997376,20.997376,31,Sport,
12800,2022-10-24 22:15:36,-34.9206507447625,-56.1475100910289,20.997376,20.997376,0,20.997376,23.950132,13.7795504,62.998033512,67.420933916,23,5,7.511,20.997376,20.997376,14.428263,62.998033512,-9.395148,-10.06623,0,206, -20.8, -2.5,0,0,1684,1024,1024,1024,100,0,0,0,216.5,-4.2,0,35,3.743,3.737,0,0,0,0,3.33,99.5,20.997376,20.997376,31,Sport,
12900,2022-10-24 22:15:36,-34.9206547241455,-56.1475152448597,20.997376,20.997376,0,20.997376,23.950132,14.4058936,65.043965336,69.538716136,23,5,7.511,20.997376,20.997376,14.428263,65.043965336,-10.06623,-10.289924,0,205.9, -20.8, -2.2,0,0,1684,1024,1024,1024,100,0,0,0,216.5,-4.2,0,35,3.743,3.737,0,0,0,0,3.33,99.5,20.997376,20.997376,31,Sport,
13000,2022-10-24 22:15:36,-34.9206587196045,-56.1475201864451,20.997376,20.997376,0,20.997376,23.950132,14.7190652,67.06529086,71.614831688,23,5,7.511,20.997376,20.997376,14.7190652,67.06529086,-10.513618,-10.289924,0,205.9, -21.1, -1.8,0,0,1684,1024,1024,1024,100,0,0,0,216.5,-4.2,0,35,3.743,3.737,0,0,0,0,3.33,99.5,20.997376,20.997376,31,Sport,
13100,2022-10-24 22:15:36,-34.9206632683045,-56.1475252422401,20.997376,20.997376,0,20.997376,24.278216,15.1888226,69.27821744,73.860238584,23,5,7.511,20.997376,20.997376,15.1888226,69.27821744,-11.1847,-10.289924,0,205.9, -21.4, -1.8,0,0,1684,1020,1024,1024,100,-1,0,0,216.5,-4.2,0,35,3.743,3.737,0,0,0,0,3.33,99.5,20.997376,20.997376,31,Sport,
13200,2022-10-24 22:15:36,-34.9206680968755,-56.1475296369441,20.997376,20.997376,0,20.997376,24.278216,15.5243636,71.471130896,76.058401384,23,5,7.511,20.997376,20.997376,15.5243636,71.471130896,-11.632088,-10.289924,0,205.9, -20.9, -2,0,0,1684,992,1024,1024,100,-5,0,0,216.5,-4.2,0,35,3.743,3.737,0,0,0,0,3.33,99.5,20.997376,20.997376,31,Sport,
13300,2022-10-24 22:15:36,-34.920673239671,-56.1475347474879,20.997376,20.997376,0,20.997376,24.278216,15.8599046,73.877298952,78.478677052,23,5,7.511,20.997376,20.997376,15.8599046,73.877298952,-12.079476,-10.289924,0,205.9, -20.6, -1.6,0,0,1684,984,1024,1024,100,-6,0,0,216.5,-4.2,0,35,3.743,3.737,0,0,0,0,3.33,99.5,20.997376,20.997376,31,Sport,
13400,2022-10-24 22:15:36,-34.9206783012397,-56.1475396370097,20.997376,20.997376,0,20.997376,24.6063,16.217815,76.223427636,80.834648256,23,5,7.511,20.997376,20.997376,16.217815,76.223427636,-12.526864,-10.289924,0,206, -20.4, -1.7,0,0,1684,981,1024,1024,100,-7,0,0,216.5,-4.2,0,35,3.743,3.737,0,0,0,0,3.33,99.5,20.997376,20.997376,31,Sport,
13500,2022-10-24 22:15:36,-34.9206836015774,-56.1475446168983,20.997376,20.997376,0,20.997376,24.6063,16.7099418,78.657482832,83.275593216,23,5,7.511,20.997376,20.997376,16.7099418,78.657482832,-12.974252,-10.513618,0,206, -20.9, -2,0,0,1684,978,1024,1024,100,-7,0,0,216.5,-4.2,0,35,3.743,3.737,0,0,0,0,3.33,99.5,20.997376,20.997376,31,Sport,
13600,2022-10-24 22:15:36,-34.9206887932783,-56.1475493794533,20.997376,20.997376,0,20.997376,24.934384,17.0454828,81.023296556,85.645672032,23,5,7.511,20.997376,20.997376,17.0454828,81.023296556,-13.42164,-10.513618,0,206.1, -21.4, -2.7,0,0,1684,957,1024,1024,100,-10,0,0,216.5,-4.2,0,35,3.743,3.737,0,0,0,0,3.33,99.5,20.997376,20.997376,31,Sport,
13700,2022-10-24 22:15:37,-34.9206941458043,-56.1475540374318,20.997376,20.997376,0,20.997376,24.934384,17.224438,83.420606344,88.044950324,23,5,7.511,20.997376,20.997376,17.224438,83.420606344,-13.645334,-10.513618,0,206.1, -21.7, -2.8,0,0,1684,957,1024,1024,100,-10,0,0,216.5,-4.2,0,35,3.743,3.737,0,0,0,0,3.33,99.5,20.997376,20.997376,31,Sport,
13800,2022-10-24 22:15:37,-34.9206996352239,-56.1475589711079,20.997376,20.997376,0,20.997376,25.262468,17.4033932,85.90551456,90.532811296,23,5,7.466,20.997376,20.997376,17.4033932,85.90551456,-13.869028,-10.513618,0,206.1, -21, -3.3,0,0,1684,949,1024,1024,100,-11,0,0,216.5,-4.2,0,35,3.735,3.731,0,0,0,0,4.788,99.5,20.997376,20.997376,31,Sport,
13900,2022-10-24 22:15:37,-34.9207055892581,-56.147564271005,20.997376,20.997376,0,20.997376,25.262468,17.7613036,88.59252252,93.222115844,23,5,7.466,20.997376,20.997376,17.7613036,88.59252252,-14.316416,-10.513618,0,206.4, -21.4, -3.8,0,0,1684,937,1024,1024,100,-13,0,0,216.5,-4.2,0,35,3.735,3.731,0,0,0,0,4.788,99.5,20.997376,20.997376,31,Sport,
14000,2022-10-24 22:15:37,-34.9207114056562,-56.1475693321913,20.997376,20.997376,0,20.997376,25.262468,18.119214,91.198165648,95.829071308,23,5,7.466,20.997376,20.997376,18.119214,91.198165648,-14.763804,-10.513618,0,206.3, -21.3, -4.3,0,0,1684,934,1024,1024,100,-14,0,0,216.5,-4.2,0,35,3.735,3.731,0,0,0,0,4.788,99.5,20.997376,20.997376,31,Sport,
14100,2022-10-24 22:15:37,-34.9207174985771,-56.1475748998243,20.997376,20.997376,0,20.997376,25.262468,18.4994938,93.971787784,98.606958536,23,5,7.466,20.997376,20.997376,18.4994938,93.971787784,-15.211192,-10.513618,0,206.3, -21.1, -4.8,0,0,1684,936,1024,1024,100,-13,0,0,216.5,-4.2,0,35,3.735,3.731,0,0,0,0,4.788,99.5,20.997376,20.997376,31,Sport,
14200,2022-10-24 22:15:37,-34.92072362408,-56.1475800163862,20.997376,20.997376,0,20.997376,24.934384,18.678449,96.680449288,101.31562004,23,5,7.466,20.997376,20.997376,18.678449,96.680449288,-15.434886,-10.513618,0,206.5, -21.3, -4.4,0,0,1684,931,1024,1024,100,-14,0,0,216.5,-4.2,0,35,3.735,3.731,0,0,0,0,4.788,99.5,20.997376,20.997376,31,Sport,
14300,2022-10-24 22:15:37,-34.9207301094298,-56.1475852788681,20.997376,20.997376,0,20.997376,24.934384,18.8574042,99.52264098,104.157811732,23,5,7.466,20.997376,20.997376,18.8574042,99.52264098,-15.65858,-10.513618,0,206.5, -22.2, -4.7,0,0,1684,927,1024,1024,100,-15,0,0,216.5,-4.2,0,35,3.735,3.731,0,0,0,0,4.788,99.5,20.997376,20.997376,31,Sport,
14400,2022-10-24 22:15:37,-34.9207364281052,-56.1475902833205,20.997376,20.997376,0,20.997376,24.934384,19.4166392,102.271000648,106.906499484,23,5,7.466,20.997376,20.997376,19.4166392,102.271000648,-16.329662,-10.513618,0,206.5, -21.7, -4.5,0,0,1684,918,1024,1024,100,-16,0,0,216.5,-4.2,0,35,3.735,3.731,0,0,0,0,4.788,99.5,20.997376,20.997376,31,Sport,
14500,2022-10-24 22:15:37,-34.9207434270793,-56.1475955855685,20.997376,20.997376,0,20.997376,24.934384,19.796919,105.27559392,109.912733176,23,5,7.466,20.997376,20.997376,19.796919,105.27559392,-16.77705,-10.513618,0,206.3, -21, -4.3,0,0,1684,918,1024,1024,100,-16,0,0,216.5,-4.2,0,35,3.735,3.731,0,0,0,0,4.788,99.5,20.997376,20.997376,31,Sport,
14600,2022-10-24 22:15:38,-34.9207502346006,-56.1476006542984,20.997376,20.997376,0,20.997376,24.934384,19.9982436,108.183074328,112.822510172,23,5,7.466,20.997376,20.997376,19.9982436,108.183074328,-17.000744,-10.513618,0,206.3, -20.5, -4,0,0,1684,914,1024,1024,100,-17,0,0,216.5,-4.2,0,35,3.735,3.731,0,0,0,0,4.788,99.5,20.997376,20.997376,31,Sport,
14700,2022-10-24 22:15:38,-34.9207574288838,-56.1476059293182,20.997376,20.997376,0,20.997376,24.934384,20.1771988,111.242457628,115.885174312,23,5,7.466,20.997376,20.997376,20.1771988,111.242457628,-17.224438,-10.513618,0,206.4, -20.6, -4,0,0,1684,914,1024,1024,100,-17,0,0,216.5,-4.2,0,35,3.735,3.731,0,0,0,0,4.788,99.5,20.997376,20.997376,31,Sport,
14800,2022-10-24 22:15:38,-34.9207643927617,-56.1476109428397,20.997376,20.997376,0,20.997376,24.934384,20.5574786,114.188980032,118.835633724,23,5,7.454,20.997376,20.997376,20.5574786,114.188980032,-17.671826,-10.513618,0,206.5, -20.4, -4.2,0,0,1684,911,1024,1024,100,-17,0,0,216.5,-4.2,0,35,3.73,3.72,0,0,0,0,4.903,99.68,20.997376,20.997376,31,Sport,
14900,2022-10-24 22:15:38,-34.9207717906916,-56.147616187079,20.997376,20.997376,0,20.997376,24.934384,20.7588032,117.305449948,121.957681068,23,5,7.454,20.997376,20.997376,20.7588032,117.305449948,-17.89552,-10.513618,0,206.4, -20.2, -4.1,0,0,1684,879,1024,1024,100,-22,0,0,216.5,-4.2,0,35,3.73,3.72,0,0,0,0,4.903,99.68,20.997376,20.997376,31,Sport,
15000,2022-10-24 22:15:38,-34.9207790168922,-56.1476212107143,20.997376,20.997376,0,20.997376,24.934384,20.7588032,120.333993352,124.992458068,23,5,7.454,20.997376,20.997376,20.7588032,120.333993352,-18.119214,-10.289924,0,206.6, -20.7, -4.4,0,0,1684,870,1024,1024,100,-23,0,0,216.5,-4.2,0,35,3.73,3.72,0,0,0,0,4.903,99.68,20.997376,20.997376,31,Sport,
15100,2022-10-24 22:15:38,-34.9207867305839,-56.1476264487474,20.997376,20.997376,0,20.997376,24.934384,21.027236,123.546263796,128.21358678,23,5,7.454,20.997376,20.997376,21.027236,123.546263796,-18.342908,-10.289924,0,206.6, -20.9, -5.5,0,0,1684,869,1024,1024,100,-23,0,0,216.5,-4.2,0,35,3.73,3.72,0,0,0,0,4.903,99.68,20.997376,20.997376,31,Sport,
15200,2022-10-24 22:15:38,-34.9207941756996,-56.147631407959,21.32546,21.32546,0,21.32546,24.934384,21.027236,126.631565732,131.308731236,23,5,7.454,21.32546,21.32546,21.027236,126.631565732,-18.790296,-10.289924,0,206.6, -20.5, -6.1,0,0,1684,868,1024,1024,100,-24,0,0,216.5,-4.2,0,35,3.73,3.72,0,0,0,0,4.903,99.68,21.32546,21.32546,31,Sport,
15300,2022-10-24 22:15:38,-34.9208021813648,-56.1476365716842,21.32546,21.32546,0,21.32546,24.934384,21.6088404,129.922248252,134.6128652,23,5,7.454,21.32546,21.32546,21.6088404,129.922248252,-19.01399,-10.289924,0,206.8, -20.3, -5.9,0,0,1684,866,1024,1024,100,-24,0,0,216.5,-4.2,0,35,3.73,3.72,0,0,0,0,4.903,99.68,21.32546,21.32546,31,Sport,
15400,2022-10-24 22:15:38,-34.9208100226483,-56.1476414095709,21.32546,21.32546,0,21.32546,24.934384,21.7206874,133.11024048,137.818902048,23,5,7.454,21.32546,21.32546,21.7206874,133.11024048,-19.237684,-10.06623,0,206.6, -19.5, -5.4,0,0,1684,866,1024,1024,100,-24,0,0,216.5,-4.2,0,35,3.73,3.72,0,0,0,0,4.903,99.68,21.32546,21.32546,31,Sport,
15500,2022-10-24 22:15:38,-34.9208182240395,-56.1476465108366,21.32546,21.32546,0,21.32546,24.934384,22.1009672,136.452432188,141.17782604,23,5,7.454,21.32546,21.32546,22.1009672,136.452432188,-19.685072,-10.06623,0,206.6, -20.3, -5.4,0,0,1684,866,1024,1024,100,-24,0,0,216.5,-4.2,0,35,3.73,3.72,0,0,0,0,4.903,99.68,21.32546,21.32546,31,Sport,
15600,2022-10-24 22:15:38,-34.9208265049247,-56.147651584519,21.32546,21.32546,0,21.32546,24.934384,22.1009672,139.815293188,144.559059744,23,5,7.454,21.32546,21.32546,22.1009672,139.815293188,-19.685072,-10.06623,0,206.6, -20.7, -5.7,0,0,1684,866,1024,1024,100,-24,0,0,216.5,-4.2,0,35,3.73,3.72,0,0,0,0,4.903,99.68,21.32546,21.32546,31,Sport,
15700,2022-10-24 22:15:39,-34.9208342345882,-56.1476562311613,21.32546,21.32546,0,21.32546,25.262468,22.2128142,142.940621372,147.703088716,23,5,7.454,21.32546,21.32546,22.2128142,142.940621372,-19.908766,-9.842536,0,206.6, -20.8, -5.6,0,0,1684,865,1024,1024,100,-24,0,0,216.5,-4.2,0,35,3.73,3.72,0,0,0,0,4.903,99.68,21.32546,21.32546,31,Sport,
15800,2022-10-24 22:15:39,-34.9208416819967,-56.1476606334612,21.32546,21.32546,0,21.32546,25.590552,22.4141388,145.940621468,150.722773852,23,5,7.454,21.32546,21.32546,22.4141388,145.940621468,-20.13246,-9.842536,0,206.6, -20.8, -5.6,0,0,1684,841,1024,1024,100,-28,0,0,216.5,-4.2,0,35,3.73,3.72,0,0,0,0,4.903,99.68,21.32546,21.32546,31,Sport,
15900,2022-10-24 22:15:39,-34.9208504961518,-56.1476657813051,21.32546,21.32546,0,21.32546,25.918636,22.6154634,149.482288248,154.288390764,23,5,7.454,21.32546,21.32546,22.6154634,149.482288248,-20.356154,-9.842536,0,206.7, -20.5, -5.9,0,0,1684,841,1024,1024,100,-28,0,0,216.5,-4.2,0,35,3.725,3.718,0,0,0,0,4.903,99.68,21.32546,21.32546,31,Sport,
16000,2022-10-24 22:15:39,-34.9208589575468,-56.1476706443929,21.32546,21.32546,0,21.32546,26.24672,22.816788,152.871067884,157.701120532,23,5,7.454,21.32546,21.32546,22.816788,152.871067884,-20.579848,-9.842536,0,206.6, -20, -6.4,0,0,1684,841,1024,1024,100,-28,0,0,216.5,-4.2,0,35,3.725,3.718,0,0,0,0,4.903,99.68,21.32546,21.32546,31,Sport,
16100,2022-10-24 22:15:39,-34.9208675469505,-56.1476754859574,21.32546,21.32546,0,21.32546,26.574804,22.928635,156.296921012,161.15322038,23,5,7.454,21.32546,21.32546,22.928635,156.296921012,-20.803542,-9.618842,0,206.7, -20.2, -6.4,0,0,1684,841,1024,1024,100,-28,0,0,216.5,-4.2,0,35,3.725,3.718,0,0,0,0,4.903,99.68,21.32546,21.32546,31,Sport,
16200,2022-10-24 22:15:39,-34.9208760243434,-56.1476802247739,21.32546,21.32546,0,21.32546,26.902888,23.1299596,159.673233456,164.555779544,23,5,7.454,21.32546,21.32546,23.1299596,159.673233456,-21.027236,-9.618842,0,206.6, -19.7, -6.6,0,0,1684,841,1024,1024,100,-28,0,0,216.5,-4.2,0,35,3.725,3.718,0,0,0,0,4.903,99.68,21.32546,21.32546,31,Sport,
16300,2022-10-24 22:15:39,-34.9208848388632,-56.1476850157898,21.32546,21.32546,0,21.32546,27.230972,23.3312842,163.163391048,168.076777032,23,5,7.454,21.32546,21.32546,23.3312842,163.163391048,-21.25093,-9.618842,0,206.8, -20.1, -6.4,0,0,1684,841,1024,1024,100,-28,0,0,216.5,-4.2,0,35,3.725,3.718,0,0,0,0,4.903,99.68,21.32546,21.32546,31,Sport,
16400,2022-10-24 22:15:39,-34.9208932912952,-56.1476895404385,21.32546,21.32546,0,21.32546,27.88714,23.2418066,166.500661496,171.444559292,22,5,7.454,21.32546,21.32546,23.3312842,166.500661496,-21.25093,-9.395148,0,206.7, -19.7, -6.4,0,0,1684,841,1024,1024,100,-28,0,0,216.5,-4.2,0,35,3.725,3.718,0,0,0,0,4.903,99.68,21.32546,21.32546,31,Sport,
16500,2022-10-24 22:15:39,-34.9209022133445,-56.1476942396145,21.32546,21.32546,0,21.32546,28.215224,23.3536536,170.012800716,174.99016308,22,5,7.454,21.32546,21.32546,23.3536536,170.012800716,-21.474624,-9.171454,0,206.6, -19.8, -6.2,0,0,1684,841,1024,1024,100,-28,0,0,216.5,-4.2,0,35,3.725,3.718,0,0,0,0,4.903,99.68,21.32546,21.32546,31,Sport,
16600,2022-10-24 22:15:39,-34.920910773827,-56.1476986810535,21.32546,21.32546,0,21.32546,28.543308,23.6444558,173.373365128,178.384520144,23,5,7.454,21.32546,21.32546,23.6444558,173.373365128,-21.698318,-9.395148,0,206.7, -19.8, -5.9,0,0,1684,841,1024,1024,100,-28,0,0,216.5,-4.2,0,35,3.725,3.718,0,0,0,0,4.903,99.68,21.32546,21.32546,31,Sport,
16700,2022-10-24 22:15:40,-34.9209197976215,-56.1477032706901,21.32546,21.32546,0,21.32546,29.199476,23.7563028,176.903220884,181.951449392,23,5,7.454,21.32546,21.32546,23.7563028,176.903220884,-21.922012,-9.171454,0,206.7, -20, -6.3,0,0,1684,841,1024,1024,100,-28,0,0,216.5,-4.2,0,35,3.725,3.718,0,0,0,0,4.903,99.68,21.32546,21.32546,31,Sport,
16800,2022-10-24 22:15:40,-34.9209284477336,-56.1477076192443,21.32546,21.32546,0,21.32546,29.52756,23.9799968,180.28051758,185.365163412,23,5,7.454,21.32546,21.32546,23.9799968,180.28051758,-22.145706,-9.171454,0,206.6, -18.7, -6.4,0,0,1684,840,1024,1024,100,-28,0,0,216.5,-4.2,0,35,3.725,3.718,0,0,0,0,4.903,99.68,21.32546,21.32546,31,Sport,
16900,2022-10-24 22:15:40,-34.92093782804,-56.147712286177,21.32546,21.32546,0,21.32546,30.183728,24.1813214,183.93701376,189.061357756,23,5,7.44,21.32546,21.32546,24.1813214,183.93701376,-22.3694,-9.171454,0,206.4, -18.3, -6.6,0,0,1684,839,1024,1024,100,-28,0,0,216.5,-4.2,0,35,3.723,3.716,0,0,0,0,5.212,99.68,21.32546,21.32546,31,Sport,
17000,2022-10-24 22:15:40,-34.9209468197085,-56.1477166993849,21.32546,21.32546,0,21.32546,30.183728,24.382646,187.434061116,192.597775192,23,5,7.44,21.32546,21.32546,24.382646,187.434061116,-22.593094,-9.171454,0,206.6, -18.5, -6.4,0,0,1684,840,1024,1024,100,-28,0,0,216.5,-4.2,0,35,3.723,3.716,0,0,0,0,5.212,99.68,21.32546,21.32546,31,Sport,
17100,2022-10-24 22:15:40,-34.9209564231508,-56.1477214870156,21.32546,21.32546,0,21.32546,30.183728,24.5839706,191.182092732,196.3828803,23,5,7.44,21.32546,21.32546,24.5839706,191.182092732,-22.816788,-9.171454,0,206.6, -18.3, -6.5,0,0,1684,838,1024,1024,100,-28,0,0,216.5,-4.2,0,35,3.723,3.716,0,0,0,0,5.212,99.68,21.32546,21.32546,31,Sport,
17200,2022-10-24 22:15:40,-34.9209654938705,-56.1477258919275,21.32546,21.32546,0,21.32546,30.183728,24.5168624,194.706042976,199.945216372,23,5,7.44,21.32546,21.32546,24.5839706,194.706042976,-22.816788,-8.94776,0,206.6, -17.5, -6.4,0,0,1684,793,1024,1024,100,-35,0,0,216.5,-4.2,0,35,3.723,3.716,0,0,0,0,5.212,99.68,21.32546,21.32546,31,Sport,
17300,2022-10-24 22:15:40,-34.9209750047651,-56.14773045093,21.32546,21.32546,0,21.32546,30.183728,24.5168624,198.393379052,203.673562948,23,5,7.44,21.32546,21.32546,24.5839706,198.393379052,-22.816788,-8.94776,0,206.6, -17.8, -6.9,0,0,1684,803,1024,1024,100,-33,0,0,216.5,-4.2,0,35,3.723,3.716,0,0,0,0,5.212,99.68,21.32546,21.32546,31,Sport,
17400,2022-10-24 22:15:40,-34.9209845677699,-56.1477349951587,21.32546,21.32546,0,21.32546,30.183728,24.718187,202.09646316,207.41798564,23,5,7.44,21.32546,21.32546,24.718187,202.09646316,-23.040482,-8.94776,0,206.6, -17.3, -8.2,0,0,1684,803,1024,1024,100,-33,0,0,216.5,-4.2,0,35,3.723,3.716,0,0,0,0,5.212,99.68,21.32546,21.32546,31,Sport,
17500,2022-10-24 22:15:40,-34.9209931232759,-56.1477388355526,21.32546,21.32546,0,21.32546,30.183728,24.9195116,205.377631244,210.744101232,23,5,7.44,21.32546,21.32546,24.9195116,205.377631244,-23.264176,-8.94776,0,206.6, -17.1, -8.8,0,0,1684,848,1024,1024,100,-27,0,0,216.5,-4.2,0,35,3.723,3.716,0,0,0,0,5.212,99.68,21.32546,21.32546,31,Sport,
17600,2022-10-24 22:15:40,-34.9210026226542,-56.1477431320746,21.32546,21.32546,0,21.32546,30.183728,24.8524034,209.02723766,214.44062366,23,5,7.44,21.32546,21.32546,24.9195116,209.02723766,-23.264176,-8.724066,0,206.8, -17.5, -7.8,0,0,1684,856,1024,1024,100,-25,0,0,216.5,-4.2,0,35,3.723,3.716,0,0,0,0,5.212,99.68,21.32546,21.32546,31,Sport,
17700,2022-10-24 22:15:41,-34.921011806922,-56.1477472818199,21.32546,21.32546,0,21.32546,30.183728,25.053728,212.556437248,218.014114588,23,5,7.44,21.32546,21.32546,25.053728,212.556437248,-23.48787,-8.724066,0,206.8, -17.8, -6.8,0,0,1684,872,1024,1024,100,-23,0,0,216.5,-4.2,0,35,3.723,3.716,0,0,0,0,5.212,99.68,21.32546,21.32546,31,Sport,
17800,2022-10-24 22:15:41,-34.9210210486674,-56.1477514201556,21.32546,21.32546,0,21.32546,30.183728,24.9866198,216.10400954,221.60597822,23,5,7.44,21.32546,21.32546,25.053728,216.10400954,-23.48787,-8.500372,0,206.6, -17.9, -6.1,0,0,1684,872,1024,1024,100,-23,0,0,216.5,-4.2,0,35,3.723,3.716,0,0,0,0,5.212,99.68,21.32546,21.32546,31,Sport,
