time(millisecond),datetime(utc),latitude,longitude,height_above_takeoff(feet),height_above_ground_at_drone_location(feet),ground_elevation_at_drone_location(feet),altitude_above_seaLevel(feet),height_sonar(feet),speed(mph),distance(feet),mileage(feet),satellites,gpslevel,voltage(v),max_altitude(feet),max_ascent(feet),max_speed(mph),max_distance(feet), xSpeed(mph), ySpeed(mph), zSpeed(mph), compass_heading(degrees), pitch(degrees), roll(degrees),isPhoto,isVideo,rc_elevator,rc_aileron,rc_throttle,rc_rudder,rc_elevator(percent),rc_aileron(percent),rc_throttle(percent),rc_rudder(percent),gimbal_heading(degrees),gimbal_pitch(degrees),gimbal_roll(degrees),battery_percent,voltageCell1,voltageCell2,voltageCell3,voltageCell4,voltageCell5,voltageCell6,current(A),battery_temperature(f),altitude(feet),ascent(feet),flycStateRaw,flycState,message
0,2022-08-13 20:21:41,-34.9272863481281,-56.1654535855503,0,0,5.223429629092,5.223429629092,0.656168,0,0,0,25,5,0,5.223429629092,0,0,0,0,0,0,174.7, -3.6, 3.3,0,0,364,364,364,1684,-100,-100,-100,100,185.6,0,0,78,4.108,4.1,0,0,0,0,0,89.24,5.223429629092,0,6,P-GPS,"En vuelo Aeronave en Zona de altitud restringida (150). Vuela con precaución (Code: 190001)"
100,2022-08-13 20:21:41,-34.9272863438677,-56.165453627809,0,0,5.223429629092,5.223429629092,0.656168,0,0.0127361552632,0.0127361552632,25,5,0,5.223429629092,0,0,0.0127361552632,0,0,0,174.8, -3.6, 3.3,0,0,364,364,364,1684,-100,-100,-100,100,185.6,0,0,78,4.108,4.1,0,0,0,0,0,89.24,5.223429629092,0,41,Motors_Started,
200,2022-08-13 20:21:41,-34.9272863996427,-56.1654538657785,0,0,5.223429629092,5.223429629092,0.328084,0,0.085906498812,0.086771984404,25,5,0,5.223429629092,0,0,0.085906498812,0,0,0,174.7, -3.7, 3,0,0,364,364,364,1684,-100,-100,-100,100,185.5,0,0,78,4.108,4.1,0,0,0,0,0,89.24,5.223429629092,0,41,Motors_Started,
300,2022-08-13 20:21:41,-34.9272864171702,-56.1654539055098,0,0,5.223429629092,5.223429629092,0.328084,0,0.098969491356,0.100268375912,25,5,0,5.223429629092,0,0,0.098969491356,0,0,0,174.4, -3.5, 2.6,0,0,364,364,364,1684,-100,-100,-100,100,185.5,0,0,78,4.108,4.1,0,0,0,0,0,89.24,5.223429629092,0,41,Motors_Started,
400,2022-08-13 20:21:41,-34.927286436255,-56.1654539388639,0,0,5.223429629092,5.223429629092,0.328084,0,0.110470147892,0.112435042968,25,5,0,5.223429629092,0,0,0.110470147892,0,0,0,174.8, -3.5, 2.7,0,0,775,563,364,1684,-38,-70,-100,100,185.5,0,0,78,4.108,4.1,0,0,0,0,0,89.24,5.223429629092,0,41,Motors_Started,
500,2022-08-13 20:21:42,-34.9272864522962,-56.1654539617396,0,0,5.223429629092,5.223429629092,0.328084,0,0.118775266268,0.121439308348,25,5,0,5.223429629092,0,0,0.118775266268,0,0,0,174.5, -3.4, 2.8,0,0,1024,1024,1024,1024,0,0,0,0,185.4,0,0,78,4.108,4.1,0,0,0,0,0,89.24,5.223429629092,0,41,Motors_Started,"Setting new Return-To-Home altitude to 40m (131 ft). Data Recorder File Index is 46. Setting new Maximum Flight Altitude to 120m (394 ft)"
600,2022-08-13 20:21:42,-34.9272865085736,-56.1654539373116,0,0,5.223429629092,5.223429629092,0.328084,0,0.120410436924,0.143233600384,25,5,0,5.223429629092,0,0,0.120410436924,0,0,0,174.5, -3, 2.6,0,0,1024,1024,1024,1024,0,0,0,0,185.3,0,0,78,4.108,4.1,0,0,0,0,0,89.24,5.223429629092,0,41,Motors_Started,
700,2022-08-13 20:21:42,-34.9272865261634,-56.1654539244736,0,0,5.223429629092,5.223429629092,0.328084,0,0.120406828,0.150712603248,25,5,0,5.223429629092,0,0,0.120410436924,0,0,0,174.3, -3.2, 2.7,0,0,1024,1024,1024,1024,0,0,0,0,185.1,0,0,78,4.108,4.1,0,0,0,0,0,89.24,5.223429629092,0,41,Motors_Started,
800,2022-08-13 20:21:42,-34.9272865248004,-56.1654539783941,0,0,5.223429629092,5.223429629092,0.328084,0,0.134030188016,0.166849742872,25,5,0,5.223429629092,0,0,0.134030188016,0,0,0,174.1, -3.3, 2.8,0,0,1024,1024,1024,1024,0,0,0,0,185,0,0,78,4.108,4.1,0,0,0,0,0,89.24,5.223429629092,0,41,Motors_Started,
900,2022-08-13 20:21:42,-34.9272865238374,-56.1654540243786,0,0,5.223429629092,5.223429629092,0.328084,0,0.146085634596,0.180609585832,25,5,0,5.223429629092,0,0,0.146085634596,0,0,0,174.3, -3.4, 2.7,0,0,1024,1024,1024,1024,0,0,0,0,184.9,0,0,78,4.108,4.1,0,0,0,0,0,89.24,5.223429629092,0,41,Motors_Started,
1000,2022-08-13 20:21:42,-34.9272864916502,-56.1654540792566,0,0,5.223429629092,5.223429629092,0.328084,0,0.156692262232,0.200793313512,25,5,8.217,5.223429629092,0,0,0.156692262232,0,0,0,174.4, -3, 2.6,0,0,1024,1024,1024,1024,0,0,0,0,184.9,0,0,78,4.108,4.1,0,0,0,0,0.829,89.24,5.223429629092,0,41,Motors_Started,
1100,2022-08-13 20:21:42,-34.9272864550704,-56.1654541137091,0,0,5.223429629092,5.223429629092,0.328084,0,0.16273622568,0.217655518776,25,5,8.217,5.223429629092,0,0,0.16273622568,0,0,0,174.4, -2.7, 2.5,0,0,1024,1024,1024,1024,0,0,0,0,185,0,0,78,4.108,4.1,0,0,0,0,0.829,89.24,5.223429629092,0,41,Motors_Started,
1200,2022-08-13 20:21:42,-34.9272864351892,-56.1654541731246,0,0,5.223429629092,5.223429629092,0.328084,0,0.178609585768,0.236851713616,25,5,8.217,5.223429629092,0,0,0.178609585768,0,0,0,173.3, -3.3, 2.6,0,0,1024,1024,1024,1024,0,0,0,0,184.7,0,0,78,4.108,4.1,0,0,0,0,0.829,89.24,5.223429629092,0,10,Assisted_Takeoff,
1300,2022-08-13 20:21:42,-34.9272864338665,-56.1654542057049,0,0,5.223429629092,5.223429629092,0.328084,0,0.188127302608,0.246609587944,25,5,8.217,5.223429629092,0,0,0.188127302608,0,0,0,172.4, -3.8, 2.7,0,0,1024,1024,1024,1024,0,0,0,0,183.7,0,0,78,4.108,4.1,0,0,0,0,0.829,89.24,5.223429629092,0,10,Assisted_Takeoff,
1400,2022-08-13 20:21:42,-34.9272864129487,-56.165454292687,0,0,5.223429629092,5.223429629092,0.328084,0,0.212845479252,0.273724746292,25,5,8.217,5.223429629092,0,0,0.212845479252,0,0,0,173.3, -3.5, 2.6,0,0,1024,1024,1024,1024,0,0,0,0,183.5,0,0,78,4.108,4.1,0,0,0,0,0.829,89.24,5.223429629092,0,10,Assisted_Takeoff,
1500,2022-08-13 20:21:43,-34.9272864145755,-56.1654543069095,-0.328084,-0.328084,5.223429629092,4.895345629092,0.328084,0,0.217139442644,0.278020350104,25,5,8.217,5.223429629092,0,0,0.217139442644,0,0,0,173.1, -3.7, 2.5,0,0,1024,1024,1024,1024,0,0,0,0,183.8,0,0,78,4.108,4.1,0,0,0,0,0.829,89.24,4.895345629092,-0.328084,10,Assisted_Takeoff,
1600,2022-08-13 20:21:43,-34.9272864446675,-56.1654543149422,-0.328084,-0.328084,5.223429629092,4.895345629092,0.328084,0,0.221009521508,0.289259523692,25,5,8.217,5.223429629092,0,0,0.221009521508,0,0,0,174.2, -4.2, 2.2,0,0,1024,1024,1024,1024,0,0,0,0,184.4,0,0,78,4.108,4.1,0,0,0,0,0.829,89.24,4.895345629092,-0.328084,10,Assisted_Takeoff,
1700,2022-08-13 20:21:43,-34.9272864649443,-56.1654543394094,-0.328084,-0.328084,5.223429629092,4.895345629092,0.328084,0,0.229496070336,0.299666020088,25,5,8.217,5.223429629092,0,0,0.229496070336,0,0,0,174.8, -4.1, 2.6,0,0,1024,1024,1024,1024,0,0,0,0,185.2,0,0,78,4.108,4.1,0,0,0,0,0.829,89.24,4.895345629092,-0.328084,10,Assisted_Takeoff,
1800,2022-08-13 20:21:43,-34.9272864845935,-56.1654543930276,-0.328084,-0.328084,5.223429629092,4.895345629092,0.328084,0,0.2466207428,0.31723426212,25,5,8.217,5.223429629092,0,0,0.2466207428,0,0,0,175.2, -4.6, 2.8,0,0,1024,1024,1024,1024,0,0,0,0,185.5,0,0,78,4.108,4.1,0,0,0,0,0.829,89.24,4.895345629092,-0.328084,10,Assisted_Takeoff,
1900,2022-08-13 20:21:43,-34.9272865691751,-56.1654544971978,-0.328084,-0.328084,5.223429629092,4.895345629092,0.328084,0,0.284378946108,0.3610892504,25,5,8.217,5.223429629092,0,0,0.284378946108,0,0,0,175.4, -4.8, 2.2,0,0,1024,1024,1024,1024,0,0,0,0,185.7,0,0,78,4.108,4.1,0,0,0,0,0.829,89.24,4.895345629092,-0.328084,10,Assisted_Takeoff,
2000,2022-08-13 20:21:43,-34.9272865739853,-56.1654545133775,-0.328084,-0.328084,5.223429629092,4.895345629092,0.328084,0,0.289518053884,0.36623688836,25,5,8.211,5.223429629092,0,0,0.289518053884,0,0,0,175.5, -4, 2.4,0,0,1024,1024,1024,1024,0,0,0,0,186.1,0,0,78,4.113,4.105,0,0,0,0,1.42,89.42,4.895345629092,-0.328084,10,Assisted_Takeoff,
2100,2022-08-13 20:21:43,-34.927286569212,-56.1654545329572,-0.328084,-0.328084,5.223429629092,4.895345629092,0.328084,0,0.294655849324,0.37234909328,25,5,8.211,5.223429629092,0,0,0.294655849324,0,0,0,174.3, -4.3, 2.4,0,0,1024,1024,1024,1024,0,0,0,0,185.8,0,0,78,4.113,4.105,0,0,0,0,1.42,89.42,4.895345629092,-0.328084,10,Assisted_Takeoff,
2200,2022-08-13 20:21:43,-34.9272865712968,-56.1654545810634,-0.328084,-0.328084,5.223429629092,4.895345629092,0.328084,0,0.308721138488,0.38675854256,25,5,8.211,5.223429629092,0,0,0.308721138488,0,0,0,174.5, -4.5, 0.7,0,0,1024,1024,1024,1024,0,0,0,0,185.1,0,0,78,4.113,4.105,0,0,0,0,1.42,89.42,4.895345629092,-0.328084,10,Assisted_Takeoff,
2300,2022-08-13 20:21:43,-34.9272865313981,-56.1654545819706,-0.328084,-0.328084,5.223429629092,4.895345629092,0.328084,0,0.305469826048,0.40131891048,25,5,8.211,5.223429629092,0,0,0.308721138488,0,0,0,172.7, -6, 0.5,0,0,1024,1024,1024,1024,0,0,0,0,184.6,0,0,78,4.113,4.105,0,0,0,0,1.42,89.42,4.895345629092,-0.328084,10,Assisted_Takeoff,
2400,2022-08-13 20:21:43,-34.9272865660648,-56.165454588097,-0.328084,-0.328084,5.223429629092,4.895345629092,0.328084,0,0.310256571608,0.41409778228,25,5,8.211,5.223429629092,0,0,0.310256571608,0,0,0,173.3, -6.4, 0.7,0,0,1024,1024,1024,1024,0,0,0,0,183.4,0,0,78,4.113,4.105,0,0,0,0,1.42,89.42,4.895345629092,-0.328084,10,Assisted_Takeoff,
2500,2022-08-13 20:21:44,-34.9272865841625,-56.1654546026277,-0.328084,-0.328084,5.223429629092,4.895345629092,0.328084,0,0.316193907756,0.42200460668,25,5,8.211,5.223429629092,0,0,0.316193907756,0,0,0,173.7, -6.5, 1.7,0,0,1024,1024,1024,1024,0,0,0,0,184,0,0,78,4.113,4.105,0,0,0,0,1.42,89.42,4.895345629092,-0.328084,10,Assisted_Takeoff,
2600,2022-08-13 20:21:44,-34.9272865944492,-56.1654546471186,-0.328084,-0.328084,5.223429629092,4.895345629092,0.328084,0,0.33002297644,0.43583006644,25,5,8.211,5.223429629092,0,0,0.33002297644,0,0,0,173.4, -6.7, 2.9,0,0,1024,1024,1024,1024,0,0,0,0,184.1,0,0,78,4.113,4.105,0,0,0,0,1.42,89.42,4.895345629092,-0.328084,10,Assisted_Takeoff,
2700,2022-08-13 20:21:44,-34.9272866042638,-56.1654547531814,-0.328084,-0.328084,5.223429629092,4.895345629092,0.328084,0,0.36156169136,0.46775920132,25,5,8.211,5.223429629092,0,0,0.36156169136,0,0,0,174.6, -4.9, 3.3,0,0,1024,1024,1024,1024,0,0,0,0,184.4,0,0,78,4.113,4.105,0,0,0,0,1.42,89.42,4.895345629092,-0.328084,10,Assisted_Takeoff,
2800,2022-08-13 20:21:44,-34.9272865953218,-56.1654547584941,-0.328084,-0.328084,5.223429629092,4.895345629092,0.328084,0,0.3622703528,0.47138781036,25,5,8.211,5.223429629092,0,0,0.3622703528,0,0,0,175.5, -5.3, 3.6,0,0,1024,1024,1024,1024,0,0,0,0,185.7,0,0,78,4.113,4.105,0,0,0,0,1.42,89.42,4.895345629092,-0.328084,10,Assisted_Takeoff,
2900,2022-08-13 20:21:44,-34.9272865887871,-56.1654547187452,-0.328084,-0.328084,5.223429629092,4.895345629092,0.328084,0,0.3501640532,0.483513795,25,5,8.211,5.223429629092,0,0,0.3622703528,0,0,0.223694,175.1, -6.3, 3.6,0,0,1024,1024,1024,1024,0,0,0,0,186.1,0,0,78,4.113,4.105,0,0,0,0,1.42,89.42,4.895345629092,-0.328084,10,Assisted_Takeoff,
3000,2022-08-13 20:21:44,-34.9272866334763,-56.1654546493717,-0.328084,-0.328084,5.223429629092,4.895345629092,0.328084,0,0.33481956452,0.50990487196,25,5,8.215,5.223429629092,0,0,0.3622703528,0,0,0.671082,174.3, -7.8, 4.7,0,0,1024,1024,1024,1024,0,0,0,0,186.1,0,0,78,4.111,4.106,0,0,0,0,1.082,89.24,4.895345629092,-0.328084,6,P-GPS,
3100,2022-08-13 20:21:44,-34.9272867124157,-56.1654545604592,-0.656168,-0.656168,5.223429629092,4.567261629092,0,0.223694,0.320486230728,0.54911090996,25,5,8.215,5.223429629092,0,0.223694,0.3622703528,-0.223694,0,0.447388,173.4, -9.7, 6.5,0,0,1024,1024,1024,1024,0,0,0,0,186.1,0,0,78,4.111,4.106,0,0,0,0,1.082,89.24,4.567261629092,-0.656168,6,P-GPS,
3200,2022-08-13 20:21:44,-34.9272871286873,-56.1654548837578,-0.328084,-0.328084,5.223429629092,4.895345629092,0.328084,2.908022,0.48156825688,0.72916340916,25,5,8.215,5.223429629092,0,2.908022,0.48156825688,-2.460634,-1.565858,-3.35541,173.6, -15.8, 7.9,0,0,1024,1024,1024,1024,0,0,0,0,186.1,0,0,78,4.111,4.106,0,0,0,0,1.082,89.24,4.895345629092,-0.328084,6,P-GPS,
3300,2022-08-13 20:21:44,-34.9272884322962,-56.1654559533615,0.328084,0.3608924,5.190621229092,5.551513629092,0.984252,3.7133204,1.03917982328,1.30238521228,24,5,8.215,5.551513629092,0.328084,3.7133204,1.03917982328,-3.131716,-2.013246,-6.039738,174.3, -22.7, -1.3,0,0,1024,1024,1024,1024,0,0,0,0,186.1,0,0,78,4.111,4.106,0,0,0,0,1.082,89.24,5.551513629092,0.328084,6,P-GPS,
3400,2022-08-13 20:21:44,-34.9272898274043,-56.1654570224917,0.984252,1.0170604,5.190621229092,6.207681629092,1.64042,3.914645,1.63352367432,1.90352368296,24,5,8.215,6.207681629092,0.984252,3.914645,1.63352367432,-3.35541,-2.013246,-4.47388,172.1, 3.7, -9.3,0,0,1024,1024,1024,1024,0,0,0,0,186.1,0,0,78,4.111,4.106,0,0,0,0,1.082,89.24,6.207681629092,0.984252,6,P-GPS,
3500,2022-08-13 20:21:45,-34.927291139549,-56.1654580141386,1.64042,1.7060368,5.157812829092,6.863849629092,2.296588,3.7133204,2.19338589696,2.46670939652,25,5,8.215,6.863849629092,1.64042,3.914645,2.19338589696,-3.131716,-2.013246,-2.908022,169.2, 21.9, -12.6,0,0,1024,1024,1024,1024,0,0,0,0,186.1,0,0,78,4.111,4.106,0,0,0,0,1.082,89.24,6.863849629092,1.64042,6,P-GPS,
3600,2022-08-13 20:21:45,-34.9272923873513,-56.1654588979765,1.64042,1.7060368,5.157812829092,6.863849629092,2.624672,3.4225182,2.71667003444,2.99316938712,25,5,8.215,6.863849629092,1.64042,3.914645,2.71667003444,-2.908022,-1.789552,-1.789552,171.2, 16.6, -13.2,0,0,1024,1024,1024,1024,0,0,0,0,186.1,0,0,78,4.111,4.106,0,0,0,0,1.082,89.24,6.863849629092,1.64042,6,P-GPS,
3700,2022-08-13 20:21:45,-34.9272934527048,-56.1654597462972,1.968504,2.0341208,5.157812829092,7.191933629092,2.624672,2.6172198,3.18043973432,3.457349192,24,5,8.215,7.191933629092,1.968504,3.914645,3.18043973432,-2.23694,-1.342164,0,172.2, 16.5, -12.8,0,0,1024,1024,1024,1024,0,0,0,0,186.1,0,0,78,4.111,4.106,0,0,0,0,1.082,89.24,7.191933629092,1.968504,6,P-GPS,
3800,2022-08-13 20:21:45,-34.9272946849076,-56.1654610153204,1.64042,1.7388452,5.125004429092,6.863849629092,3.608924,2.1027236,3.7671261048,4.045767846,24,5,8.215,7.191933629092,1.968504,3.914645,3.7671261048,-1.789552,-1.11847,0.671082,173, 15.7, -12.8,0,0,1024,1024,1024,1024,0,0,0,0,186.1,0,0,78,4.111,4.106,0,0,0,0,1.082,89.24,6.863849629092,1.64042,6,P-GPS,
3900,2022-08-13 20:21:45,-34.9272956506038,-56.1654621147614,1.64042,1.7716536,5.092196029092,6.863849629092,3.608924,1.5882274,4.2460303196,4.527723242,24,5,8.215,7.191933629092,1.968504,3.914645,4.2460303196,-1.11847,-1.11847,0.894776,174.1, 12.7, -10.9,0,0,1024,1024,1024,1024,0,0,0,0,186.1,0,0,78,4.111,4.106,0,0,0,0,1.082,89.24,6.863849629092,1.64042,6,P-GPS,
4000,2022-08-13 20:21:45,-34.9272962797621,-56.1654637951103,1.64042,1.7716536,5.092196029092,6.863849629092,3.28084,0.9395148,4.7388781044,5.0803151232,24,5,8.166,7.191933629092,1.968504,3.914645,4.7388781044,-0.671082,-0.671082,0.671082,175.3, 7.8, -8,0,0,1024,1024,1024,1024,0,0,0,0,186.1,0,0,78,4.087,4.069,0,0,0,0,1.861,89.42,6.863849629092,1.64042,6,P-GPS,
4100,2022-08-13 20:21:45,-34.9272964843806,-56.1654645556796,1.64042,1.7716536,5.092196029092,6.863849629092,3.28084,0.6263432,4.9441930716,5.3197508264,25,5,8.166,7.191933629092,1.968504,3.914645,4.9441930716,-0.447388,-0.447388,0.671082,175.9, 4.4, -5.8,0,0,1024,1024,1024,1024,0,0,0,0,186.1,0,0,78,4.087,4.069,0,0,0,0,1.861,89.42,6.863849629092,1.64042,6,P-GPS,
4200,2022-08-13 20:21:45,-34.9272962817199,-56.1654649702236,1.64042,1.7716536,5.092196029092,6.863849629092,3.28084,0.447388,4.9732285056,5.4641405948,25,5,8.166,7.191933629092,1.968504,3.914645,4.9732285056,0,-0.447388,0.447388,176.1, 2.6, -4.5,0,0,1024,1024,1024,1024,0,0,0,0,186.1,0,0,78,4.087,4.069,0,0,0,0,1.861,89.42,6.863849629092,1.64042,6,P-GPS,
4300,2022-08-13 20:21:45,-34.9272960065707,-56.1654652886242,1.64042,1.7716536,5.092196029092,6.863849629092,3.28084,0.223694,4.96719176,5.602526426,25,5,8.166,7.191933629092,1.968504,3.914645,4.9732285056,0,-0.223694,0,176.1, 1.6, -3.8,0,0,1024,1024,1024,1024,0,0,0,0,186.1,0,0,78,4.087,4.069,0,0,0,0,1.861,89.42,6.863849629092,1.64042,6,P-GPS,
4400,2022-08-13 20:21:45,-34.9272940604148,-56.1654645129037,1.64042,1.7388452,5.125004429092,6.863849629092,3.28084,0,4.3130250724,6.3495408856,25,5,8.166,7.191933629092,1.968504,3.914645,4.9732285056,0,0,0,176.5, 0.5, -3,0,0,1024,1024,1024,1024,0,0,0,0,186.1,0,0,78,4.087,4.069,0,0,0,0,1.861,89.42,6.863849629092,1.64042,6,P-GPS,
4500,2022-08-13 20:21:46,-34.9272935517577,-56.1654644567072,1.64042,1.7388452,5.125004429092,6.863849629092,3.28084,0,4.1812337296,6.5358597892,25,5,8.166,7.191933629092,1.968504,3.914645,4.9732285056,0,0,0,176.9, 0.1, -2.7,0,0,1024,1024,1024,1024,0,0,0,0,186.1,0,0,78,4.087,4.069,0,0,0,0,1.861,89.42,6.863849629092,1.64042,6,P-GPS,
4600,2022-08-13 20:21:46,-34.9272931140794,-56.1654642432885,1.64042,1.7060368,5.157812829092,6.863849629092,3.28084,0,4.0320539348,6.707841422,25,5,8.166,7.191933629092,1.968504,3.914645,4.9732285056,0,0,-0.223694,177.2, -0.3, -2.2,0,0,1024,1024,1024,1024,0,0,0,0,186.1,0,0,78,4.087,4.069,0,0,0,0,1.861,89.42,6.863849629092,1.64042,6,P-GPS,
4700,2022-08-13 20:21:46,-34.9272927041604,-56.1654640130364,1.64042,1.7060368,5.157812829092,6.863849629092,3.28084,0,3.8867783396,6.8725067816,25,5,8.166,7.191933629092,1.968504,3.914645,4.9732285056,0,0,-0.223694,177.6, -0.7, -1.6,0,0,1024,1024,1024,1024,0,0,0,0,186.1,0,0,78,4.087,4.069,0,0,0,0,1.861,89.42,6.863849629092,1.64042,6,P-GPS,
4800,2022-08-13 20:21:46,-34.9272923571117,-56.165463108476,1.64042,1.7060368,5.157812829092,6.863849629092,3.28084,0,3.5945867292,7.171260072,25,5,8.166,7.191933629092,1.968504,3.914645,4.9732285056,0,0,0,177.9, -0.6, -1.5,0,0,1024,1024,1024,1024,0,0,0,0,186.1,0,0,78,4.087,4.069,0,0,0,0,1.861,89.42,6.863849629092,1.64042,6,P-GPS,
4900,2022-08-13 20:21:46,-34.9272921896569,-56.1654629940755,1.64042,1.7060368,5.157812829092,6.863849629092,3.28084,0,3.5303150736,7.2412731976,25,5,8.166,7.191933629092,1.968504,3.914645,4.9732285056,0,0,0,178.2, -1, -1.6,0,0,1024,1024,1024,1024,0,0,0,0,186.1,0,0,78,4.087,4.069,0,0,0,0,1.861,89.42,6.863849629092,1.64042,6,P-GPS,
5000,2022-08-13 20:21:46,-34.9272921215194,-56.1654629751509,1.64042,1.7060368,5.157812829092,6.863849629092,3.608924,0,3.510826884,7.2667653244,25,5,8.166,7.191933629092,1.968504,3.914645,4.9732285056,0,0,0,178.5, -0.9, -1.9,0,0,1024,1024,1024,1024,0,0,0,0,186.1,0,0,78,4.087,4.069,0,0,0,0,1.861,89.42,6.863849629092,1.64042,6,P-GPS,
5100,2022-08-13 20:21:46,-34.9272920765495,-56.1654629579687,1.64042,1.7060368,5.157812829092,6.863849629092,3.608924,0,3.496883314,7.283956926,25,5,8.095,7.191933629092,1.968504,3.914645,4.9732285056,0,0,0,178.7, -0.6, -1.9,0,0,1024,1024,1024,1024,0,0,0,0,186.1,0,0,78,4.056,4.046,0,0,0,0,3.869,89.42,6.863849629092,1.64042,6,P-GPS,
5200,2022-08-13 20:21:46,-34.9272921208662,-56.1654629921464,1.64042,1.7060368,5.157812829092,6.863849629092,3.608924,0,3.514763892,7.3030842232,25,5,8.095,7.191933629092,1.968504,3.914645,4.9732285056,0,0,0,178.9, -0.4, -1.9,0,0,1024,1024,1024,1024,0,0,0,0,186.1,0,0,78,4.056,4.046,0,0,0,0,3.869,89.42,6.863849629092,1.64042,6,P-GPS,"Punto de origen actualizado. Altitud de RPO establecida en 40m (Code: 3000001)"
5300,2022-08-13 20:21:46,-34.9272926888636,-56.1654632245262,1.64042,1.7060368,5.157812829092,6.863849629092,3.608924,0,3.69668647,7.5216865924,25,5,8.095,7.191933629092,1.968504,3.914645,4.9732285056,0,0,0,179.2, -0.4, -2.2,0,0,1024,1024,1024,1024,0,0,0,0,186.1,0,0,78,4.056,4.046,0,0,0,0,3.869,89.42,6.863849629092,1.64042,6,P-GPS,
5400,2022-08-13 20:21:46,-34.9272927436803,-56.1654632737518,1.64042,1.7060368,5.157812829092,6.863849629092,3.608924,0,3.7207022188,7.5465225512,25,5,8.095,7.191933629092,1.968504,3.914645,4.9732285056,0,0,0,179.4, -0.3, -2.2,0,0,1024,1024,1024,1024,0,0,0,0,186.1,0,0,78,4.056,4.046,0,0,0,0,3.869,89.42,6.863849629092,1.64042,6,P-GPS,
5500,2022-08-13 20:21:46,-34.927292802289,-56.1654633142708,1.64042,1.7060368,5.157812829092,6.863849629092,3.608924,0,3.7435696736,7.5710960428,25,5,8.095,7.191933629092,1.968504,3.914645,4.9732285056,0,0,0,179.6, -0.2, -1.9,0,0,1024,1024,1024,1024,0,0,0,0,186.1,0,0,78,4.056,4.046,0,0,0,0,3.869,89.42,6.863849629092,1.64042,6,P-GPS,
5600,2022-08-13 20:21:47,-34.9272928677046,-56.165463397772,1.64042,1.7060368,5.157812829092,6.863849629092,3.608924,0,3.7779856852,7.605643288,25,5,8.095,7.191933629092,1.968504,3.914645,4.9732285056,0,0,0,179.8, -0.2, -1.9,0,0,1024,1024,1024,1024,0,0,0,0,186.1,0,0,78,4.056,4.046,0,0,0,0,3.869,89.42,6.863849629092,1.64042,6,P-GPS,
5700,2022-08-13 20:21:47,-34.9272932546787,-56.1654637886841,1.64042,1.7060368,5.157812829092,6.863849629092,3.608924,0,3.9578741424,7.7889766272,25,5,8.095,7.191933629092,1.968504,3.914645,4.9732285056,0,0,0,179.9, 0, -2.2,0,0,1024,1024,1024,1024,0,0,0,0,186.1,0,0,78,4.056,4.046,0,0,0,0,3.869,89.42,6.863849629092,1.64042,6,P-GPS,
5800,2022-08-13 20:21:47,-34.9272932864871,-56.1654638253395,1.64042,1.7060368,5.157812829092,6.863849629092,3.608924,0,3.9737205996,7.8049215096,25,5,8.095,7.191933629092,1.968504,3.914645,4.9732285056,0,0,0,180.2, 0.1, -2.3,0,0,1024,1024,1024,1024,0,0,0,0,186.1,0,0,78,4.056,4.046,0,0,0,0,3.869,89.42,6.863849629092,1.64042,6,P-GPS,
5900,2022-08-13 20:21:47,-34.9272933130356,-56.1654638525293,1.64042,1.7060368,5.157812829092,6.863849629092,3.608924,0,3.9861877916,7.817585552,25,5,8.095,7.191933629092,1.968504,3.914645,4.9732285056,0,0,0,180.4, 0, -2.4,0,0,1024,1024,1024,1024,0,0,0,0,186.1,0,0,78,4.056,4.046,0,0,0,0,3.869,89.42,6.863849629092,1.64042,6,P-GPS,
6000,2022-08-13 20:21:47,-34.9272933096732,-56.1654638634943,1.64042,1.7060368,5.157812829092,6.863849629092,3.608924,0,3.9879266368,7.8210632424,25,5,8.095,7.191933629092,1.968504,3.914645,4.9732285056,0,0,0,180.5, 0, -2.3,0,0,1024,1024,1024,1024,0,0,0,0,186.1,0,0,78,4.056,4.046,0,0,0,0,3.869,89.42,6.863849629092,1.64042,6,P-GPS,
6100,2022-08-13 20:21:47,-34.9272933388721,-56.1654639694258,1.64042,1.7060368,5.157812829092,6.863849629092,3.608924,0,4.0191602336,7.854495002,25,5,8.098,7.191933629092,1.968504,3.914645,4.9732285056,0,0,0,180.6, 0, -2.2,0,0,1024,1024,1024,1024,0,0,0,0,186.1,0,0,78,4.052,4.041,0,0,0,0,4.171,89.42,6.863849629092,1.64042,6,P-GPS,
6200,2022-08-13 20:21:47,-34.9272933642876,-56.1654639211902,1.64042,1.7060368,5.157812829092,6.863849629092,3.608924,0,4.0139108896,7.8716537952,25,5,8.098,7.191933629092,1.968504,3.914645,4.9732285056,0,0,0,180.7, 0.1, -2.3,0,0,1024,1024,1024,1024,0,0,0,0,186.1,0,0,78,4.052,4.041,0,0,0,0,4.171,89.42,6.863849629092,1.64042,6,P-GPS,
6300,2022-08-13 20:21:47,-34.9272933826357,-56.165463869112,1.64042,1.7060368,5.157812829092,6.863849629092,3.608924,0,4.006233724,7.888615738,25,5,8.098,7.191933629092,1.968504,3.914645,4.9732285056,0,0,0,180.8, -0.2, -2.3,0,0,1024,1024,1024,1024,0,0,0,0,186.1,0,0,78,4.052,4.041,0,0,0,0,4.171,89.42,6.863849629092,1.64042,6,P-GPS,
6400,2022-08-13 20:21:47,-34.9272933658452,-56.1654638506066,1.64042,1.7060368,5.157812829092,6.863849629092,3.608924,0,3.998031624,7.8968834548,25,5,8.098,7.191933629092,1.968504,3.914645,4.9732285056,0,0,0,180.9, 0.1, -2.1,0,0,1024,1024,1024,1024,0,0,0,0,186.1,0,0,78,4.052,4.041,0,0,0,0,4.171,89.42,6.863849629092,1.64042,6,P-GPS,
6500,2022-08-13 20:21:48,-34.9272933907339,-56.1654638498713,1.64042,1.7060368,5.157812829092,6.863849629092,3.608924,0,4.0037074772,7.9059385732,25,5,8.098,7.191933629092,1.968504,3.914645,4.9732285056,0,0,0,181, 0, -2.3,0,0,1024,1024,1024,1024,0,0,0,0,186.1,0,0,78,4.052,4.041,0,0,0,0,4.171,89.42,6.863849629092,1.64042,6,P-GPS,
6600,2022-08-13 20:21:48,-34.9272934606194,-56.1654638605072,1.64042,1.7060368,5.157812829092,6.863849629092,3.608924,0,4.0225394988,7.9316603588,25,5,8.098,7.191933629092,1.968504,3.914645,4.9732285056,0,0,0,181.2, 0, -2.4,0,0,1024,1024,1024,1024,0,0,0,0,186.1,0,0,78,4.052,4.041,0,0,0,0,4.171,89.42,6.863849629092,1.64042,6,P-GPS,
6700,2022-08-13 20:21:48,-34.9272935225829,-56.1654638623371,1.64042,1.7388452,5.125004429092,6.863849629092,3.608924,0,4.037565746,7.9542653464,25,5,8.098,7.191933629092,1.968504,3.914645,4.9732285056,0,0,0,181.3, -0.3, -1.9,0,0,1024,1024,1024,1024,0,0,0,0,186.1,0,0,78,4.052,4.041,0,0,0,0,4.171,89.42,6.863849629092,1.64042,6,P-GPS,
6800,2022-08-13 20:21:48,-34.9272935287641,-56.1654638397096,1.64042,1.7388452,5.125004429092,6.863849629092,3.608924,0,4.0338912052,7.9613847692,25,5,8.098,7.191933629092,1.968504,3.914645,4.9732285056,0,0,0,181.3, 0, -1.9,0,0,1024,1024,1024,1024,0,0,0,0,186.1,0,0,78,4.052,4.041,0,0,0,0,4.171,89.42,6.863849629092,1.64042,6,P-GPS,
6900,2022-08-13 20:21:48,-34.9272935333335,-56.1654638185345,1.64042,1.7388452,5.125004429092,6.863849629092,3.608924,0,4.0301510476,7.9679464492,25,5,8.098,7.191933629092,1.968504,3.914645,4.9732285056,0,0,0,181.4, 0, -2,0,0,1024,1024,1024,1024,0,0,0,0,186.1,0,0,78,4.052,4.041,0,0,0,0,4.171,89.42,6.863849629092,1.64042,6,P-GPS,
7000,2022-08-13 20:21:48,-34.9272937449808,-56.1654639556578,1.64042,1.7388452,5.125004429092,6.863849629092,3.608924,0,4.1116799216,8.0553808352,25,5,8.098,7.191933629092,1.968504,3.914645,4.9732285056,0,0,0,181.4, 0.3, -2.1,0,0,1024,1024,1024,1024,0,0,0,0,186.1,0,0,78,4.052,4.041,0,0,0,0,4.171,89.42,6.863849629092,1.64042,6,P-GPS,
7100,2022-08-13 20:21:48,-34.9272937688114,-56.1654639474044,1.64042,1.7388452,5.125004429092,6.863849629092,3.608924,0,4.1155185044,8.0644359536,25,5,8.088,7.191933629092,1.968504,3.914645,4.9732285056,0,0,0,181.5, 0.1, -2.4,0,0,1024,1024,1024,1024,0,0,0,0,186.1,0,0,78,4.048,4.038,0,0,0,0,4.228,89.42,6.863849629092,1.64042,6,P-GPS,
7200,2022-08-13 20:21:48,-34.9272938025955,-56.1654639975848,1.64042,1.7388452,5.125004429092,6.863849629092,3.608924,0,4.1349410772,8.0838585264,25,5,8.088,7.191933629092,1.968504,3.914645,4.9732285056,0,0,0,181.6, 0, -2.4,0,0,1024,1024,1024,1024,0,0,0,0,186.1,0,0,78,4.048,4.038,0,0,0,0,4.228,89.42,6.863849629092,1.64042,6,P-GPS,
7300,2022-08-13 20:21:48,-34.9272938326216,-56.1654640458726,1.64042,1.7388452,5.125004429092,6.863849629092,3.608924,0,4.1530185056,8.1019687632,25,5,8.088,7.191933629092,1.968504,3.914645,4.9732285056,0,0,0,181.6, 0, -2.5,0,0,1024,1024,1024,1024,0,0,0,0,186.1,0,0,78,4.048,4.038,0,0,0,0,4.228,89.42,6.863849629092,1.64042,6,P-GPS,
7400,2022-08-13 20:21:48,-34.927293975805,-56.1654642228148,1.64042,1.7388452,5.125004429092,6.863849629092,3.608924,0,4.2272639148,8.176345406,25,5,8.088,7.191933629092,1.968504,3.914645,4.9732285056,0,0,0,181.7, 0, -2.7,0,0,1024,1024,1073,1024,0,0,7,0,186.1,0,0,78,4.048,4.038,0,0,0,0,4.228,89.42,6.863849629092,1.64042,6,P-GPS,
7500,2022-08-13 20:21:49,-34.9272940002674,-56.165464238337,1.64042,1.7388452,5.125004429092,6.863849629092,3.608924,0,4.2366143088,8.1864175848,25,5,8.088,7.191933629092,1.968504,3.914645,4.9732285056,0,0,0,181.8, 0, -2.7,0,0,1024,1024,1073,1024,0,0,7,0,186.1,0,0,78,4.048,4.038,0,0,0,0,4.228,89.42,6.863849629092,1.64042,6,P-GPS,
7600,2022-08-13 20:21:49,-34.9272939773809,-56.1654642310853,1.968504,2.0669292,5.125004429092,7.191933629092,3.608924,0,4.229494886,8.195046194,25,5,8.088,7.191933629092,1.968504,3.914645,4.9732285056,0,0,0,181.8, -0.1, -2.8,0,0,1024,1024,1400,1024,0,0,57,0,186.1,0,0,78,4.048,4.038,0,0,0,0,4.228,89.42,7.191933629092,1.968504,6,P-GPS,
7700,2022-08-13 20:21:49,-34.9272939532148,-56.1654642186261,1.968504,2.0669292,5.125004429092,7.191933629092,3.608924,0,4.2208990852,8.2045934384,25,5,8.088,7.191933629092,1.968504,3.914645,4.9732285056,0,0,0,181.9, 0, -2.3,0,0,1024,1024,1684,1024,0,0,100,0,186.1,0,0,78,4.048,4.038,0,0,0,0,4.228,89.42,7.191933629092,1.968504,6,P-GPS,
7800,2022-08-13 20:21:49,-34.927293996599,-56.1654642948665,1.968504,2.0669292,5.125004429092,7.191933629092,3.608924,0,4.2484909496,8.2323493448,25,5,8.088,7.191933629092,1.968504,3.914645,4.9732285056,0,0,-0.671082,182, -0.3, -2.2,0,0,1024,1024,1684,1024,0,0,100,0,186.1,0,0,78,4.048,4.038,0,0,0,0,4.228,89.42,7.191933629092,1.968504,6,P-GPS,
7900,2022-08-13 20:21:49,-34.9272940268787,-56.1654643133353,2.296588,2.3950132,5.125004429092,7.520017629092,3.937008,0,4.2599082728,8.2447181116,25,5,8.088,7.520017629092,2.296588,3.914645,4.9732285056,0,0,-1.565858,181.9, 0.2, -2.3,0,0,1024,1024,1024,1024,0,0,0,0,186.1,0,0,78,4.048,4.038,0,0,0,0,4.228,89.42,7.520017629092,2.296588,6,P-GPS,
8000,2022-08-13 20:21:49,-34.9272940321153,-56.1654642860187,2.624672,2.7230972,5.125004429092,7.848101629092,4.265092,0,4.2550198212,8.253117062,25,5,8.088,7.848101629092,2.624672,3.914645,4.9732285056,0,0,-2.23694,181.9, -0.3, -2.8,0,0,1024,1024,1024,1024,0,0,0,0,186.1,0,0,78,4.048,4.038,0,0,0,0,4.228,89.42,7.848101629092,2.624672,6,P-GPS,
8100,2022-08-13 20:21:49,-34.9272940348422,-56.1654642467001,2.624672,2.7230972,5.125004429092,7.848101629092,4.593176,0,4.2468177212,8.264928086,25,5,8.082,7.848101629092,2.624672,3.914645,4.9732285056,0,0,-2.013246,181.8, 0.3, -3.1,0,0,1024,1024,1024,1024,0,0,0,0,186.1,0,0,77,4.015,4.005,0,0,0,0,4.214,89.42,7.848101629092,2.624672,6,P-GPS,
8200,2022-08-13 20:21:49,-34.9272940124315,-56.1654641818309,2.952756,3.0511812,5.125004429092,8.176185629092,4.593176,0,4.226870214,8.2859582704,25,5,8.082,8.176185629092,2.952756,3.914645,4.9732285056,0,0,-1.342164,181.9, 0, -2.9,0,0,1024,1024,1024,1024,0,0,0,0,186.1,0,0,77,4.015,4.005,0,0,0,0,4.214,89.42,8.176185629092,2.952756,6,P-GPS,
8300,2022-08-13 20:21:49,-34.9272939939263,-56.1654641296181,3.28084,3.3792652,5.125004429092,8.504269629092,4.92126,0,4.2106956728,8.30298583,24,5,8.082,8.504269629092,3.28084,3.914645,4.9732285056,0,0,-0.894776,182, 0.2, -2.3,0,0,1453,1024,1024,1024,65,0,0,0,186.1,0,0,77,4.015,4.005,0,0,0,0,4.214,89.42,8.504269629092,3.28084,6,P-GPS,
8400,2022-08-13 20:21:49,-34.9272939645715,-56.1654640829773,3.28084,3.3792652,5.125004429092,8.504269629092,4.92126,0,4.1931431788,8.3205711324,24,5,8.082,8.504269629092,3.28084,3.914645,4.9732285056,0,0,-0.447388,182, 0, -2,0,0,1684,1024,1024,1024,100,0,0,0,186.1,0,0,77,4.015,4.005,0,0,0,0,4.214,89.42,8.504269629092,3.28084,6,P-GPS,
8500,2022-08-13 20:21:50,-34.9272939337675,-56.1654640463846,3.28084,3.3792652,5.125004429092,8.504269629092,4.92126,0,4.177493572,8.3362535476,24,5,8.082,8.504269629092,3.28084,3.914645,4.9732285056,0,0,-0.223694,182.2, -5.2, -1.7,0,0,1684,1024,1024,1024,100,0,0,0,186.1,0,0,77,4.015,4.005,0,0,0,0,4.214,89.42,8.504269629092,3.28084,6,P-GPS,
8600,2022-08-13 20:21:50,-34.9272939175624,-56.1654640949912,3.28084,3.3792652,5.125004429092,8.504269629092,4.92126,0.223694,4.1844817612,8.3519687712,24,5,8.082,8.504269629092,3.28084,3.914645,4.9732285056,-0.223694,0,0,182.5, -15.8, -1.9,0,0,1684,1024,1024,1024,100,0,0,0,186.1,0,0,77,4.015,4.005,0,0,0,0,4.214,89.42,8.504269629092,3.28084,6,P-GPS,
8700,2022-08-13 20:21:50,-34.9272939842354,-56.165464286165,3.28084,3.3792652,5.125004429092,8.504269629092,4.92126,0.894776,4.2435368812,8.4141078808,25,5,8.082,8.504269629092,3.28084,3.914645,4.9732285056,-0.894776,0,0,182.6, -21.2, -2.2,0,0,1684,1024,1024,1024,100,0,0,0,186.1,0,0,77,4.015,4.005,0,0,0,0,4.214,89.42,8.504269629092,3.28084,6,P-GPS,
8800,2022-08-13 20:21:50,-34.9272945111877,-56.1654643609831,3.28084,3.3792652,5.125004429092,8.504269629092,4.92126,1.565858,4.3885828176,8.6076446324,25,5,8.082,8.504269629092,3.28084,3.914645,4.9732285056,-1.565858,0,0,182.6, -21.6, -2.1,0,0,1684,1024,1024,1024,100,0,0,0,186.1,0,0,77,4.015,4.005,0,0,0,0,4.214,89.42,8.504269629092,3.28084,6,P-GPS,
8900,2022-08-13 20:21:50,-34.9272953181953,-56.1654644517621,3.28084,3.3792652,5.125004429092,8.504269629092,4.92126,2.460634,4.6125985728,8.9033467416,25,5,8.082,8.504269629092,3.28084,3.914645,4.9732285056,-2.460634,0,0,182.5, -21, -2.6,0,0,1684,1024,1024,1024,100,0,0,0,186.1,0,0,77,4.015,4.005,0,0,0,0,4.214,89.42,8.504269629092,3.28084,6,P-GPS,
9000,2022-08-13 20:21:50,-34.9272965788023,-56.165464553241,3.28084,3.4120736,5.092196029092,8.504269629092,4.92126,3.131716,4.9695539648,9.3642719532,25,5,8.082,8.504269629092,3.28084,3.914645,4.9732285056,-3.131716,0,0,182.7, -20.7, -2.8,0,0,1684,1024,1024,1024,100,0,0,0,186.1,0,0,77,4.015,4.005,0,0,0,0,4.214,89.42,8.504269629092,3.28084,6,P-GPS,
9100,2022-08-13 20:21:50,-34.9272982396323,-56.1654647462474,3.28084,3.4120736,5.092196029092,8.504269629092,4.92126,4.026492,5.474409624,9.9729661984,25,5,8.085,8.504269629092,3.28084,4.026492,5.474409624,-4.026492,0,0,182.7, -20.5, -2.6,0,0,1684,1024,1024,1024,100,0,0,0,186.1,0,0,77,4.035,4.025,0,0,0,0,4.532,89.42,8.504269629092,3.28084,6,P-GPS,
9200,2022-08-13 20:21:50,-34.9273000924466,-56.1654647857802,3.28084,3.444882,5.059387629092,8.504269629092,4.92126,4.921268,6.030840088,10.6490817056,25,5,8.085,8.504269629092,3.28084,4.921268,6.030840088,-4.921268,-0.223694,0,182.7, -20.1, -2.6,0,0,1684,1024,1024,1024,100,0,0,0,186.1,0,0,77,4.035,4.025,0,0,0,0,4.532,89.42,8.504269629092,3.28084,6,P-GPS,
9300,2022-08-13 20:21:50,-34.9273021124744,-56.1654648350059,3.28084,3.4776904,5.026579229092,8.504269629092,4.92126,5.59235,6.6636813156,11.3862208368,25,5,8.085,8.504269629092,3.28084,5.59235,6.6636813156,-5.59235,-0.223694,0,182.6, -19.8, -2.7,0,0,1684,1024,1024,1024,100,0,0,0,186.1,0,0,77,4.035,4.025,0,0,0,0,4.532,89.42,8.504269629092,3.28084,6,P-GPS,
9400,2022-08-13 20:21:50,-34.9273046405425,-56.1654649839876,3.28084,3.5104988,4.993770829092,8.504269629092,4.92126,6.263432,7.4945212372,12.3096788716,25,5,8.085,8.504269629092,3.28084,6.263432,7.4945212372,-6.263432,-0.223694,0,182.7, -19.6, -2.5,0,0,1684,1024,1024,1024,100,0,0,0,186.1,0,0,77,4.035,4.025,0,0,0,0,4.532,89.42,8.504269629092,3.28084,6,P-GPS,
9500,2022-08-13 20:21:51,-34.9273077366103,-56.1654651038412,3.28084,3.5433072,4.960962429092,8.504269629092,4.92126,6.71082,8.5303808504,13.4398298264,25,5,8.085,8.504269629092,3.28084,6.71082,8.5303808504,-6.71082,-0.223694,0,182.7, -19.6, -2.5,0,0,1684,1024,1024,1024,100,0,0,0,186.1,0,0,77,4.035,4.025,0,0,0,0,4.532,89.42,8.504269629092,3.28084,6,P-GPS,
9600,2022-08-13 20:21:51,-34.9273107587434,-56.1654652747739,3.28084,3.5761156,4.928154029092,8.504269629092,4.92126,7.381902,9.5680121172,14.543635636,25,5,8.085,8.504269629092,3.28084,7.381902,9.5680121172,-7.381902,-0.223694,0,182.8, -19.6, -2.4,0,0,1684,1024,1024,1024,100,0,0,0,186.1,0,0,77,4.035,4.025,0,0,0,0,4.532,89.42,8.504269629092,3.28084,6,P-GPS,
9700,2022-08-13 20:21:51,-34.9273138381066,-56.1654654473837,3.28084,3.608924,4.895345629092,8.504269629092,4.92126,7.82929,10.6388454848,15.6683403964,25,5,8.085,8.504269629092,3.28084,7.82929,10.6388454848,-7.82929,-0.223694,0,182.8, -19.4, -2.5,0,0,1684,1024,1024,1024,100,0,0,0,186.1,0,0,77,4.035,4.025,0,0,0,0,4.532,89.42,8.504269629092,3.28084,6,P-GPS,
9800,2022-08-13 20:21:51,-34.9273171657114,-56.1654657131849,3.28084,3.6417324,4.862537229092,8.504269629092,4.92126,8.500372,11.8145344988,16.885007102,25,5,8.085,8.504269629092,3.28084,8.500372,11.8145344988,-8.500372,-0.223694,0,182.9, -19.3, -2.6,0,0,1609,1024,1024,1024,89,0,0,0,186.1,0,0,77,4.035,4.025,0,0,0,0,4.532,89.42,8.504269629092,3.28084,6,P-GPS,
9900,2022-08-13 20:21:51,-34.9273205576755,-56.1654659897435,3.28084,3.7073492,4.796920429092,8.504269629092,5.249344,8.94776,13.0211946424,18.125328664,25,5,8.085,8.504269629092,3.28084,8.94776,13.0211946424,-8.94776,-0.223694,0,182.8, -18.8, -2.2,0,0,1415,1024,1024,1024,59,0,0,0,186.1,0,0,77,4.035,4.025,0,0,0,0,4.532,89.42,8.504269629092,3.28084,6,P-GPS,
10000,2022-08-13 20:21:51,-34.9273246112439,-56.1654663537831,3.28084,3.7401576,4.764112029092,8.504269629092,5.249344,9.395148,14.4733272348,19.608268344,25,5,8.085,8.504269629092,3.28084,9.395148,14.4733272348,-9.395148,-0.223694,0,182.6, -14.4, -2.3,0,0,1390,1024,1024,1024,55,0,0,0,186.1,0,0,77,4.035,4.025,0,0,0,0,4.532,89.42,8.504269629092,3.28084,6,P-GPS,
10100,2022-08-13 20:21:51,-34.9273285629369,-56.1654666954982,3.28084,3.772966,4.731303629092,8.504269629092,5.249344,9.618842,15.8934716372,21.0536752144,24,5,8.056,8.504269629092,3.28084,9.618842,15.8934716372,-9.618842,-0.223694,0,182.5, -8.3, -2.2,0,0,1524,1024,1024,1024,76,0,0,0,186.1,0,0,77,4.03,4.019,0,0,0,0,4.558,89.42,8.504269629092,3.28084,6,P-GPS,
10200,2022-08-13 20:21:51,-34.9273324710754,-56.165466935566,3.28084,3.8385828,4.665686829092,8.504269629092,5.249344,9.618842,17.295276144,22.4813655488,24,5,8.056,8.504269629092,3.28084,9.618842,17.295276144,-9.618842,-0.223694,0,182.5, -7.5, -1.9,0,0,1618,1024,1024,1024,90,0,0,0,186.1,0,0,77,4.03,4.019,0,0,0,0,4.558,89.42,8.504269629092,3.28084,6,P-GPS,
10300,2022-08-13 20:21:51,-34.9273361883115,-56.1654671681561,3.28084,3.8713912,4.632878429092,8.504269629092,9.186352,9.618842,18.632546528,23.8393708416,24,5,8.056,8.504269629092,3.28084,9.618842,18.632546528,-9.618842,-0.447388,0,183.9, -11.5, -2,0,0,1622,1024,1024,1024,91,0,0,0,186.1,0,0,77,4.03,4.019,0,0,0,0,4.558,89.42,8.504269629092,3.28084,6,P-GPS,
10400,2022-08-13 20:21:51,-34.9273397966405,-56.1654675769713,3.28084,3.9041996,4.600070029092,8.504269629092,9.186352,9.842536,19.944718486,25.1615493616,24,5,8.056,8.504269629092,3.28084,9.842536,19.944718486,-9.842536,-0.447388,0,184.1, -16.1, -2,0,0,1622,1024,1024,1024,91,0,0,0,186.1,0,0,77,4.03,4.019,0,0,0,0,4.558,89.42,8.504269629092,3.28084,6,P-GPS,
10500,2022-08-13 20:21:51,-34.9273435799979,-56.1654678730044,3.28084,3.9698164,4.534453229092,8.504269629092,9.514436,9.842536,21.3139114432,26.5447186972,24,5,8.056,8.504269629092,3.28084,9.842536,21.3139114432,-9.618842,-0.447388,0,184.1, -17.8, -2.5,0,0,1622,1024,1024,1024,91,0,0,0,186.1,0,0,77,4.03,4.019,0,0,0,0,4.558,89.42,8.504269629092,3.28084,6,P-GPS,
10600,2022-08-13 20:21:52,-34.9273477244824,-56.1654682284,2.952756,3.6745408,4.501644829092,8.176185629092,9.514436,10.06623,22.8174876068,28.0605652024,24,5,8.056,8.504269629092,3.28084,10.06623,22.8174876068,-10.06623,-0.447388,0,184, -18.2, -2.2,0,0,1622,1024,1024,1024,91,0,0,0,186.1,0,0,77,4.03,4.019,0,0,0,0,4.558,89.42,8.176185629092,2.952756,6,P-GPS,
10700,2022-08-13 20:21:52,-34.9273518113362,-56.1654685708884,2.952756,3.7401576,4.436028029092,8.176185629092,9.84252,10.289924,24.3012146884,29.5551846728,24,5,8.056,8.504269629092,3.28084,10.289924,24.3012146884,-10.289924,-0.447388,0,183.9, -18.1, -2.1,0,0,1576,1024,1024,1024,84,0,0,0,186.1,0,0,77,4.03,4.019,0,0,0,0,4.558,89.42,8.176185629092,2.952756,6,P-GPS,
10800,2022-08-13 20:21:52,-34.9273558940667,-56.165468910532,2.952756,3.772966,4.403219629092,8.176185629092,9.84252,10.737312,25.7845808776,31.04822934,24,5,8.056,8.504269629092,3.28084,10.737312,25.7845808776,-10.737312,-0.447388,0,183.9, -17.5, -2.3,0,0,1477,1024,1024,1024,69,0,0,0,186.1,0,0,77,4.03,4.019,0,0,0,0,4.558,89.42,8.176185629092,2.952756,6,P-GPS,
10900,2022-08-13 20:21:52,-34.9273601831146,-56.1654692005489,2.952756,3.8385828,4.337602829092,8.176185629092,9.84252,10.961006,27.3406176728,32.615486608,23,5,8.056,8.504269629092,3.28084,10.961006,27.3406176728,-10.961006,-0.447388,0,184, -15.9, -1,0,0,1373,1024,1024,1024,53,0,0,0,186.1,0,0,77,4.03,4.019,0,0,0,0,4.558,89.42,8.176185629092,2.952756,6,P-GPS,
11000,2022-08-13 20:21:52,-34.927364824623,-56.1654695051463,2.952756,3.8713912,4.304794429092,8.176185629092,9.84252,11.1847,29.025427438,34.311352804,23,5,8.056,8.504269629092,3.28084,11.1847,29.025427438,-11.1847,-0.447388,0,183.9, -12.4, -1.5,0,0,1229,1024,1024,1024,31,0,0,0,186.1,0,0,77,4.03,4.019,0,0,0,0,4.558,89.42,8.176185629092,2.952756,6,P-GPS,
11100,2022-08-13 20:21:52,-34.9273692941481,-56.1654698103693,2.952756,3.937008,4.239177629092,8.176185629092,12.795276,11.4307634,30.6495088548,35.944554956,23,5,8.056,8.504269629092,3.28084,11.4307634,30.6495088548,-11.408394,-0.671082,0,183.7, -8.6, -1.8,0,0,1175,1024,1024,1024,23,0,0,0,186.1,0,0,77,4.03,4.019,0,0,0,0,4.558,89.42,8.176185629092,2.952756,6,P-GPS,
11200,2022-08-13 20:21:52,-34.9273741032363,-56.1654701899689,2.952756,4.0026248,4.173560829092,8.176185629092,12.795276,11.2070694,32.4003619292,37.702757112,23,5,8.064,8.504269629092,3.28084,11.4307634,32.4003619292,-11.1847,-0.671082,0,183.6, -4.6, -2.1,0,0,1370,1024,1024,1024,52,0,0,0,186.1,0,0,77,4.03,4.02,0,0,0,0,4.42,89.42,8.176185629092,2.952756,6,P-GPS,
11300,2022-08-13 20:21:52,-34.9273786026336,-56.1654705472519,2.952756,4.0354332,4.140752429092,8.176185629092,13.12336,10.9833754,34.039371168,39.348098372,23,5,8.064,8.504269629092,3.28084,11.4307634,34.039371168,-10.961006,-0.671082,0,183.5, -1.6, -2.3,0,0,1523,1024,1024,1024,76,0,0,0,186.1,0,0,77,4.03,4.02,0,0,0,0,4.42,89.42,8.176185629092,2.952756,6,P-GPS,
11400,2022-08-13 20:21:52,-34.9273831672207,-56.1654709684728,2.952756,4.10105,4.075135629092,8.176185629092,13.12336,10.5359874,35.705053636,41.018045932,23,5,8.064,8.504269629092,3.28084,11.4307634,35.705053636,-10.513618,-0.671082,0,183.4, -4, -2.8,0,0,1523,1024,1024,1024,76,0,0,0,186.1,0,0,77,4.03,4.02,0,0,0,0,4.42,89.42,8.176185629092,2.952756,6,P-GPS,
11500,2022-08-13 20:21:52,-34.9273874477877,-56.1654713676645,2.952756,4.1338584,4.042327229092,8.176185629092,13.12336,10.5359874,37.267717728,42.584318948,23,5,8.064,8.504269629092,3.28084,11.4307634,37.267717728,-10.513618,-0.671082,0,183.7, -10.2, -2.6,0,0,1502,1024,1024,1024,72,0,0,0,186.1,0,0,77,4.03,4.02,0,0,0,0,4.42,89.42,8.176185629092,2.952756,6,P-GPS,
11600,2022-08-13 20:21:53,-34.9273919522201,-56.1654717280613,2.952756,4.1994752,3.976710429092,8.176185629092,13.451444,10.7596814,38.909778148,44.231300628,23,5,8.064,8.504269629092,3.28084,11.4307634,38.909778148,-10.737312,-0.671082,0,183.9, -13.4, -2.5,0,0,1471,1024,1024,1024,68,0,0,0,186.1,0,0,77,4.03,4.02,0,0,0,0,4.42,89.42,8.176185629092,2.952756,6,P-GPS,
11700,2022-08-13 20:21:53,-34.9273962739867,-56.1654720506141,2.624672,3.937008,3.911093629092,7.848101629092,13.451444,10.7596814,40.484909432,45.811025088,24,5,8.064,8.504269629092,3.28084,11.4307634,40.484909432,-10.737312,-0.671082,0,184, -13.6, -2.1,0,0,1493,1024,1024,1024,71,0,0,0,186.1,0,0,77,4.03,4.02,0,0,0,0,4.42,89.42,7.848101629092,2.624672,6,P-GPS,
11800,2022-08-13 20:21:53,-34.9274007647989,-56.1654724339467,2.624672,3.9698164,3.878285229092,7.848101629092,13.451444,10.961006,42.124017096,47.453741676,24,5,8.064,8.504269629092,3.28084,11.4307634,42.124017096,-10.961006,-0.447388,0,184.1, -13.4, -2,0,0,1493,1024,1024,1024,71,0,0,0,186.1,0,0,77,4.03,4.02,0,0,0,0,4.42,89.42,7.848101629092,2.624672,6,P-GPS,
11900,2022-08-13 20:21:53,-34.927405082781,-56.165472790284,2.624672,4.0354332,3.812668429092,7.848101629092,13.779528,11.1847,43.699476464,49.032809968,24,5,8.064,8.504269629092,3.28084,11.4307634,43.699476464,-11.1847,-0.447388,0,184, -13.7, -1.8,0,0,1493,1024,1024,1024,71,0,0,0,186.1,0,0,77,4.03,4.02,0,0,0,0,4.42,89.42,7.848101629092,2.624672,6,P-GPS,
12000,2022-08-13 20:21:53,-34.9274096563115,-56.1654730909825,2.624672,4.10105,3.747051629092,7.848101629092,13.779528,11.408394,45.3658151,50.70374178,24,5,8.064,8.504269629092,3.28084,11.4307634,45.3658151,-11.408394,-0.447388,0,184, -13.5, -1.4,0,0,1493,1024,1024,1024,71,0,0,0,186.1,0,0,77,4.03,4.02,0,0,0,0,4.42,89.42,7.848101629092,2.624672,6,P-GPS,
12100,2022-08-13 20:21:53,-34.9274137621921,-56.1654733143448,2.624672,4.1338584,3.714243229092,7.848101629092,14.107612,11.4307634,46.859909636,52.20308566,24,5,8.064,8.504269629092,3.28084,11.4307634,46.859909636,-11.408394,-0.671082,0,183.9, -13.6, -1.8,0,0,1493,1024,1024,1024,71,0,0,0,186.1,0,0,77,4.03,4.02,0,0,0,0,4.42,89.42,7.848101629092,2.624672,6,P-GPS,
12200,2022-08-13 20:21:53,-34.9274185573864,-56.1654736762855,2.624672,4.1994752,3.648626429092,7.848101629092,14.107612,11.6544574,48.609253524,53.956038472,24,5,8.062,8.504269629092,3.28084,11.6544574,48.609253524,-11.632088,-0.671082,0,184, -13.2, -2,0,0,1493,1024,1024,1024,71,0,0,0,186.1,0,0,77,4.03,4.02,0,0,0,0,4.135,89.42,7.848101629092,2.624672,6,P-GPS,
12300,2022-08-13 20:21:53,-34.9274231627563,-56.1654740323485,2.624672,4.2322836,3.615818029092,7.848101629092,14.107612,11.6544574,50.290027856,55.63976556,25,5,8.062,8.504269629092,3.28084,11.6544574,50.290027856,-11.632088,-0.671082,0,184, -13.1, -2,0,0,1493,1024,1024,1024,71,0,0,0,186.1,0,0,77,4.03,4.02,0,0,0,0,4.135,89.42,7.848101629092,2.624672,6,P-GPS,
12400,2022-08-13 20:21:53,-34.9274280433593,-56.1654744036202,2.624672,4.2979004,3.550201229092,7.848101629092,14.435696,11.6544574,52.071195892,57.423886352,25,5,8.062,8.504269629092,3.28084,11.6544574,52.071195892,-11.632088,-0.671082,0,184, -13, -2.3,0,0,1493,1024,1024,1024,71,0,0,0,186.1,0,0,77,4.03,4.02,0,0,0,0,4.135,89.42,7.848101629092,2.624672,6,P-GPS,
12500,2022-08-13 20:21:54,-34.9274327964356,-56.1654747301437,2.624672,4.3635172,3.484584429092,7.848101629092,14.435696,11.8781514,53.804791748,59.160763048,25,5,8.062,8.504269629092,3.28084,11.8781514,53.804791748,-11.855782,-0.671082,0,183.8, -12.8, -2.5,0,0,1493,1024,1024,1024,71,0,0,0,186.1,0,0,77,4.03,4.02,0,0,0,0,4.135,89.42,7.848101629092,2.624672,6,P-GPS,
12600,2022-08-13 20:21:54,-34.9274379141661,-56.1654751676782,2.624672,4.429134,3.418967629092,7.848101629092,14.435696,12.1018454,55.67421438,61.032482268,25,5,8.062,8.504269629092,3.28084,12.1018454,55.67421438,-12.079476,-0.671082,0,183.7, -12.8, -2.9,0,0,1479,1024,1024,1024,69,0,0,0,186.1,0,0,77,4.03,4.02,0,0,0,0,4.135,89.42,7.848101629092,2.624672,6,P-GPS,
12700,2022-08-13 20:21:54,-34.9274428068977,-56.1654755819584,2.624672,4.4619424,3.386159229092,7.848101629092,14.76378,12.1018454,57.461944096,62.821852404,25,5,8.062,8.504269629092,3.28084,12.1018454,57.461944096,-12.079476,-0.671082,0,183.7, -12.5, -2.8,0,0,1286,1024,1024,1024,40,0,0,0,186.1,0,0,77,4.03,4.02,0,0,0,0,4.135,89.42,7.848101629092,2.624672,6,P-GPS,
12800,2022-08-13 20:21:54,-34.9274478208116,-56.1654760265043,2.624672,4.5275592,3.320542429092,7.848101629092,14.76378,12.3255394,59.294293236,64.656170048,25,5,8.062,8.504269629092,3.28084,12.3255394,59.294293236,-12.30317,-0.671082,0,183.7, -10.4, -2.4,0,0,1024,1024,1024,1024,0,0,0,0,186.1,0,0,77,4.03,4.02,0,0,0,0,4.135,89.42,7.848101629092,2.624672,6,P-GPS,
12900,2022-08-13 20:21:54,-34.9274526783168,-56.1654765340451,2.624672,4.593176,3.254925629092,7.848101629092,15.091864,12.1018454,61.072508516,66.435041496,25,5,8.062,8.504269629092,3.28084,12.3255394,61.072508516,-12.079476,-0.671082,0,183.4, -2.4, -2.6,0,0,1024,1024,1024,1024,0,0,0,0,186.1,0,0,77,4.03,4.02,0,0,0,0,4.135,89.42,7.848101629092,2.624672,6,P-GPS,
13000,2022-08-13 20:21:54,-34.9274575752172,-56.1654769569248,2.296588,4.3307088,3.189308829092,7.520017629092,15.091864,11.4307634,62.862206736,68.226052052,25,5,8.062,8.504269629092,3.28084,12.3255394,62.862206736,-11.408394,-0.671082,0,183, 20.2, -1.1,0,0,1024,1024,1024,1024,0,0,0,0,186.1,0,0,77,4.03,4.02,0,0,0,0,4.135,89.42,7.520017629092,2.296588,6,P-GPS,
13100,2022-08-13 20:21:54,-34.9274618796507,-56.165477352313,2.296588,4.3635172,3.156500429092,7.520017629092,15.091864,10.3122934,64.436025684,69.800855252,25,5,8.062,8.504269629092,3.28084,12.3255394,64.436025684,-10.289924,-0.671082,-0.223694,183.7, 18.8, 1.2,0,0,1024,1024,1024,1024,0,0,0,0,186.1,0,0,77,4.03,4.02,0,0,0,0,4.135,89.42,7.520017629092,2.296588,6,P-GPS,
13200,2022-08-13 20:21:54,-34.9274660034441,-56.1654777640383,2.296588,4.429134,3.090883629092,7.520017629092,14.76378,9.4175174,65.944884,71.310369736,25,5,8.062,8.504269629092,3.28084,12.3255394,65.944884,-9.395148,-0.671082,-0.223694,183.8, 18.1, 0,0,0,1024,1024,1024,1024,0,0,0,0,186.1,0,0,77,4.031,4.021,0,0,0,0,4.135,89.42,7.520017629092,2.296588,6,P-GPS,
13300,2022-08-13 20:21:54,-34.9274694806671,-56.1654781553722,2.296588,4.4619424,3.058075229092,7.520017629092,14.76378,8.5227414,67.218834172,72.584647992,24,5,8.062,8.504269629092,3.28084,12.3255394,67.218834172,-8.500372,-0.671082,0,183.7, 18.8, -0.6,0,0,1024,1024,1024,1024,0,0,0,0,186.1,0,0,77,4.031,4.021,0,0,0,0,4.135,89.42,7.520017629092,2.296588,6,P-GPS,
13400,2022-08-13 20:21:54,-34.9274729161628,-56.1654785856891,1.968504,4.1666668,3.025266829092,7.191933629092,14.76378,7.6279654,68.478676732,73.844490552,24,5,8.062,8.504269629092,3.28084,12.3255394,68.478676732,-7.605596,-0.671082,0,183.6, 18.6, -1.1,0,0,1024,1024,1024,1024,0,0,0,0,186.1,0,0,77,4.031,4.021,0,0,0,0,4.135,89.42,7.191933629092,1.968504,6,P-GPS,
13500,2022-08-13 20:21:55,-34.9274758594516,-56.165478990228,1.968504,4.1994752,2.992458429092,7.191933629092,14.76378,6.7331894,69.559385428,74.925199248,25,5,8.062,8.504269629092,3.28084,12.3255394,69.559385428,-6.71082,-0.671082,0,183.1, 20, -2.4,0,0,1024,1024,1024,1024,0,0,0,0,186.1,0,0,77,4.031,4.021,0,0,0,0,4.135,89.42,7.191933629092,1.968504,6,P-GPS,
13600,2022-08-13 20:21:55,-34.9274783932583,-56.1654794561867,2.296588,4.5603676,2.959650029092,7.520017629092,15.091864,5.8607828,70.49376866,75.860238648,25,5,8.062,8.504269629092,3.28084,12.3255394,70.49376866,-5.816044,-0.671082,0.223694,182.8, 20.5, -2.3,0,0,1024,1024,1024,1024,0,0,0,0,186.1,0,0,77,4.031,4.021,0,0,0,0,4.135,89.42,7.520017629092,2.296588,6,P-GPS,
13700,2022-08-13 20:21:55,-34.9274804170625,-56.1654798982066,2.296588,4.593176,2.926841629092,7.520017629092,15.091864,4.9660068,71.242128264,76.610238672,25,5,8.062,8.504269629092,3.28084,12.3255394,71.242128264,-4.921268,-0.671082,0,182.5, 20.7, -3.7,0,0,1024,1024,1024,1024,0,0,0,0,186.1,0,0,77,4.031,4.021,0,0,0,0,4.135,89.42,7.520017629092,2.296588,6,P-GPS,
13800,2022-08-13 20:21:55,-34.9274812700154,-56.165480332447,2.296588,4.593176,2.926841629092,7.520017629092,15.091864,3.8699062,71.565619088,76.947509024,25,5,8.062,8.504269629092,3.28084,12.3255394,71.565619088,-3.802798,-0.671082,0,182.7, 19.2, -3.9,0,0,1024,1024,1024,1024,0,0,0,0,186.1,0,0,77,4.031,4.021,0,0,0,0,4.135,89.42,7.520017629092,2.296588,6,P-GPS,
13900,2022-08-13 20:21:55,-34.9274823656455,-56.1654806804852,2.296588,4.6259844,2.894033229092,7.520017629092,15.419948,2.9527608,71.974739836,77.36056678,25,5,8.062,8.504269629092,3.28084,12.3255394,71.974739836,-2.908022,-0.447388,0,182.7, 17.9, -4.5,0,0,1024,1024,1024,1024,0,0,0,0,186.1,0,0,77,4.031,4.021,0,0,0,0,4.135,89.42,7.520017629092,2.296588,6,P-GPS,
14000,2022-08-13 20:21:55,-34.9274831897815,-56.1654809205503,2.624672,4.9540684,2.894033229092,7.848101629092,15.419948,2.2816788,72.281498376,77.669621908,25,5,8.062,8.504269629092,3.28084,12.3255394,72.281498376,-2.23694,-0.447388,0,182.7, 16.9, -4.8,0,0,1024,1024,1024,1024,0,0,0,0,186.1,0,0,77,4.031,4.021,0,0,0,0,4.135,89.42,7.848101629092,2.624672,6,P-GPS,
14100,2022-08-13 20:21:55,-34.9274836760739,-56.1654811039997,2.952756,5.2821524,2.894033229092,8.176185629092,15.419948,1.4092722,72.46391308,77.855317452,25,5,8.062,8.504269629092,3.28084,12.3255394,72.46391308,-1.342164,-0.447388,0,182.9, 11.9, -4.5,0,0,1024,1024,1024,1024,0,0,0,0,186.1,0,0,77,4.031,4.021,0,0,0,0,4.135,89.42,8.176185629092,2.952756,6,P-GPS,
14200,2022-08-13 20:21:55,-34.9274834458511,-56.1654811473712,2.952756,5.2821524,2.894033229092,8.176185629092,15.748032,0.9171454,72.382220164,77.940291208,25,5,8.05,8.504269629092,3.28084,12.3255394,72.46391308,-0.894776,-0.223694,0,183.3, 7.7, -4.4,0,0,1024,1024,1024,1024,0,0,0,0,186.1,0,0,77,4.027,4.013,0,0,0,0,4.219,89.42,8.176185629092,2.952756,6,P-GPS,
14300,2022-08-13 20:21:55,-34.9274834966455,-56.1654813219519,3.28084,5.6102364,2.894033229092,8.504269629092,15.748032,0.4921268,72.40649838,77.995737404,25,5,8.05,8.504269629092,3.28084,12.3255394,72.46391308,-0.447388,-0.223694,0,183.4, 4.9, -4.6,0,0,1024,1024,1024,1024,0,0,0,0,186.1,0,0,77,4.027,4.013,0,0,0,0,4.219,89.42,8.504269629092,3.28084,6,P-GPS,
14400,2022-08-13 20:21:55,-34.9274834684148,-56.1654814360586,3.28084,5.6102364,2.894033229092,8.504269629092,15.748032,0.223694,72.400264784,78.03149856,25,5,8.05,8.504269629092,3.28084,12.3255394,72.46391308,0,-0.223694,0,183.2, 2.8, -4.7,0,0,1081,1024,1024,1024,9,0,0,0,186.1,0,0,77,4.027,4.013,0,0,0,0,4.219,89.42,8.504269629092,3.28084,6,P-GPS,
14500,2022-08-13 20:21:56,-34.9274833615107,-56.1654815256386,3.608924,5.9383204,2.894033229092,8.832353629092,15.748032,0.223694,72.364503628,78.078742656,25,5,8.05,8.832353629092,3.608924,12.3255394,72.46391308,0,-0.223694,0,183.5, 1.3, -4.6,0,0,1081,1024,1024,1024,9,0,0,0,186.1,0,0,77,4.027,4.013,0,0,0,0,4.219,89.42,8.832353629092,3.608924,6,P-GPS,
14600,2022-08-13 20:21:56,-34.927483186251,-56.1654815136012,3.608924,5.9383204,2.894033229092,8.832353629092,15.748032,0,72.300527248,78.142719036,25,5,8.05,8.832353629092,3.608924,12.3255394,72.46391308,0,0,0,183.7, 0.2, -4.6,0,0,1435,1024,1024,1024,62,0,0,0,186.1,0,0,77,4.027,4.013,0,0,0,0,4.219,89.42,8.832353629092,3.608924,6,P-GPS,
14700,2022-08-13 20:21:56,-34.9274830243186,-56.1654815890175,3.937008,6.2664044,2.894033229092,9.160437629092,15.748032,0,72.244424884,78.206039248,25,5,8.05,9.160437629092,3.937008,12.3255394,72.46391308,0,0,0,183.9, -3.4, -4.4,0,0,1684,1024,1024,1024,100,0,0,0,186.1,0,0,77,4.027,4.013,0,0,0,0,4.219,89.42,9.160437629092,3.937008,6,P-GPS,
14800,2022-08-13 20:21:56,-34.927482955494,-56.1654816379872,3.937008,6.2664044,2.894033229092,9.160437629092,15.419948,0,72.22113092,78.235238724,25,5,8.05,9.160437629092,3.937008,12.3255394,72.46391308,0,0,0,184.4, -13, -4.2,0,0,1684,1024,1024,1024,100,0,0,0,186.1,0,0,77,4.027,4.013,0,0,0,0,4.219,89.42,9.160437629092,3.937008,6,P-GPS,
14900,2022-08-13 20:21:56,-34.9274830289042,-56.165481690452,3.937008,6.2664044,2.894033229092,9.160437629092,15.419948,0.671082,72.249674228,78.26607862,25,5,8.05,9.160437629092,3.937008,12.3255394,72.46391308,-0.671082,0,0,184.7, -20.9, -4.2,0,0,1684,1024,1024,1024,100,0,0,0,186.1,0,0,77,4.027,4.013,0,0,0,0,4.219,89.42,9.160437629092,3.937008,6,P-GPS,
15000,2022-08-13 20:21:56,-34.9274839208877,-56.1654817524726,3.937008,6.2664044,2.894033229092,9.160437629092,15.091864,1.3645334,72.575133556,78.592194116,25,5,8.05,9.160437629092,3.937008,12.3255394,72.575133556,-1.342164,-0.223694,0,184.5, -22.2, -4.1,0,0,1684,1024,1024,1024,100,0,0,0,186.1,0,0,77,4.027,4.013,0,0,0,0,4.219,89.42,9.160437629092,3.937008,6,P-GPS,
15100,2022-08-13 20:21:56,-34.9274846646828,-56.1654818716992,3.937008,6.2992128,2.861224829092,9.160437629092,15.091864,2.23694,72.848755612,78.865816172,25,5,8.05,9.160437629092,3.937008,12.3255394,72.848755612,-2.23694,-0.223694,0,184.5, -22.2, -4,0,0,1684,1024,1024,1024,100,0,0,0,186.1,0,0,77,4.027,4.013,0,0,0,0,4.219,89.42,9.160437629092,3.937008,6,P-GPS,
15200,2022-08-13 20:21:56,-34.9274858087233,-56.1654819775537,3.937008,6.2992128,2.861224829092,9.160437629092,15.091864,2.908022,73.267062712,79.284451356,25,5,8.048,9.160437629092,3.937008,12.3255394,73.267062712,-2.908022,-0.223694,0,184.5, -21.8, -4.1,0,0,1684,1024,1024,1024,100,0,0,0,186.1,0,0,77,4.025,4.013,0,0,0,0,3.864,89.42,9.160437629092,3.937008,6,P-GPS,
15300,2022-08-13 20:21:56,-34.927487168448,-56.1654820956754,3.937008,6.2992128,2.861224829092,9.160437629092,15.091864,3.802798,73.763781888,79.7818267,25,5,8.048,9.160437629092,3.937008,12.3255394,73.763781888,-3.802798,-0.223694,0,184.5, -21.6, -4.1,0,0,1684,1024,1024,1024,100,0,0,0,186.1,0,0,77,4.025,4.013,0,0,0,0,3.864,89.42,9.160437629092,3.937008,6,P-GPS,
15400,2022-08-13 20:21:56,-34.927488969481,-56.1654822368869,3.937008,6.3320212,2.828416429092,9.160437629092,15.091864,4.47388,74.421590308,80.440291288,25,5,8.048,9.160437629092,3.937008,12.3255394,74.421590308,-4.47388,-0.223694,0,184.7, -21.2, -4.2,0,0,1684,1024,1024,1024,100,0,0,0,186.1,0,0,77,4.025,4.013,0,0,0,0,3.864,89.42,9.160437629092,3.937008,6,P-GPS,
15500,2022-08-13 20:21:57,-34.9274915086811,-56.1654823312605,3.937008,6.3648296,2.795608029092,9.160437629092,15.091864,5.1673314,75.345146768,81.367128588,25,5,8.048,9.160437629092,3.937008,12.3255394,75.345146768,-5.144962,-0.447388,0,184.6, -20.9, -3.9,0,0,1684,1024,1024,1024,100,0,0,0,186.1,0,0,77,4.025,4.013,0,0,0,0,3.864,89.42,9.160437629092,3.937008,6,P-GPS,
15600,2022-08-13 20:21:57,-34.9274939726993,-56.1654826095196,3.937008,6.397638,2.762799629092,9.160437629092,14.76378,5.8384134,76.247705852,82.270015756,25,5,8.048,9.160437629092,3.937008,12.3255394,76.247705852,-5.816044,-0.447388,0,184.5, -20.5, -4.3,0,0,1684,1024,1024,1024,100,0,0,0,186.1,0,0,77,4.025,4.013,0,0,0,0,3.864,89.42,9.160437629092,3.937008,6,P-GPS,
15700,2022-08-13 20:21:57,-34.9274965556199,-56.1654828840589,3.937008,6.4304464,2.729991229092,9.160437629092,14.76378,6.2858014,77.19324394,83.215881928,25,5,8.048,9.160437629092,3.937008,12.3255394,77.19324394,-6.263432,-0.447388,0,184.6, -20.4, -4.2,0,0,1684,1024,1024,1024,100,0,0,0,186.1,0,0,77,4.025,4.013,0,0,0,0,3.864,89.42,9.160437629092,3.937008,6,P-GPS,
15800,2022-08-13 20:21:57,-34.9274995634993,-56.1654831587392,3.608924,6.1351708,2.697182829092,8.832353629092,14.76378,6.9568834,78.292981508,84.316275664,25,5,8.048,9.160437629092,3.937008,12.3255394,78.292981508,-6.934514,-0.447388,0,184.6, -20.5, -3.9,0,0,1684,1024,1024,1024,100,0,0,0,186.1,0,0,77,4.025,4.013,0,0,0,0,3.864,89.42,8.832353629092,3.608924,6,P-GPS,
15900,2022-08-13 20:21:57,-34.9275033565101,-56.1654835115657,3.608924,6.1351708,2.697182829092,8.832353629092,14.76378,7.4042714,79.679792576,85.704399068,25,5,8.048,9.160437629092,3.937008,12.3255394,79.679792576,-7.381902,-0.447388,0,184.6, -20.7, -3.8,0,0,1684,1024,1024,1024,100,0,0,0,186.1,0,0,77,4.025,4.013,0,0,0,0,3.864,89.42,8.832353629092,3.608924,6,P-GPS,
16000,2022-08-13 20:21:57,-34.9275067763728,-56.1654837967865,3.608924,6.1351708,2.697182829092,8.832353629092,14.76378,7.8516594,80.929136448,86.955055276,25,5,8.048,9.160437629092,3.937008,12.3255394,80.929136448,-7.82929,-0.447388,0,184.6, -20.9, -3.8,0,0,1684,1024,1024,1024,100,0,0,0,186.1,0,0,77,4.025,4.013,0,0,0,0,3.864,89.42,8.832353629092,3.608924,6,P-GPS,
16100,2022-08-13 20:21:57,-34.927510230524,-56.1654840797974,3.608924,6.1351708,2.697182829092,8.832353629092,15.091864,8.5227414,82.190947512,88.218178676,24,5,8.048,9.160437629092,3.937008,12.3255394,82.190947512,-8.500372,-0.447388,0,184.5, -21, -3.5,0,0,1684,1024,1024,1024,100,0,0,0,186.1,0,0,77,4.025,4.013,0,0,0,0,3.864,89.42,8.832353629092,3.608924,6,P-GPS,
16200,2022-08-13 20:21:57,-34.9275140349339,-56.165484405882,3.608924,6.1351708,2.697182829092,8.832353629092,15.091864,8.94776,83.581367504,89.60958292,24,5,8.04,9.160437629092,3.937008,12.3255394,83.581367504,-8.94776,-0.447388,0,184.5, -20.7, -3.6,0,0,1684,1024,1024,1024,100,0,0,0,186.1,0,0,77,4.014,4.002,0,0,0,0,4.278,89.6,8.832353629092,3.608924,6,P-GPS,
16300,2022-08-13 20:21:57,-34.9275180546893,-56.1654847563679,3.28084,5.8070868,2.697182829092,8.504269629092,15.419948,9.395148,85.050527656,91.079727324,24,5,8.04,9.160437629092,3.937008,12.3255394,85.050527656,-9.395148,-0.447388,0,184.4, -20.7, -3.5,0,0,1684,1024,1024,1024,100,0,0,0,186.1,0,0,77,4.014,4.002,0,0,0,0,4.278,89.6,8.504269629092,3.28084,6,P-GPS,
16400,2022-08-13 20:21:57,-34.9275222210307,-56.1654850914047,3.28084,5.8070868,2.697182829092,8.504269629092,15.419948,9.395148,86.572509332,92.60334942,24,5,8.04,9.160437629092,3.937008,12.3255394,86.572509332,-9.842536,-0.671082,0,184.4, -20.5, -3.4,0,0,1684,1024,1024,1024,100,0,0,0,186.1,0,0,77,4.014,4.002,0,0,0,0,4.278,89.6,8.504269629092,3.28084,6,P-GPS,
16500,2022-08-13 20:21:57,-34.9275263570961,-56.1654854230901,3.28084,5.8070868,2.697182829092,8.504269629092,15.419948,10.3122934,88.083336152,94.115488576,24,5,8.04,9.160437629092,3.937008,12.3255394,88.083336152,-10.289924,-0.671082,0,184.4, -20.4, -3.3,0,0,1684,1024,1024,1024,100,0,0,0,186.1,0,0,77,4.014,4.002,0,0,0,0,4.278,89.6,8.504269629092,3.28084,6,P-GPS,
16600,2022-08-13 20:21:58,-34.9275308464686,-56.1654858070731,3.28084,5.8070868,2.697182829092,8.504269629092,15.419948,10.7596814,89.72441232,95.757548996,24,5,8.04,9.160437629092,3.937008,12.3255394,89.72441232,-10.737312,-0.671082,0,184.4, -20.8, -3.4,0,0,1587,1024,1024,1024,85,0,0,0,186.1,0,0,77,4.014,4.002,0,0,0,0,4.278,89.6,8.504269629092,3.28084,6,P-GPS,
16700,2022-08-13 20:21:58,-34.9275351000165,-56.1654862083728,3.28084,5.8070868,2.697182829092,8.504269629092,15.419948,11.2070694,91.280186648,97.313979492,25,5,8.04,9.160437629092,3.937008,12.3255394,91.280186648,-11.1847,-0.671082,0,184.3, -20.8, -3.2,0,0,1587,1024,1024,1024,85,0,0,0,186.1,0,0,77,4.014,4.002,0,0,0,0,4.278,89.6,8.504269629092,3.28084,6,P-GPS,
16800,2022-08-13 20:21:58,-34.927540016328,-56.1654865912639,3.28084,5.8070868,2.697182829092,8.504269629092,15.419948,11.6544574,93.07579038,99.111551728,25,5,8.04,9.160437629092,3.937008,12.3255394,93.07579038,-11.632088,-0.671082,0,184.1, -18.5, -3.1,0,0,1225,1024,1024,1024,30,0,0,0,186.1,0,0,77,4.014,4.002,0,0,0,0,4.278,89.6,8.504269629092,3.28084,6,P-GPS,
