time(millisecond),datetime(utc),latitude,longitude,height_above_takeoff(feet),height_above_ground_at_drone_location(feet),ground_elevation_at_drone_location(feet),altitude_above_seaLevel(feet),height_sonar(feet),speed(mph),distance(feet),mileage(feet),satellites,gpslevel,voltage(v),max_altitude(feet),max_ascent(feet),max_speed(mph),max_distance(feet), xSpeed(mph), ySpeed(mph), zSpeed(mph), compass_heading(degrees), pitch(degrees), roll(degrees),isPhoto,isVideo,rc_elevator,rc_aileron,rc_throttle,rc_rudder,rc_elevator(percent),rc_aileron(percent),rc_throttle(percent),rc_rudder(percent),gimbal_heading(degrees),gimbal_pitch(degrees),gimbal_roll(degrees),battery_percent,voltageCell1,voltageCell2,voltageCell3,voltageCell4,voltageCell5,voltageCell6,current(A),battery_temperature(f),altitude(feet),ascent(feet),flycStateRaw,flycState,message
0,2022-11-08 20:50:03,-34.9200073624307,-56.1705432261687,0,0,27.726135401672,27.726135401672,0.328084,0,0,0,24,5,0,27.726135401672,0,0,0,0,0,0,250.5, -10.8, 0.2,0,0,364,364,364,1684,-100,-100,-100,100,260.2,0,0,54,3.894,3.893,0,0,0,0,0,90.5,27.726135401672,0,41,Motors_Started,"Aeronave en Zona de altitud restringida (150). Vuela con precaución (Code: 190001). Error de calibración del estabilizador. Reinicia la aeronave o contacta con la Asistencia DJI (Code: 40011)"
100,2022-11-08 20:50:03,-34.9200075025769,-56.1705432876494,0,0,27.726135401672,27.726135401672,0.328084,0,0.054339568668,0.054339568668,24,5,0,27.726135401672,0,0,0.054339568668,0,0,0,250.7, -10.6, -0.3,0,0,364,364,364,1684,-100,-100,-100,100,260.3,0,0,54,3.894,3.893,0,0,0,0,0,90.5,27.726135401672,0,41,Motors_Started,
200,2022-11-08 20:50:03,-34.920007980993,-56.1705440720453,0,0,27.726135401672,27.726135401672,0.328084,0,0.33906825232,0.34679791136,24,5,0,27.726135401672,0,0,0.33906825232,0,0,0,250.8, -10.7, -0.9,0,0,1024,1024,364,1319,0,0,-100,45,260.4,0,0,54,3.894,3.893,0,0,0,0,0,90.5,27.726135401672,0,41,Motors_Started,
300,2022-11-08 20:50:03,-34.9200080867862,-56.1705441264513,0,0,27.726135401672,27.726135401672,0.328084,0,0.37733597008,0.38868767648,24,5,0,27.726135401672,0,0,0.37733597008,0,0,0,250.8, -9.9, 0,0,0,1024,1024,364,1319,0,0,-100,45,260.6,0,0,54,3.894,3.893,0,0,0,0,0,90.5,27.726135401672,0,41,Motors_Started,
400,2022-11-08 20:50:03,-34.9200081697182,-56.1705441780723,0,0,27.726135401672,27.726135401672,0.328084,0,0.40969161416,0.42266077468,24,5,0,27.726135401672,0,0,0.40969161416,0,0,0,250.9, -9.9, 1,0,0,1024,1024,1025,1024,0,0,0,0,260.8,0,0,54,3.894,3.893,0,0,0,0,0,90.5,27.726135401672,0,41,Motors_Started,"Setting new Return-To-Home altitude to 80m (262 ft). Data Recorder File Index is 76. Setting new Maximum Flight Altitude to 120m (394 ft)"
500,2022-11-08 20:50:03,-34.9200082373299,-56.1705442010834,0,0,27.726135401672,27.726135401672,0.328084,0,0.4323819036,0.44827101172,24,5,0,27.726135401672,0,0,0.4323819036,0,0,0,250.6, -9.4, 1.9,0,0,1024,1024,1684,1024,0,0,100,0,260.9,0,0,54,3.894,3.893,0,0,0,0,0,90.5,27.726135401672,0,41,Motors_Started,
600,2022-11-08 20:50:03,-34.9200082972774,-56.1705441881499,0,0,27.726135401672,27.726135401672,0.328084,0,0.44626641848,0.47048229852,24,5,0,27.726135401672,0,0,0.44626641848,0,0,0,250.4, -9.7, 2.7,0,0,1024,1024,1684,966,0,0,100,-9,260.9,0,0,54,3.894,3.893,0,0,0,0,0,90.5,27.726135401672,0,41,Motors_Started,
700,2022-11-08 20:50:04,-34.9200083814587,-56.1705442077049,0,0,27.726135401672,27.726135401672,0.328084,0,0.47376313852,0.50174870372,24,5,0,27.726135401672,0,0,0.47376313852,0,0,0,250.4, -9.9, 1.9,0,0,1024,1024,1684,1024,0,0,100,0,260.9,0,0,54,3.894,3.893,0,0,0,0,0,90.5,27.726135401672,0,41,Motors_Started,
800,2022-11-08 20:50:04,-34.9200084816942,-56.1705442165992,0,0,27.726135401672,27.726135401672,0.328084,0,0.50453085604,0.53841537156,24,5,0,27.726135401672,0,0,0.50453085604,0,0,0,249.3, -10.5, 1.8,0,0,1024,1024,1684,1024,0,0,100,0,260.5,0,0,54,3.894,3.893,0,0,0,0,0,90.5,27.726135401672,0,41,Motors_Started,
900,2022-11-08 20:50:04,-34.9200086480664,-56.1705443966599,0,0,27.726135401672,27.726135401672,0.328084,0,0.5853510686,0.6195702298,24,5,0,27.726135401672,0,0,0.5853510686,0,0,0,248.6, -11.7, 1.1,0,0,1024,1024,1684,1024,0,0,100,0,259.6,0,0,54,3.894,3.893,0,0,0,0,0,90.5,27.726135401672,0,41,Motors_Started,
1000,2022-11-08 20:50:04,-34.9200088251119,-56.1705445941859,0,0,27.726135401672,27.726135401672,0.328084,0,0.67251970656,0.70711616436,24,5,7.796,27.726135401672,0,0,0.67251970656,0,0,0,248.2, -12.2, 2.3,0,0,1024,1024,1684,1024,0,0,100,0,259.1,0,0,54,3.894,3.893,0,0,0,0,0.997,90.5,27.726135401672,0,41,Motors_Started,
1100,2022-11-08 20:50:04,-34.9200094200989,-56.1705455379887,-0.328084,-0.328084,27.726135401672,27.398051401672,0.328084,0,1.02074478332,1.06326775056,24,5,7.796,27.726135401672,0,0,1.02074478332,0,0,0,248.1, -12.3, 4.3,0,0,1024,1024,1684,1024,0,0,100,0,259,0,0,54,3.894,3.893,0,0,0,0,0.997,90.5,27.398051401672,-0.328084,10,Assisted_Takeoff,
1200,2022-11-08 20:50:04,-34.9200096543012,-56.1705458348561,-0.328084,-0.3608924,27.758943801672,27.398051401672,0.328084,0,1.14378940668,1.18650922432,24,5,7.796,27.726135401672,0,0,1.14378940668,0,0,0,248, -11.2, 5.1,0,0,1024,1024,1684,1024,0,0,100,0,259,0,0,54,3.894,3.893,0,0,0,0,0.997,90.5,27.398051401672,-0.328084,10,Assisted_Takeoff,
1300,2022-11-08 20:50:04,-34.9200098874141,-56.1705461271994,-0.328084,-0.3608924,27.758943801672,27.398051401672,0.328084,0,1.26565292764,1.30850397888,24,5,7.796,27.726135401672,0,0,1.26565292764,0,0,0,249.6, -8.7, 4.9,0,0,1024,1024,1684,1024,0,0,100,0,259.6,0,0,54,3.894,3.893,0,0,0,0,0.997,90.5,27.398051401672,-0.328084,10,Assisted_Takeoff,
1400,2022-11-08 20:50:04,-34.9200100850871,-56.1705463531651,-0.328084,-0.3608924,27.758943801672,27.398051401672,0.328084,0,1.364501356,1.40735240724,24,5,7.796,27.726135401672,0,0,1.364501356,0,0,0,250.8, -8.8, 4.1,0,0,1024,1024,1657,1024,0,0,96,0,261.1,0,0,54,3.894,3.893,0,0,0,0,0.997,90.5,27.398051401672,-0.328084,10,Assisted_Takeoff,
1500,2022-11-08 20:50:04,-34.9200103355381,-56.1705467151807,-0.328084,-0.3608924,27.758943801672,27.398051401672,0.328084,0,1.50536094056,1.54905188684,24,5,7.796,27.726135401672,0,0,1.50536094056,0,0,0,249.7, -9.9, 4.7,0,0,1024,1024,1527,1024,0,0,76,0,261.3,0,0,54,3.894,3.893,0,0,0,0,0.997,90.5,27.398051401672,-0.328084,10,Assisted_Takeoff,
1600,2022-11-08 20:50:04,-34.9200104447709,-56.1705468484845,-0.328084,-0.3608924,27.758943801672,27.398051401672,0.328084,0,1.5617290526,1.60543312224,24,5,7.796,27.726135401672,0,0,1.5617290526,0,0,0,248.7, -8.1, 3.2,0,0,1024,1024,1587,1024,0,0,85,0,260.1,0,0,54,3.894,3.893,0,0,0,0,0.997,90.5,27.398051401672,-0.328084,10,Assisted_Takeoff,
1700,2022-11-08 20:50:05,-34.9200105264471,-56.1705469220844,-0.328084,-0.3608924,27.758943801672,27.398051401672,0.328084,0,1.59847117976,1.64248364836,24,5,7.796,27.726135401672,0,0,1.59847117976,0,0,0,248.8, -5.1, 4.6,0,0,1024,1024,1684,1024,0,0,100,0,259.8,0,0,54,3.894,3.893,0,0,0,0,0.997,90.5,27.398051401672,-0.328084,10,Assisted_Takeoff,
1800,2022-11-08 20:50:05,-34.9200105611637,-56.170546904718,-0.328084,-0.3608924,27.758943801672,27.398051401672,0.328084,0,1.60407485448,1.65617459368,24,5,7.796,27.726135401672,0,0,1.60407485448,0,0,0,249.6, -1.4, 3.7,0,0,1024,1024,1684,1017,0,0,100,-1,259.7,0,0,54,3.894,3.893,0,0,0,0,0.997,90.5,27.398051401672,-0.328084,10,Assisted_Takeoff,
1900,2022-11-08 20:50:05,-34.9200102492462,-56.1705462693029,-0.328084,-0.3608924,27.758943801672,27.398051401672,0.328084,0.223694,1.39216867972,1.87772643804,24,5,7.796,27.726135401672,0,0.223694,1.60407485448,0.223694,0,-0.223694,249.8, 1, 3.6,0,0,1024,1024,1450,1024,0,0,65,0,260,0,0,54,3.894,3.893,0,0,0,0,0.997,90.5,27.398051401672,-0.328084,10,Assisted_Takeoff,"Error de calibración del estabilizador. Reinicia la aeronave o contacta con la Asistencia DJI (Code: 40011)"
2000,2022-11-08 20:50:05,-34.9200101126727,-56.1705461376237,0,-0.032808399999999,27.758943801672,27.726135401672,0.328084,0.447388,1.32871395328,1.94124678128,24,5,7.773,27.726135401672,0,0.447388,1.60407485448,0.447388,0,-0.671082,249.1, 0.8, 1,0,0,1024,1024,1024,1024,0,0,0,0,260,0,0,54,3.857,3.851,0,0,0,0,1.864,90.5,27.726135401672,0,6,P-GPS,
2100,2022-11-08 20:50:05,-34.9200099050687,-56.1705459674946,0,-0.032808399999999,27.758943801672,27.726135401672,0.656168,0.447388,1.23820213936,2.03250006504,24,5,7.773,27.726135401672,0,0.447388,1.60407485448,0.447388,0,-1.342164,249.2, -2.1, -2.7,0,0,1024,1024,1024,1024,0,0,0,0,260,0,0,54,3.857,3.851,0,0,0,0,1.864,90.5,27.726135401672,0,6,P-GPS,
2200,2022-11-08 20:50:05,-34.9200097368063,-56.1705458118428,0,-0.032808399999999,27.758943801672,27.726135401672,0.984252,0.447388,1.16137798992,2.10955387328,24,5,7.773,27.726135401672,0,0.447388,1.60407485448,0.447388,0,-1.565858,249.4, -2.8, -3.2,0,0,1024,1024,1024,1024,0,0,0,0,260,0,0,54,3.857,3.851,0,0,0,0,1.864,90.5,27.726135401672,0,6,P-GPS,
2300,2022-11-08 20:50:05,-34.9200096215647,-56.1705457024627,0.328084,0.2952756,27.758943801672,28.054219401672,1.312336,0.223694,1.10822838192,2.16283143404,24,5,7.773,28.054219401672,0.328084,0.447388,1.60407485448,0.223694,0,-1.565858,249.6, -2.9, -2.7,0,0,1024,1024,1024,1024,0,0,0,0,260,0,0,54,3.857,3.851,0,0,0,0,1.864,90.5,28.054219401672,0.328084,6,P-GPS,
2400,2022-11-08 20:50:05,-34.9200094113304,-56.1705453054428,0.656168,0.656168,27.726135401672,28.382303401672,1.64042,0,0.97249346944,2.30421923384,24,5,7.773,28.382303401672,0.656168,0.447388,1.60407485448,0,0,-1.565858,249.7, -0.7, -3,0,0,1024,1024,1024,1024,0,0,0,0,260,0,0,54,3.857,3.851,0,0,0,0,1.864,90.5,28.382303401672,0.656168,6,P-GPS,
2500,2022-11-08 20:50:05,-34.9200094422763,-56.1705454260434,0.984252,0.984252,27.726135401672,28.710387401672,1.968504,0,1.00445869356,2.34202435316,24,5,7.773,28.710387401672,0.984252,0.447388,1.60407485448,0,0,-1.342164,249.6, 0.4, -3.8,0,0,1431,1024,1024,1024,62,0,0,0,260,0,0,54,3.857,3.851,0,0,0,0,1.864,90.5,28.710387401672,0.984252,6,P-GPS,"Error de calibración del estabilizador. Reinicia la aeronave o contacta con la Asistencia DJI (Code: 40011)"
2600,2022-11-08 20:50:05,-34.9200094880209,-56.1705455254117,1.312336,1.312336,27.726135401672,29.038471401672,2.296588,0,1.03660764472,2.3761155616,24,5,7.773,29.038471401672,1.312336,0.447388,1.60407485448,0,0,-0.894776,249.5, 1.1, -2.1,0,0,1684,1024,1024,1024,100,0,0,0,260,0,0,54,3.857,3.851,0,0,0,0,1.864,90.5,29.038471401672,1.312336,6,P-GPS,
2700,2022-11-08 20:50:06,-34.9200095427466,-56.170545637982,1.312336,1.2795276,27.758943801672,29.038471401672,2.296588,0,1.07395672728,2.41526582532,24,5,7.773,29.038471401672,1.312336,0.447388,1.60407485448,0,0,-0.447388,249.7, -7.4, 0,0,0,1626,1024,1024,1024,91,0,0,0,260,0,0,54,3.857,3.851,0,0,0,0,1.864,90.5,29.038471401672,1.312336,6,P-GPS,
2800,2022-11-08 20:50:06,-34.9200095871148,-56.1705460727802,1.64042,1.6076116,27.758943801672,29.366555401672,2.296588,0.4921268,1.1764436072,2.546341945,24,5,7.773,29.366555401672,1.64042,0.4921268,1.60407485448,-0.223694,-0.447388,-0.223694,249.6, -15.2, 1.1,0,0,1596,1024,1024,1024,87,0,0,0,260,0,0,54,3.857,3.851,0,0,0,0,1.864,90.5,29.366555401672,1.64042,6,P-GPS,
2900,2022-11-08 20:50:06,-34.9200097692331,-56.1705465427335,1.64042,1.6076116,27.758943801672,29.366555401672,2.296588,0.4921268,1.32496067232,2.70184391848,24,5,7.773,29.366555401672,1.64042,0.4921268,1.60407485448,-0.447388,-0.894776,0,249.5, -16, 1.1,0,0,1684,1024,1024,1024,100,0,0,0,260,0,0,54,3.857,3.851,0,0,0,0,1.864,90.5,29.366555401672,1.64042,6,P-GPS,
3000,2022-11-08 20:50:06,-34.9200100111091,-56.170547231353,1.64042,1.6076116,27.758943801672,29.366555401672,2.296588,1.6329662,1.53932419624,2.92595809888,24,5,7.773,29.366555401672,1.64042,1.6329662,1.60407485448,-0.447388,-1.565858,0,249.6, -14.4, 0.8,0,0,1064,1024,1024,1024,6,0,0,0,260,0,0,54,3.857,3.851,0,0,0,0,1.864,90.5,29.366555401672,1.64042,6,P-GPS,
3100,2022-11-08 20:50:06,-34.9200103415385,-56.1705481803387,1.64042,1.6076116,27.758943801672,29.366555401672,2.296588,2.3264176,1.83792984884,3.23438986728,24,5,7.668,29.366555401672,1.64042,2.3264176,1.83792984884,-0.671082,-2.23694,0,249.6, -14.8, 0.4,0,0,1064,1024,1024,1024,6,0,0,0,260,0,0,54,3.85,3.846,0,0,0,0,4.783,90.5,29.366555401672,1.64042,6,P-GPS,
3200,2022-11-08 20:50:06,-34.9200107391427,-56.1705492933512,1.64042,1.6076116,27.758943801672,29.366555401672,2.296588,2.8185444,2.19367789172,3.5975722936,24,5,7.668,29.366555401672,1.64042,2.8185444,2.19367789172,-0.894776,-2.684328,0,249.8, -9.5, 0.3,0,0,1024,1024,1024,1024,0,0,0,0,260,0,0,54,3.85,3.846,0,0,0,0,4.783,90.5,29.366555401672,1.64042,6,P-GPS,
3300,2022-11-08 20:50:06,-34.9200111776513,-56.170550614379,1.64042,1.6076116,27.758943801672,29.366555401672,2.296588,2.9751302,2.61205060852,4.02395026,24,5,7.668,29.366555401672,1.64042,2.9751302,2.61205060852,-0.671082,-2.908022,0,249.5, 7.6, 0.1,0,0,1024,1024,1024,1024,0,0,0,0,260,0,0,54,3.85,3.846,0,0,0,0,4.783,90.5,29.366555401672,1.64042,6,P-GPS,
3400,2022-11-08 20:50:06,-34.9200115306519,-56.1705518554732,1.312336,1.2795276,27.758943801672,29.038471401672,2.624672,2.7738056,2.99617463656,4.4169292752,24,5,7.668,29.366555401672,1.64042,2.9751302,2.99617463656,-0.671082,-2.684328,0,249.1, 12.6, -1.7,0,0,1024,1024,1024,1024,0,0,0,0,260,0,0,54,3.85,3.846,0,0,0,0,4.783,90.5,29.038471401672,1.312336,6,P-GPS,
3500,2022-11-08 20:50:06,-34.9200117998191,-56.1705530584905,1.64042,1.6076116,27.758943801672,29.366555401672,2.624672,2.0579848,3.3575460392,4.7899935916,24,5,7.668,29.366555401672,1.64042,2.9751302,3.3575460392,-0.447388,-2.013246,0,249.2, 12.3, -2,0,0,1024,1024,1024,1024,0,0,0,0,260,0,0,54,3.85,3.846,0,0,0,0,4.783,90.5,29.366555401672,1.64042,6,P-GPS,
3600,2022-11-08 20:50:06,-34.9200120278081,-56.1705542891607,1.64042,1.6076116,27.758943801672,29.366555401672,2.624672,1.5882274,3.7216536624,5.1674214252,24,5,7.668,29.366555401672,1.64042,2.9751302,3.7216536624,-0.223694,-1.565858,0,249.6, 10, -2.1,0,0,1038,1024,1024,1024,2,0,0,0,260,0,0,54,3.85,3.846,0,0,0,0,4.783,90.5,29.366555401672,1.64042,6,P-GPS,
3700,2022-11-08 20:50:07,-34.9200122528725,-56.1705549575538,1.64042,1.6076116,27.758943801672,29.366555401672,2.952756,1.1408394,3.9370736168,5.3835959728,24,5,7.668,29.366555401672,1.64042,2.9751302,3.9370736168,-0.223694,-1.11847,0,249.7, 7.6, -1.1,0,0,1684,1380,1024,1024,100,54,0,0,260,0,0,54,3.85,3.846,0,0,0,0,4.783,90.5,29.366555401672,1.64042,6,P-GPS,
3800,2022-11-08 20:50:07,-34.9200123563329,-56.1705554296844,1.64042,1.6076116,27.758943801672,29.366555401672,2.952756,0.671082,4.080216666,5.5297902032,24,5,7.668,29.366555401672,1.64042,2.9751302,4.080216666,0,-0.671082,0,249.5, 4.3, -0.9,0,0,1684,1332,1024,1024,100,47,0,0,260,0,0,54,3.85,3.846,0,0,0,0,4.783,90.5,29.366555401672,1.64042,6,P-GPS,
3900,2022-11-08 20:50:07,-34.9200122995446,-56.1705558031107,1.312336,1.2795276,27.758943801672,29.038471401672,2.952756,0.447388,4.1714568264,5.6434056924,24,5,7.668,29.366555401672,1.64042,2.9751302,4.1714568264,0,-0.447388,0,249.5, -8.3, 1.6,0,0,1684,1097,1024,1024,100,11,0,0,260,0,0,54,3.85,3.846,0,0,0,0,4.783,90.5,29.038471401672,1.312336,6,P-GPS,
4000,2022-11-08 20:50:07,-34.9200122711502,-56.1705561748713,1.312336,1.2795276,27.758943801672,29.038471401672,2.952756,0.894776,4.2676838636,5.7551182944,24,5,7.668,29.366555401672,1.64042,2.9751302,4.2676838636,0,-0.894776,0,249.2, -14.9, 2.7,0,0,1684,1097,1024,1024,100,11,0,0,260,0,0,54,3.85,3.846,0,0,0,0,4.783,90.5,29.038471401672,1.312336,6,P-GPS,
4100,2022-11-08 20:50:07,-34.9200119142539,-56.1705560439881,1.312336,1.2795276,27.758943801672,29.038471401672,2.952756,1.565858,4.1787402912,5.891076304,24,5,7.671,29.366555401672,1.64042,2.9751302,4.2676838636,0,-1.565858,0,249, -16.1, 2.2,0,0,1571,1024,1024,1024,83,0,0,0,260,0,0,54,3.838,3.835,0,0,0,0,4.397,90.5,29.038471401672,1.312336,6,P-GPS,
4200,2022-11-08 20:50:07,-34.9200119821734,-56.1705567349987,1.312336,1.2795276,27.758943801672,29.038471401672,2.952756,2.23694,4.3787074892,6.0992784104,24,5,7.671,29.366555401672,1.64042,2.9751302,4.3787074892,-0.223694,-2.23694,0,249.1, -16, -0.5,0,0,1024,1024,1024,1024,0,0,0,0,260,0,0,54,3.838,3.835,0,0,0,0,4.397,90.5,29.038471401672,1.312336,6,P-GPS,
4300,2022-11-08 20:50:07,-34.920012125284,-56.1705577485879,1.312336,1.2795276,27.758943801672,29.038471401672,2.952756,2.7290668,4.6791668164,6.4069555856,24,5,7.671,29.366555401672,1.64042,2.9751302,4.6791668164,-0.447388,-2.684328,0,249.2, -8, -1,0,0,1024,1024,1024,1024,0,0,0,0,260,0,0,54,3.838,3.835,0,0,0,0,4.397,90.5,29.038471401672,1.312336,6,P-GPS,
4400,2022-11-08 20:50:07,-34.9200122918021,-56.1705589042392,1.312336,1.2795276,27.758943801672,29.038471401672,2.952756,2.9527608,5.0232285072,6.7579726572,24,5,7.671,29.366555401672,1.64042,2.9751302,5.0232285072,-0.447388,-2.908022,0,248.9, 7.4, -2.2,0,0,1024,1024,1024,1024,0,0,0,0,260,0,0,54,3.838,3.835,0,0,0,0,4.397,90.5,29.038471401672,1.312336,6,P-GPS,
4500,2022-11-08 20:50:07,-34.9200123687355,-56.170560132539,0.984252,0.9514436,27.758943801672,28.710387401672,2.952756,2.7290668,5.3773951852,7.1265094144,24,5,7.671,29.366555401672,1.64042,2.9751302,5.3773951852,-0.447388,-2.684328,0,248.7, 12.2, -3.1,0,0,1024,1024,1024,1024,0,0,0,0,260,0,0,54,3.838,3.835,0,0,0,0,4.397,90.5,28.710387401672,0.984252,6,P-GPS,
4600,2022-11-08 20:50:07,-34.9200125079296,-56.1705612263601,0.984252,0.9186352,27.791752201672,28.710387401672,2.952756,2.23694,5.7027888964,7.4576445956,24,5,7.671,29.366555401672,1.64042,2.9751302,5.7027888964,-0.223694,-2.23694,0,249, 11.4, -3.1,0,0,1024,1024,1024,1024,0,0,0,0,260,0,0,54,3.838,3.835,0,0,0,0,4.397,90.5,28.710387401672,0.984252,6,P-GPS,
4700,2022-11-08 20:50:08,-34.9200126904432,-56.1705623263861,0.984252,0.9186352,27.791752201672,28.710387401672,3.28084,1.5882274,6.0356301144,7.7934057612,24,5,7.671,29.366555401672,1.64042,2.9751302,6.0356301144,-0.223694,-1.565858,0,249.1, 9.9, -3,0,0,1024,1024,1024,1024,0,0,0,0,260,0,0,54,3.838,3.835,0,0,0,0,4.397,90.5,28.710387401672,0.984252,6,P-GPS,
4800,2022-11-08 20:50:08,-34.9200128469741,-56.1705632301229,0.984252,0.9186352,27.791752201672,28.710387401672,3.28084,1.11847,6.310039572,8.0697509144,24,5,7.671,29.366555401672,1.64042,2.9751302,6.310039572,0,-1.11847,0,249.1, 7.9, -3,0,0,1024,1024,1024,1024,0,0,0,0,260,0,0,54,3.838,3.835,0,0,0,0,4.397,90.5,28.710387401672,0.984252,6,P-GPS,
4900,2022-11-08 20:50:08,-34.9200132543029,-56.1705650089228,0.984252,0.9186352,27.791752201672,28.710387401672,3.28084,0.671082,6.8619096684,8.6222443704,24,5,7.671,29.366555401672,1.64042,2.9751302,6.8619096684,0,-0.671082,0,249, 6.1, -2.3,0,0,1435,1024,1024,1024,62,0,0,0,260,0,0,54,3.838,3.835,0,0,0,0,4.397,90.5,28.710387401672,0.984252,6,P-GPS,
5000,2022-11-08 20:50:08,-34.9200133944615,-56.1705655306547,0.984252,0.9186352,27.791752201672,28.710387401672,3.28084,0.447388,7.0261485188,8.7864832208,24,5,7.671,29.366555401672,1.64042,2.9751302,7.0261485188,0,-0.447388,0,249, 4.8, -2,0,0,1435,1024,1024,1024,62,0,0,0,260,0,0,54,3.838,3.835,0,0,0,0,4.397,90.5,28.710387401672,0.984252,6,P-GPS,
5100,2022-11-08 20:50:08,-34.9200135129128,-56.1705657560355,0.984252,0.9186352,27.791752201672,28.710387401672,3.28084,0.223694,7.1037403848,8.8665685252,24,5,7.667,29.366555401672,1.64042,2.9751302,7.1037403848,0,-0.223694,0,249.3, 0.5, -0.8,0,0,1684,1024,1024,1024,100,0,0,0,260,0,0,54,3.831,3.828,0,0,0,0,4.611,90.5,28.710387401672,0.984252,6,P-GPS,
5200,2022-11-08 20:50:08,-34.9200136019928,-56.1705658905004,0.984252,0.9186352,27.791752201672,28.710387401672,3.28084,0.223694,7.1521983916,8.9182745636,24,5,7.667,29.366555401672,1.64042,2.9751302,7.1521983916,0,-0.223694,0,249.7, -9.8, -0.5,0,0,1684,1024,1024,1024,100,0,0,0,260,0,0,54,3.831,3.828,0,0,0,0,4.611,90.5,28.710387401672,0.984252,6,P-GPS,
5300,2022-11-08 20:50:08,-34.9200134662066,-56.1705654460953,0.984252,0.9186352,27.791752201672,28.710387401672,3.28084,0.7158208,7.0104004868,9.0601708936,24,5,7.667,29.366555401672,1.64042,2.9751302,7.1521983916,-0.223694,-0.671082,0,249.9, -15.6, -0.3,0,0,1684,1024,1024,1024,100,0,0,0,260,0,0,54,3.831,3.828,0,0,0,0,4.611,90.5,28.710387401672,0.984252,6,P-GPS,
5400,2022-11-08 20:50:08,-34.9200136073874,-56.1705658295277,0.984252,0.9186352,27.791752201672,28.710387401672,3.28084,1.4092722,7.1355317244,9.1858926824,24,5,7.667,29.366555401672,1.64042,2.9751302,7.1521983916,-0.447388,-1.342164,0,249.7, -16.2, 0,0,0,1684,1024,1024,1024,100,0,0,0,260,0,0,54,3.831,3.828,0,0,0,0,4.611,90.5,28.710387401672,0.984252,6,P-GPS,
5500,2022-11-08 20:50:08,-34.9200138791247,-56.1705665640542,0.984252,0.9186352,27.791752201672,28.710387401672,3.28084,2.125093,7.375492362,9.4269688056,24,5,7.667,29.366555401672,1.64042,2.9751302,7.375492362,-0.671082,-2.013246,0,249.7, -15.7, -0.9,0,0,1684,1024,1024,1024,100,0,0,0,260,0,0,54,3.831,3.828,0,0,0,0,4.611,90.5,28.710387401672,0.984252,6,P-GPS,
5600,2022-11-08 20:50:08,-34.9200142252484,-56.1705675520226,0.656168,0.5905512,27.791752201672,28.382303401672,3.28084,2.8185444,7.6959976216,9.7483927004,24,5,7.667,29.366555401672,1.64042,2.9751302,7.6959976216,-0.894776,-2.684328,0,249.7, -15.1, -0.5,0,0,1684,1024,1024,1024,100,0,0,0,260,0,0,54,3.831,3.828,0,0,0,0,4.611,90.5,28.382303401672,0.656168,6,P-GPS,"Punto de origen actualizado. Altitud de RPO establecida en 80m (Code: 3000001)"
5700,2022-11-08 20:50:09,-34.9200146868593,-56.1705689322782,0.656168,0.5577428,27.824560601672,28.382303401672,3.28084,3.3330406,8.1413060348,10.1943244732,24,5,7.667,29.366555401672,1.64042,3.3330406,8.1413060348,-1.11847,-3.131716,0,249.7, -15.4, -0.4,0,0,1684,1024,1024,1024,100,0,0,0,260,0,0,54,3.831,3.828,0,0,0,0,4.611,90.5,28.382303401672,0.656168,6,P-GPS,
5800,2022-11-08 20:50:09,-34.9200152575133,-56.1705704423206,0.656168,0.5577428,27.824560601672,28.382303401672,3.608924,3.9593838,8.636483216,10.6917326256,24,5,7.667,29.366555401672,1.64042,3.9593838,8.636483216,-1.11847,-3.802798,0,249.8, -15.5, -0.8,0,0,1684,1024,1024,1024,100,0,0,0,260,0,0,54,3.831,3.828,0,0,0,0,4.611,90.5,28.382303401672,0.656168,6,P-GPS,
5900,2022-11-08 20:50:09,-34.9200159292229,-56.1705724948214,0.656168,0.5577428,27.824560601672,28.382303401672,3.608924,4.4515106,9.2971131584,11.352854694,24,5,7.667,29.366555401672,1.64042,4.4515106,9.2971131584,-1.342164,-4.250186,0,249.8, -15.4, -1.1,0,0,1684,1024,1051,1024,100,0,4,0,260,0,0,54,3.831,3.828,0,0,0,0,4.611,90.5,28.382303401672,0.656168,6,P-GPS,
6000,2022-11-08 20:50:09,-34.9200166270282,-56.1705746918748,0.984252,0.8530184,27.857369001672,28.710387401672,3.608924,4.9436374,10.0017391652,12.0577103596,24,5,7.667,29.366555401672,1.64042,4.9436374,10.0017391652,-1.565858,-4.697574,0,249.8, -15.3, -0.5,0,0,1684,1024,1267,1024,100,0,37,0,260,0,0,54,3.831,3.828,0,0,0,0,4.611,90.5,28.710387401672,0.984252,6,P-GPS,
6100,2022-11-08 20:50:09,-34.9200173957572,-56.1705772466595,0.984252,0.8530184,27.857369001672,28.710387401672,3.937008,5.4581336,10.8158468028,12.8718508056,24,5,7.647,29.366555401672,1.64042,5.4581336,10.8158468028,-1.789552,-5.144962,0,249.9, -13.9, -0.7,0,0,1684,1024,1267,1024,100,0,37,0,260,0,0,53,3.822,3.819,0,0,0,0,4.853,90.5,28.710387401672,0.984252,6,P-GPS,
6200,2022-11-08 20:50:09,-34.9200182694597,-56.1705806102713,0.984252,0.8530184,27.857369001672,28.710387401672,3.937008,5.9502604,11.8706696712,13.9273954588,24,5,7.647,29.366555401672,1.64042,5.9502604,11.8706696712,-2.013246,-5.59235,-0.447388,250.1, -13.5, 0.7,0,0,1684,1024,1655,1024,100,0,96,0,260,0,0,53,3.822,3.819,0,0,0,0,4.853,90.5,28.710387401672,0.984252,6,P-GPS,
6300,2022-11-08 20:50:09,-34.9200192520376,-56.1705835850165,0.984252,0.82021,27.890177401672,28.710387401672,4.265092,6.4423872,12.8293311192,14.8868115,24,5,7.647,29.366555401672,1.64042,6.4423872,12.8293311192,-2.23694,-6.039738,-1.11847,250.1, -12, 0.9,0,0,1684,1024,1684,1026,100,0,100,0,260,0,0,53,3.822,3.819,0,0,0,0,4.853,90.5,28.710387401672,0.984252,6,P-GPS,
6400,2022-11-08 20:50:09,-34.9200202567452,-56.1705866186551,1.312336,1.148294,27.890177401672,29.038471401672,4.593176,6.8674058,13.80741514,15.8655844972,24,5,7.647,29.366555401672,1.64042,6.8674058,13.80741514,-2.23694,-6.487126,-1.789552,250.1, -12.3, 0.7,0,0,1684,1024,1684,1043,100,0,100,3,260,0,0,53,3.822,3.819,0,0,0,0,4.853,90.5,29.038471401672,1.312336,6,P-GPS,
6500,2022-11-08 20:50:09,-34.9200214563849,-56.1705901697328,1.64042,1.476378,27.890177401672,29.366555401672,5.249344,7.0687304,14.9554138644,17.0145346652,24,5,7.647,29.366555401672,1.64042,7.0687304,14.9554138644,-2.23694,-6.71082,-2.684328,250, -14.5, 0,0,0,1684,1024,1684,1064,100,0,100,6,260,0,0,53,3.822,3.819,0,0,0,0,4.853,90.5,29.366555401672,1.64042,6,P-GPS,
6600,2022-11-08 20:50:09,-34.9200228591982,-56.1705936225561,1.968504,1.7716536,27.922985801672,29.694639401672,5.905512,7.5608572,16.1018377856,18.167323416,24,5,7.647,29.694639401672,1.968504,7.5608572,16.1018377856,-2.460634,-7.158208,-3.35541,249.8, -15.1, -0.6,0,0,1684,1024,1684,1091,100,0,100,10,260,0,0,53,3.822,3.819,0,0,0,0,4.853,90.5,29.694639401672,1.968504,6,P-GPS,
6700,2022-11-08 20:50:10,-34.9200241239439,-56.1705973314791,2.296588,2.0669292,27.955794201672,30.022723401672,6.56168,8.0753534,17.302822076,19.3690294912,24,5,7.647,30.022723401672,2.296588,8.0753534,17.302822076,-2.684328,-7.605596,-4.026492,249.7, -15.2, -0.6,0,0,1684,1024,1684,1104,100,0,100,12,260.1,0,0,53,3.822,3.819,0,0,0,0,4.853,90.5,30.022723401672,2.296588,6,P-GPS,
6800,2022-11-08 20:50:10,-34.920025379269,-56.1706010195841,3.28084,3.0511812,27.955794201672,31.006975401672,7.545932,8.5674802,18.4968509856,20.563648952,24,5,7.647,31.006975401672,3.28084,8.5674802,18.4968509856,-2.908022,-8.052984,-4.697574,249.9, -14.4, 0,0,0,1684,1024,1684,1117,100,0,100,14,260.3,0,0,53,3.822,3.819,0,0,0,0,4.853,90.5,31.006975401672,3.28084,6,P-GPS,
6900,2022-11-08 20:50:10,-34.9200267132106,-56.1706050372391,3.937008,3.6745408,27.988602601672,31.663143401672,8.2021,8.9924988,19.79330772,21.8603353452,24,5,7.647,31.663143401672,3.937008,8.9924988,19.79330772,-2.908022,-8.500372,-5.368656,250.1, -13.6, 0.3,0,0,1684,1024,1684,1117,100,0,100,14,260.5,0,0,53,3.822,3.819,0,0,0,0,4.853,90.5,31.663143401672,3.937008,6,P-GPS,
7000,2022-11-08 20:50:10,-34.9200281453212,-56.170608609166,4.92126,4.6259844,28.021411001672,32.647395401672,9.186352,9.3056704,20.9782487028,23.0498366956,24,5,7.647,32.647395401672,4.92126,9.3056704,20.9782487028,-3.802798,-8.500372,-5.816044,246.4, -12.8, 0.3,0,0,1684,1024,1684,1125,100,0,100,15,260.9,0,0,53,3.822,3.819,0,0,0,0,4.853,90.5,32.647395401672,4.92126,6,P-GPS,
7100,2022-11-08 20:50:10,-34.9200296669523,-56.1706129055932,5.905512,5.577428,28.054219401672,33.631647401672,9.514436,9.3056704,22.3773629208,24.4499023572,24,5,7.603,33.631647401672,5.905512,9.3056704,22.3773629208,-3.802798,-8.724066,-6.263432,246.8, -12.8, -0.2,0,0,1684,1024,1544,1024,100,0,79,0,261.3,0,0,53,3.78,3.774,0,0,0,0,5.382,90.5,33.631647401672,5.905512,6,P-GPS,
7200,2022-11-08 20:50:10,-34.9200311595206,-56.1706171141567,6.56168,6.2007876,28.087027801672,34.287815401672,14.107612,9.8201666,23.7482947232,25.8216543696,24,5,7.603,34.287815401672,6.56168,9.8201666,23.7482947232,-4.026492,-8.94776,-6.487126,247.2, -13.3, -0.2,0,0,1684,1024,1024,1024,100,0,0,0,261.6,0,0,53,3.78,3.774,0,0,0,0,5.382,90.5,34.287815401672,6.56168,6,P-GPS,
7300,2022-11-08 20:50:10,-34.9200327726979,-56.1706216778786,7.545932,7.1522312,28.119836201672,35.272067401672,15.091864,10.0214912,25.2342855844,27.308399824,24,5,7.603,35.272067401672,7.545932,10.0214912,25.2342855844,-4.026492,-9.171454,-6.263432,247.7, -15.7, -0.4,0,0,1684,1024,1024,1024,100,0,0,0,261.7,0,0,53,3.78,3.774,0,0,0,0,5.382,90.5,35.272067401672,7.545932,6,P-GPS,
7400,2022-11-08 20:50:10,-34.9200343240742,-56.1706261119287,8.530184,8.1364832,28.119836201672,36.256319401672,16.076116,10.0214912,26.6759851056,28.7505914712,24,5,7.603,36.256319401672,8.530184,10.0214912,26.6759851056,-4.026492,-9.171454,-5.59235,247.7, -14, -0.3,0,0,1684,1024,1024,1024,100,0,0,0,261.7,0,0,53,3.78,3.774,0,0,0,0,5.382,90.5,36.256319401672,8.530184,6,P-GPS,
7500,2022-11-08 20:50:10,-34.9200359230808,-56.17063082042,9.186352,8.7598428,28.152644601672,36.912487401672,17.388452,10.2228158,28.2004274116,30.2752306276,24,5,7.603,36.912487401672,9.186352,10.2228158,28.2004274116,-4.026492,-9.395148,-4.921268,247.7, -14.8, -0.3,0,0,1684,1024,1024,1024,100,0,0,0,261.7,0,0,53,3.78,3.774,0,0,0,0,5.382,90.5,36.912487401672,9.186352,6,P-GPS,
7600,2022-11-08 20:50:10,-34.9200374854132,-56.1706353697235,9.84252,9.3832024,28.185453001672,37.568655401672,18.372704,10.2228158,29.6757227344,31.7507556092,24,5,7.603,37.568655401672,9.84252,10.2228158,29.6757227344,-4.026492,-9.395148,-4.250186,247.5, -16.2, -0.4,0,0,1684,1024,1024,1024,100,0,0,0,261.7,0,0,53,3.78,3.774,0,0,0,0,5.382,90.5,37.568655401672,9.84252,6,P-GPS,
7700,2022-11-08 20:50:11,-34.9200391220971,-56.1706401381611,10.170604,9.678478,28.218261401672,37.896739401672,18.700788,10.513618,31.2219826264,33.29724516,24,5,7.603,37.896739401672,10.170604,10.513618,31.2219826264,-4.250186,-9.618842,-3.35541,247.7, -17.2, -0.1,0,0,1684,1024,1024,1024,100,0,0,0,261.7,0,0,53,3.78,3.774,0,0,0,0,5.382,90.5,37.896739401672,10.170604,6,P-GPS,
7800,2022-11-08 20:50:11,-34.9200407151257,-56.1706447438062,10.826772,10.2690292,28.283878201672,38.552907401672,19.356956,10.7149426,32.7170942228,34.792652032,24,5,7.603,38.552907401672,10.826772,10.7149426,32.7170942228,-4.250186,-9.842536,-2.684328,247.8, -17.5, -0.2,0,0,1684,1024,1024,1024,100,0,0,0,261.7,0,0,53,3.78,3.774,0,0,0,0,5.382,90.5,38.552907401672,10.826772,6,P-GPS,
7900,2022-11-08 20:50:11,-34.9200423500737,-56.170649307199,10.826772,10.2690292,28.283878201672,38.552907401672,19.68504,10.9162672,34.206365924,36.282481476,24,5,7.603,38.552907401672,10.826772,10.9162672,34.206365924,-4.250186,-10.06623,-1.789552,247.8, -18.2, 0.6,0,0,1684,1024,1024,1024,100,0,0,0,261.7,0,0,53,3.78,3.774,0,0,0,0,5.382,90.5,38.552907401672,10.826772,6,P-GPS,
8000,2022-11-08 20:50:11,-34.9200440271756,-56.1706541670788,11.154856,10.5643048,28.316686601672,38.880991401672,22.637796,11.1399612,35.783465712,37.859909348,24,5,7.603,38.880991401672,11.154856,11.1399612,35.783465712,-4.250186,-10.289924,-1.11847,247.6, -17.4, -0.5,0,0,1684,1024,1024,1024,100,0,0,0,261.7,0,0,53,3.78,3.774,0,0,0,0,5.382,90.5,38.880991401672,11.154856,6,P-GPS,
8100,2022-11-08 20:50:11,-34.920045825551,-56.1706595484774,11.154856,10.498688,28.382303401672,38.880991401672,23.293964,11.3412858,37.521982828,39.598426464,24,5,7.603,38.880991401672,11.154856,11.3412858,37.521982828,-4.250186,-10.513618,-0.447388,247.8, -18, -0.3,0,0,1684,1024,1024,1024,100,0,0,0,261.7,0,0,53,3.78,3.774,0,0,0,0,5.382,90.5,38.880991401672,11.154856,6,P-GPS,
8200,2022-11-08 20:50:11,-34.9200475243438,-56.1706647062859,11.154856,10.4658796,28.415111801672,38.880991401672,23.293964,11.632088,39.18471254,41.261156176,24,5,7.634,38.880991401672,11.154856,11.632088,39.18471254,-4.47388,-10.737312,0,247.8, -17.3, -1.1,0,0,1684,1021,1024,1024,100,-0,0,0,261.7,0,0,53,3.844,3.842,0,0,0,0,6.538,90.5,38.880991401672,11.154856,6,P-GPS,
8300,2022-11-08 20:50:11,-34.9200490681608,-56.1706701469464,10.826772,10.1049872,28.447920201672,38.552907401672,23.622048,12.0571066,40.904856952,42.983269092,24,5,7.634,38.880991401672,11.154856,12.0571066,40.904856952,-4.47388,-11.1847,0,247.9, -15.4, -0.8,0,0,1684,1020,1024,1024,100,-1,0,0,261.7,0,0,53,3.844,3.842,0,0,0,0,6.538,90.5,38.552907401672,10.826772,6,P-GPS,
8400,2022-11-08 20:50:11,-34.9200507942463,-56.1706754133424,10.826772,10.0721788,28.480728601672,38.552907401672,23.622048,12.3479088,42.6017074,44.68011954,24,5,7.634,38.880991401672,11.154856,12.3479088,42.6017074,-4.697574,-11.408394,0,247.5, -14.6, -1.2,0,0,1684,1024,1024,1024,100,0,0,0,261.7,0,0,53,3.844,3.842,0,0,0,0,6.538,90.5,38.552907401672,10.826772,6,P-GPS,
8500,2022-11-08 20:50:11,-34.9200527111561,-56.1706811148095,10.826772,10.006562,28.546345401672,38.552907401672,23.622048,12.5492334,44.445211396,46.523623536,24,5,7.634,38.880991401672,11.154856,12.5492334,44.445211396,-4.697574,-11.632088,0,247.7, -13.6, -0.4,0,0,1684,1024,1024,1024,100,0,0,0,261.7,0,0,53,3.844,3.842,0,0,0,0,6.538,90.5,38.552907401672,10.826772,38,Tripod,"Error de calibración del estabilizador. Reinicia la aeronave o contacta con la Asistencia DJI (Code: 40011)"
8600,2022-11-08 20:50:11,-34.9200545787567,-56.1706866784133,10.826772,9.9737536,28.579153801672,38.552907401672,23.622048,12.750558,46.2434398,48.322180024,24,5,7.634,38.880991401672,11.154856,12.750558,46.2434398,-4.697574,-11.855782,0,247.6, -8, 0,0,0,1684,996,1024,1024,100,-4,0,0,261.7,0,0,53,3.844,3.842,0,0,0,0,6.538,90.5,38.552907401672,10.826772,38,Tripod,
8700,2022-11-08 20:50:12,-34.9200565010013,-56.1706928352939,10.826772,9.9081368,28.644770601672,38.552907401672,25.918636,12.750558,48.214240388,50.292980612,24,5,7.634,38.880991401672,11.154856,12.750558,48.214240388,-4.697574,-11.855782,0,247.9, -6.8, 0.8,0,0,1684,988,1024,1024,100,-5,0,0,261.7,0,0,53,3.844,3.842,0,0,0,0,6.538,90.5,38.552907401672,10.826772,38,Tripod,
8800,2022-11-08 20:50:12,-34.9200583789913,-56.1706985435627,10.826772,9.8753284,28.677579001672,38.552907401672,25.918636,12.750558,50.05413546,52.132875684,24,5,7.634,38.880991401672,11.154856,12.750558,50.05413546,-4.697574,-11.855782,0,247.9, -6.7, 0,0,0,1684,988,1024,1024,100,-5,0,0,261.7,0,0,53,3.844,3.842,0,0,0,0,6.538,90.5,38.552907401672,10.826772,38,Tripod,
8900,2022-11-08 20:50:12,-34.9200604500301,-56.1707048514294,10.826772,9.84252,28.710387401672,38.552907401672,25.918636,12.8400356,52.086943924,54.165684148,24,5,7.634,38.880991401672,11.154856,12.8400356,52.086943924,-4.921268,-11.855782,0,247.6, -7.2, -2.3,0,0,1684,988,1024,1024,100,-5,0,0,261.7,0,0,53,3.844,3.842,0,0,0,0,6.538,90.5,38.552907401672,10.826772,38,Tripod,
9000,2022-11-08 20:50:12,-34.9200622609673,-56.1707102141259,10.826772,9.7769032,28.776004201672,38.552907401672,28.543308,12.8400356,53.821852116,55.90059234,24,5,7.634,38.880991401672,11.154856,12.8400356,53.821852116,-4.921268,-11.855782,-0.223694,247.3, -7, -2.1,0,0,1684,984,1024,1024,100,-6,0,0,261.7,0,0,53,3.844,3.842,0,0,0,0,6.538,90.5,38.552907401672,10.826772,38,Tripod,
9100,2022-11-08 20:50:12,-34.9200643090222,-56.1707160679164,10.826772,9.7440948,28.808812601672,38.552907401672,29.199476,12.8400356,55.725395484,57.804791876,24,5,7.634,38.880991401672,11.154856,12.8400356,55.725395484,-4.921268,-11.855782,-0.223694,247.5, -5.1, -0.1,0,0,1684,996,1024,1024,100,-4,0,0,261.7,0,0,53,3.844,3.842,0,0,0,0,6.538,90.5,38.552907401672,10.826772,38,Tripod,
9200,2022-11-08 20:50:12,-34.920066201196,-56.1707216172376,10.826772,9.678478,28.874429401672,38.552907401672,29.52756,12.638711,57.523295804,59.602692196,24,5,7.653,38.880991401672,11.154856,12.8400356,57.523295804,-4.921268,-11.632088,-0.223694,247.5, -4.9, 0.1,0,0,1684,1024,1024,1024,100,0,0,0,261.7,0,0,53,3.831,3.83,0,0,0,0,3.692,90.68,38.552907401672,10.826772,38,Tripod,
9300,2022-11-08 20:50:12,-34.9200683094838,-56.1707274135111,10.498688,9.2847772,28.940046201672,38.224823401672,29.855644,12.638711,59.418965156,61.499673884,24,5,7.653,38.880991401672,11.154856,12.8400356,59.418965156,-4.921268,-11.632088,-0.223694,247.6, -4.5, 0.7,0,0,1684,1024,1024,1024,100,0,0,0,261.7,0,0,53,3.831,3.83,0,0,0,0,3.692,90.68,38.224823401672,10.498688,38,Tripod,
9400,2022-11-08 20:50:12,-34.9200702920036,-56.170732898827,10.498688,9.2519688,28.972854601672,38.224823401672,30.511812,12.638711,61.211288048,63.292981028,24,5,7.653,38.880991401672,11.154856,12.8400356,61.211288048,-4.921268,-11.632088,0,247.4, -3.5, 0.1,0,0,1684,985,1024,1024,100,-6,0,0,261.7,0,0,53,3.831,3.83,0,0,0,0,3.692,90.68,38.224823401672,10.498688,38,Tripod,
9500,2022-11-08 20:50:12,-34.9200723414851,-56.1707386131661,10.498688,9.186352,29.038471401672,38.224823401672,30.839896,12.638711,63.076445588,65.158794736,24,5,7.653,38.880991401672,11.154856,12.8400356,63.076445588,-4.921268,-11.632088,0,247.5, -3.6, 0,0,0,1684,923,1024,1024,100,-15,0,0,261.7,0,0,53,3.831,3.83,0,0,0,0,3.692,90.68,38.224823401672,10.498688,6,P-GPS,"Error de calibración del estabilizador. Reinicia la aeronave o contacta con la Asistencia DJI (Code: 40011)"
9600,2022-11-08 20:50:12,-34.9200742547114,-56.170743699363,10.498688,9.1207352,29.104088201672,38.224823401672,30.511812,12.638711,64.74901782,66.833007388,24,5,7.653,38.880991401672,11.154856,12.8400356,64.74901782,-4.921268,-11.632088,0,247.6, -10.9, 0.2,0,0,1684,913,1024,1024,100,-17,0,0,261.7,0,0,53,3.831,3.83,0,0,0,0,3.692,90.68,38.224823401672,10.498688,31,Sport,
9700,2022-11-08 20:50:13,-34.9200762827299,-56.1707493610435,10.498688,9.0879268,29.136896601672,38.224823401672,30.511812,12.9295132,66.596786908,68.68110456,24,5,7.653,38.880991401672,11.154856,12.9295132,66.596786908,-5.144962,-11.855782,0.223694,247.8, -17.8, -0.2,0,0,1684,1001,1024,1024,100,-3,0,0,261.7,0,0,53,3.831,3.83,0,0,0,0,3.692,90.68,38.224823401672,10.498688,31,Sport,
9800,2022-11-08 20:50:13,-34.9200782879893,-56.1707549195591,10.170604,8.694226,29.202513401672,37.896739401672,30.511812,13.1308378,68.412731848,70.497705668,24,5,7.653,38.880991401672,11.154856,13.1308378,68.412731848,-5.144962,-12.079476,0.223694,247.7, -19.9, -2.5,0,0,1684,1001,1024,1024,100,-3,0,0,261.7,0,0,53,3.831,3.83,0,0,0,0,3.692,90.68,37.896739401672,10.170604,31,Sport,
9900,2022-11-08 20:50:13,-34.9200805470515,-56.1707610581555,10.170604,8.5958008,29.300938601672,37.896739401672,30.511812,13.9137668,70.424542936,72.510829092,24,5,7.653,38.880991401672,11.154856,13.9137668,70.424542936,-5.59235,-12.750558,0.223694,247.9, -21.4, 0,0,0,1684,987,1024,1024,100,-6,0,0,261.7,0,0,53,3.831,3.83,0,0,0,0,3.692,90.68,37.896739401672,10.170604,31,Sport,
10000,2022-11-08 20:50:13,-34.9200827961281,-56.1707671587833,10.170604,8.530184,29.366555401672,37.896739401672,30.511812,14.3387854,72.424543,74.511813408,24,5,7.653,38.880991401672,11.154856,14.3387854,72.424543,-5.59235,-13.197946,0.223694,248, -23.8, 0.6,0,0,1684,1008,1024,1106,100,-2,0,12,261.7,0,0,53,3.831,3.83,0,0,0,0,3.692,90.68,37.896739401672,10.170604,31,Sport,
10100,2022-11-08 20:50:13,-34.9200852420184,-56.1707739683384,10.498688,8.7926512,29.432172201672,38.224823401672,30.511812,14.8309122,74.647968268,76.735894844,24,5,7.653,38.880991401672,11.154856,14.8309122,74.647968268,-5.816044,-13.645334,0,247.8, -22.8, 0.1,0,0,1684,1001,1614,1656,100,-3,89,96,261.8,0,0,53,3.831,3.83,0,0,0,0,3.692,90.68,38.224823401672,10.498688,31,Sport,
10200,2022-11-08 20:50:13,-34.9200876203674,-56.1707806892724,10.498688,8.7270344,29.497789001672,38.224823401672,30.511812,15.546733,76.837600884,78.925855544,24,5,7.689,38.880991401672,11.154856,15.546733,76.837600884,-6.039738,-14.316416,0,248, -21.9, -0.8,0,0,1684,1024,1684,1684,100,0,100,100,262.8,0,0,53,3.83,3.823,0,0,0,0,3.226,90.68,38.224823401672,10.498688,31,Sport,
10300,2022-11-08 20:50:13,-34.92009019028,-56.1707879853765,10.498688,8.6286092,29.596214201672,38.224823401672,30.511812,16.0388598,79.212929044,81.301183704,24,5,7.689,38.880991401672,11.154856,16.0388598,79.212929044,-6.263432,-14.763804,-0.671082,250.2, -19.9, -1.3,0,0,1684,1023,1684,1684,100,-0,100,100,266.3,0,0,53,3.83,3.823,0,0,0,0,3.226,90.68,38.224823401672,10.498688,31,Sport,
10400,2022-11-08 20:50:13,-34.9200926590141,-56.1707953610746,10.826772,8.8910764,29.661831001672,38.552907401672,30.511812,16.7323112,81.59613122,83.68438588,24,5,7.689,38.880991401672,11.154856,16.7323112,81.59613122,-6.487126,-15.434886,-1.565858,254, -19, -2,0,0,1684,1024,1684,1684,100,0,100,100,270.3,0,0,53,3.83,3.823,0,0,0,0,3.226,90.68,38.552907401672,10.826772,31,Sport,
10500,2022-11-08 20:50:13,-34.9200953351794,-56.1708031731915,11.154856,9.1207352,29.760256201672,38.880991401672,30.511812,17.1573298,84.1289397,86.217522444,24,5,7.689,38.880991401672,11.154856,17.1573298,84.1289397,-6.487126,-15.882274,-2.460634,257.8, -18.7, -0.9,0,0,1684,1024,1684,1684,100,0,100,100,274.3,0,0,53,3.83,3.823,0,0,0,0,3.226,90.68,38.880991401672,11.154856,31,Sport,
10600,2022-11-08 20:50:13,-34.9200979126936,-56.1708108535156,11.811024,9.678478,29.858681401672,39.537159401672,30.511812,17.559979,86.611551328,88.700134072,24,5,7.689,39.537159401672,11.811024,17.559979,86.611551328,-6.487126,-16.329662,-3.579104,261.9, -19, 0,0,0,1684,1024,1684,1684,100,0,100,100,278.3,0,0,53,3.83,3.823,0,0,0,0,3.226,90.68,39.537159401672,11.811024,31,Sport,
10700,2022-11-08 20:50:14,-34.9201006004795,-56.1708192294769,12.467192,10.2362208,29.957106601672,40.193327401672,30.511812,18.1863222,89.301840128,91.390750956,24,5,7.689,40.193327401672,12.467192,18.1863222,89.301840128,-6.487126,-17.000744,-4.697574,265.6, -18.8, 0,0,0,1684,1024,1684,1684,100,0,100,100,282.3,0,0,53,3.83,3.823,0,0,0,0,3.226,90.68,40.193327401672,12.467192,31,Sport,
10800,2022-11-08 20:50:14,-34.9201031317264,-56.1708274582657,13.451444,11.154856,30.022723401672,41.177579401672,30.511812,18.6113408,91.929792968,94.020016132,24,5,7.689,41.177579401672,13.451444,18.6113408,91.929792968,-6.487126,-17.448132,-5.59235,269.4, -17.6, 0.6,0,0,1684,1024,1684,1684,100,0,100,100,286.3,0,0,53,3.83,3.823,0,0,0,0,3.226,90.68,41.177579401672,13.451444,31,Sport,
10900,2022-11-08 20:50:14,-34.9201056437771,-56.1708365038693,14.435696,12.0734912,30.088340201672,42.161831401672,30.511812,18.6113408,94.781499096,96.876971604,24,5,7.689,42.161831401672,14.435696,18.6113408,94.781499096,-6.263432,-17.89552,-6.71082,273.4, -18.2, 1.5,0,0,1684,1024,1684,1684,100,0,100,100,290.3,0,0,53,3.83,3.823,0,0,0,0,3.226,90.68,42.161831401672,14.435696,31,Sport,
11000,2022-11-08 20:50:14,-34.9201080826977,-56.1708453223511,15.748032,13.4186356,30.055531801672,43.474167401672,30.511812,19.3047922,97.560042492,99.661420512,24,5,7.689,43.474167401672,15.748032,19.3047922,97.560042492,-6.039738,-18.342908,-7.82929,277.4, -18.9, 2.4,0,0,1684,1024,1684,1684,100,0,100,100,294.3,0,0,53,3.83,3.823,0,0,0,0,3.226,90.68,43.474167401672,15.748032,31,Sport,
11100,2022-11-08 20:50:14,-34.9201105554834,-56.1708549807591,17.060368,14.7309716,30.055531801672,44.786503401672,30.511812,19.5955944,100.576774872,102.688323496,24,5,7.689,44.786503401672,17.060368,19.5955944,100.576774872,-5.59235,-18.790296,-8.500372,281.6, -20.3, 3.3,0,0,1684,1024,1684,1684,100,0,100,100,298.2,0,0,53,3.83,3.823,0,0,0,0,3.226,90.68,44.786503401672,17.060368,31,Sport,
11200,2022-11-08 20:50:14,-34.9201126748902,-56.1708642853094,18.700788,16.4370084,29.989915001672,46.426923401672,30.511812,19.8640272,103.44816604,105.577103116,24,5,7.689,46.426923401672,18.700788,19.8640272,103.44816604,-4.921268,-19.237684,-9.618842,285.3, -20, 2.6,0,0,1684,1024,1684,1684,100,0,100,100,302.2,0,0,53,3.83,3.823,0,0,0,0,3.226,90.68,46.426923401672,18.700788,31,Sport,
11300,2022-11-08 20:50:14,-34.9201144353619,-56.1708742192139,20.341208,18.1430452,29.924298201672,48.067343401672,30.511812,19.9758742,106.447181884,108.617785628,24,5,7.553,48.067343401672,20.341208,19.9758742,106.447181884,-4.47388,-19.461378,-10.289924,289.2, -20.6, 1.9,0,0,1684,1167,1684,1684,100,22,100,100,306.2,0,0,53,3.763,3.761,0,0,0,0,6.06,90.68,48.067343401672,20.341208,31,Sport,
11400,2022-11-08 20:50:14,-34.9201160365197,-56.1708837765257,21.981628,19.849082,29.858681401672,49.707763401672,30.511812,20.0429824,109.322181976,111.535764724,24,5,7.553,49.707763401672,21.981628,20.0429824,109.322181976,-3.802798,-19.685072,-10.289924,293.1, -24.5, 3.7,0,0,1684,1050,1684,1684,100,4,100,100,310.2,0,0,53,3.763,3.761,0,0,0,0,6.06,90.68,49.707763401672,21.981628,31,Sport,
11500,2022-11-08 20:50:14,-34.9201174223646,-56.1708942743791,23.950132,21.8832028,29.793064601672,51.676267401672,30.511812,20.7811726,112.4343868,114.716867188,24,5,7.553,51.676267401672,23.950132,20.7811726,112.4343868,-2.908022,-20.579848,-10.737312,296.4, -21.2, 4.8,0,0,1684,1030,1684,1684,100,1,100,100,314.2,0,0,53,3.763,3.761,0,0,0,0,6.06,90.68,51.676267401672,23.950132,31,Sport,"Error de calibración del estabilizador. Reinicia la aeronave o contacta con la Asistencia DJI (Code: 40011)"
11600,2022-11-08 20:50:14,-34.9201183485324,-56.1709044873326,25.918636,23.950132,29.694639401672,53.644771401672,30.511812,20.8930196,115.411421016,117.790686184,24,5,7.553,53.644771401672,25.918636,20.8930196,115.411421016,-2.013246,-20.803542,-11.1847,300.4, -18.6, 3.8,0,0,1684,1030,1684,1684,100,1,100,100,318.2,0,0,53,3.763,3.761,0,0,0,0,6.06,90.68,53.644771401672,25.918636,31,Sport,
11700,2022-11-08 20:50:15,-34.920118510517,-56.1709154486864,27.559056,25.6889772,29.596214201672,55.285191401672,30.511812,21.0719748,118.507877808,121.070541932,24,5,7.553,55.285191401672,27.559056,21.0719748,118.507877808,-1.342164,-21.027236,-11.1847,304.4, -19.2, 3.2,0,0,1684,1024,1684,1684,100,0,100,100,322.2,0,0,53,3.763,3.761,0,0,0,0,6.06,90.68,55.285191401672,27.559056,31,Sport,
11800,2022-11-08 20:50:15,-34.9201187911044,-56.1709257204629,29.52756,27.7559064,29.497789001672,57.253695401672,30.511812,21.027236,121.434059004,124.145017096,24,5,7.553,57.253695401672,29.52756,21.0719748,121.434059004,-0.671082,-21.027236,-10.961006,308.1, -20.6, 4.4,0,0,1684,1024,1684,1684,100,0,100,100,326.2,0,0,53,3.763,3.761,0,0,0,0,6.06,90.68,57.253695401672,29.52756,31,Sport,
11900,2022-11-08 20:50:15,-34.9201187225143,-56.170936406153,31.496064,29.8228356,29.399363801672,59.222199401672,30.511812,21.474624,124.442917368,127.341867592,24,5,7.553,59.222199401672,31.496064,21.474624,124.442917368,0,-21.474624,-10.961006,312.1, -20.5, 4,0,0,1684,1024,1684,1684,100,0,100,100,330.2,0,0,53,3.763,3.761,0,0,0,0,6.06,90.68,59.222199401672,31.496064,31,Sport,
12000,2022-11-08 20:50:15,-34.9201182761643,-56.1709472697123,33.464568,31.9225732,29.268130201672,61.190703401672,30.511812,21.4969934,127.46719568,130.595804704,24,5,7.553,61.190703401672,33.464568,21.4969934,127.46719568,0.894776,-21.474624,-10.961006,316, -21.9, 4.8,0,0,1684,1024,1684,1684,100,0,100,100,334.2,0,0,53,3.763,3.761,0,0,0,0,6.06,90.68,61.190703401672,33.464568,31,Sport,
12100,2022-11-08 20:50:15,-34.920116655615,-56.1709577619028,35.433072,34.0223108,29.136896601672,63.159207401672,30.511812,21.7654262,130.265424116,133.790030528,24,5,7.553,63.159207401672,35.433072,21.7654262,130.265424116,1.789552,-21.698318,-10.961006,320, -23.1, 6.1,0,0,1684,1024,1684,1684,100,0,100,100,338.2,0,0,53,3.763,3.761,0,0,0,0,6.06,90.68,63.159207401672,35.433072,31,Sport,
12200,2022-11-08 20:50:15,-34.9201155132486,-56.1709679179139,37.073492,35.761156,29.038471401672,64.799627401672,30.511812,21.8996426,133.036749664,136.856631676,24,5,7.553,64.799627401672,37.073492,21.8996426,133.036749664,2.908022,-21.698318,-10.961006,323.8, -22, 5.5,0,0,1684,1024,1684,1684,100,0,100,100,342.2,0,0,53,3.763,3.761,0,0,0,0,6.06,90.68,64.799627401672,37.073492,31,Sport,
12300,2022-11-08 20:50:15,-34.9201139747924,-56.1709793727961,39.041996,37.8608936,28.907237801672,66.768131401672,30.511812,22.033859,136.15157916,140.329072732,24,5,7.507,66.768131401672,39.041996,22.033859,136.15157916,3.802798,-21.698318,-10.961006,327.9, -22.5, 5.8,0,0,1684,1024,1684,1684,100,0,100,100,346.2,0,0,53,3.764,3.759,0,0,0,0,8.346,90.68,66.768131401672,39.041996,31,Sport,
12400,2022-11-08 20:50:15,-34.9201120921157,-56.1709901214676,41.0105,39.9606312,28.776004201672,68.736635401672,30.511812,22.033859,139.045936208,143.61713058,24,5,7.507,68.736635401672,41.0105,22.033859,139.045936208,4.921268,-21.474624,-11.1847,332, -23.5, 6.3,0,0,1684,1024,1684,1684,100,0,100,100,350.2,0,0,53,3.764,3.759,0,0,0,0,8.346,90.68,68.736635401672,41.0105,31,Sport,
12500,2022-11-08 20:50:15,-34.9201095850024,-56.1710010924755,42.65092,41.7322848,28.644770601672,70.377055401672,30.511812,22.1009672,141.961618716,147.02428292,24,5,7.507,70.377055401672,42.65092,22.1009672,141.961618716,6.039738,-21.25093,-11.1847,335.8, -23, 6.3,0,0,1684,1024,1684,1684,100,0,100,100,354.2,0,0,53,3.764,3.759,0,0,0,0,8.346,90.68,70.377055401672,42.65092,31,Sport,"Error de calibración del estabilizador. Reinicia la aeronave o contacta con la Asistencia DJI (Code: 40011)"
12600,2022-11-08 20:50:15,-34.9201065821517,-56.1710115864214,44.29134,43.5039384,28.513537001672,72.017475401672,30.511812,22.2128142,144.714899644,150.34941426,24,5,7.507,72.017475401672,44.29134,22.2128142,144.714899644,7.158208,-21.027236,-11.1847,339.8, -23.9, 6.1,0,0,1684,1024,1684,1684,100,0,100,100,358.2,0,0,53,3.764,3.759,0,0,0,0,8.346,90.68,72.017475401672,44.29134,31,Sport,
12700,2022-11-08 20:50:16,-34.9201032311201,-56.1710226639585,46.259844,45.5708676,28.415111801672,73.985979401672,30.511812,22.3022918,147.631566404,153.881566604,24,5,7.507,73.985979401672,46.259844,22.3022918,147.631566404,8.052984,-20.803542,-10.961006,343.6, -24.7, 5.8,0,0,1684,1024,1684,1684,100,0,100,100,2.1,0,0,53,3.764,3.759,0,0,0,0,8.346,90.68,73.985979401672,46.259844,31,Sport,
12800,2022-11-08 20:50:16,-34.9200996978265,-56.1710330331953,48.228348,47.6706052,28.283878201672,75.954483401672,30.511812,22.4365082,150.353023184,157.24081868,24,5,7.507,75.954483401672,48.228348,22.4365082,150.353023184,8.94776,-20.579848,-10.737312,347.1, -25.8, 7.8,0,0,1684,1024,1684,1684,100,0,100,100,6.1,-3.9,0,53,3.764,3.759,0,0,0,0,8.346,90.68,75.954483401672,48.228348,31,Sport,"El ángulo de posición de vuelo es mayor en el modo Sport. El estabilizador rotará cuando la aeronave comience a moverse o se detenga. Si es necesario, usa el modo Normal para una captura estable (Code: 40022). Error de calibración del estabilizador. "
12900,2022-11-08 20:50:16,-34.9200955652134,-56.1710436444946,49.868768,49.4094504,28.185453001672,77.594903401672,30.511812,22.5036164,153.124348732,160.755254488,24,5,7.507,77.594903401672,49.868768,22.5036164,153.124348732,10.06623,-20.13246,-10.737312,351.4, -26.7, 9.8,0,0,1684,1024,1684,1684,100,0,100,100,10.1,-5,0,53,3.764,3.759,0,0,0,0,8.346,90.68,77.594903401672,49.868768,31,Sport,
13000,2022-11-08 20:50:16,-34.9200908436182,-56.1710537231895,51.837272,51.509188,28.054219401672,79.563407401672,30.511812,22.5259858,155.727367188,164.227695544,24,5,7.507,79.563407401672,51.837272,22.5259858,155.727367188,10.961006,-19.685072,-10.961006,355.2, -26.6, 9.5,0,0,1684,1024,1684,1684,100,0,100,100,14.1,-5.1,0,53,3.764,3.759,0,0,0,0,8.346,90.68,79.563407401672,51.837272,31,Sport,
13100,2022-11-08 20:50:16,-34.9200858034277,-56.1710635438989,53.805776,53.5433088,27.988602601672,81.531911401672,30.511812,22.3470306,158.266737348,167.693903004,24,5,7.507,81.531911401672,53.805776,22.5259858,158.266737348,12.079476,-18.790296,-10.961006,359.1, -26.2, 8.7,0,0,1684,1024,1684,1684,100,0,100,100,18.1,-5.1,0,53,3.764,3.759,0,0,0,0,8.346,90.68,81.531911401672,53.805776,31,Sport,
13200,2022-11-08 20:50:16,-34.9200806546331,-56.1710724583783,55.446196,55.282154,27.890177401672,83.172331401672,30.511812,22.1009672,160.566934272,170.955714132,24,5,7.507,83.172331401672,55.446196,22.5259858,160.566934272,12.974252,-17.89552,-11.1847,3.4, -26.8, 8.2,0,0,1684,1024,1684,1684,100,0,100,100,22.1,-5.1,0,53,3.764,3.759,0,0,0,0,8.346,90.68,83.172331401672,55.446196,31,Sport,
13300,2022-11-08 20:50:16,-34.9200749312061,-56.1710813774131,57.4147,57.3162748,27.824560601672,85.140835401672,30.511812,21.9667508,162.869427784,174.344165684,24,5,7.49,85.140835401672,57.4147,22.5259858,162.869427784,13.645334,-17.224438,-11.408394,7.4, -27.7, 7.5,0,0,1684,1024,1684,1684,100,0,100,100,26.1,-5.1,0,53,3.714,3.709,0,0,0,0,8.356,90.68,85.140835401672,57.4147,31,Sport,
13400,2022-11-08 20:50:16,-34.9200688646138,-56.1710888948088,59.05512,59.0223116,27.758943801672,86.781255401672,30.511812,21.7206874,164.776580076,177.499349512,24,5,7.49,86.781255401672,59.05512,22.5259858,164.776580076,14.316416,-16.329662,-11.1847,11.3, -29.5, 9.5,0,0,1684,1024,1397,1663,100,0,57,97,30.1,-5.1,0,53,3.714,3.709,0,0,0,0,8.356,90.68,86.781255401672,59.05512,31,Sport,
13500,2022-11-08 20:50:16,-34.9200624731014,-56.1710969387491,61.023624,61.0564324,27.693327001672,88.749759401672,30.511812,21.5193628,166.863850484,180.850399488,24,5,7.49,88.749759401672,61.023624,22.5259858,166.863850484,15.211192,-15.211192,-11.408394,15.9, -28.9, 7.4,0,0,1684,1024,1024,1024,100,0,0,0,34.1,-5.1,0,53,3.714,3.709,0,0,0,0,8.356,90.68,88.749759401672,61.023624,31,Sport,
13600,2022-11-08 20:50:16,-34.9200561576667,-56.1711040628769,62.664044,62.7296608,27.660518601672,90.390179401672,30.511812,21.362777,168.721134008,183.989179116,24,5,7.49,90.390179401672,62.664044,22.5259858,168.721134008,15.65858,-14.54011,-10.961006,19.4, -30.9, 7.4,0,0,1684,1024,1024,768,100,0,0,-39,37.3,-7.3,0,53,3.714,3.709,0,0,0,0,8.356,90.68,90.390179401672,62.664044,31,Sport,
13700,2022-11-08 20:50:17,-34.9200493758911,-56.1711110346289,64.304464,64.4028892,27.627710201672,92.030599401672,30.511812,21.1167136,170.555123568,187.225071608,24,5,7.49,92.030599401672,64.304464,22.5259858,170.555123568,16.105968,-13.645334,-10.289924,21.1, -32.8, 8.6,0,0,1684,1024,1024,768,100,0,0,-39,38,-11.4,0,53,3.714,3.709,0,0,0,0,8.356,90.68,92.030599401672,64.304464,31,Sport,
13800,2022-11-08 20:50:17,-34.9200429597632,-56.171116073433,65.6168,65.7480336,27.594901801672,93.342935401672,30.511812,20.8930196,171.863850644,190.009520516,24,5,7.49,93.342935401672,65.6168,22.5259858,171.863850644,16.553356,-12.750558,-9.395148,20.9, -34.1, 11,0,0,1684,977,931,364,100,-7,-14,-100,37.2,-11.4,0,53,3.714,3.709,0,0,0,0,8.356,90.68,93.342935401672,65.6168,31,Sport,
13900,2022-11-08 20:50:17,-34.9200358622356,-56.1711218344963,66.929136,67.0603696,27.594901801672,94.655271401672,30.511812,20.7364338,173.407813948,193.12008492,24,5,7.49,94.655271401672,66.929136,22.5259858,173.407813948,17.000744,-11.855782,-8.500372,18.5, -34.7, 12.3,0,0,1684,971,799,364,100,-8,-34,-100,34,-11.4,0,53,3.714,3.709,0,0,0,0,8.356,90.68,94.655271401672,66.929136,31,Sport,
14000,2022-11-08 20:50:17,-34.9200289706997,-56.1711270948428,67.913388,68.0446216,27.594901801672,95.639523401672,30.511812,20.6693256,174.84744654,196.086292364,24,5,7.49,95.639523401672,67.913388,22.5259858,174.84744654,17.224438,-11.408394,-7.381902,14.3, -36.4, 11.8,0,0,1684,970,893,364,100,-8,-20,-100,30,-14.5,0,53,3.714,3.709,0,0,0,0,8.356,90.68,95.639523401672,67.913388,31,Sport,
14100,2022-11-08 20:50:17,-34.9200215659841,-56.1711326038969,68.89764,69.0288736,27.594901801672,96.623775401672,30.511812,20.4903704,176.393706432,199.250990628,24,5,7.49,96.623775401672,68.89764,22.5259858,176.393706432,17.448132,-10.737312,-6.263432,10.7, -35.9, 12.1,0,0,1684,1024,1024,1024,100,0,0,0,26,-15.1,0,53,3.714,3.709,0,0,0,0,8.356,90.68,96.623775401672,68.89764,31,Sport,
14200,2022-11-08 20:50:17,-34.9200143944999,-56.1711376781829,69.553808,69.6850416,27.594901801672,97.279943401672,30.511812,20.4456316,177.8543364,202.275925108,24,5,7.49,97.279943401672,69.553808,22.5259858,177.8543364,17.671826,-10.289924,-5.144962,6.7, -35.6, 12.6,0,0,1684,1024,1024,1024,100,0,0,0,23.4,-15.1,0,53,3.714,3.709,0,0,0,0,8.356,90.68,97.279943401672,69.553808,31,Sport,
14300,2022-11-08 20:50:17,-34.9200065679687,-56.171143491445,69.881892,70.0131256,27.594901801672,97.608027401672,30.511812,20.5351092,179.57513698,205.619429152,24,5,7.518,97.608027401672,69.881892,22.5259858,179.57513698,17.89552,-10.06623,-4.026492,5.3, -35.7, 12.4,0,0,1684,1024,1024,1024,100,0,0,0,23,-15.1,0,53,3.789,3.79,0,0,0,0,9.16,90.86,97.608027401672,69.881892,31,Sport,
14400,2022-11-08 20:50:17,-34.9199992749568,-56.1711480367208,70.53806,70.6692936,27.594901801672,98.264195401672,30.511812,20.5127398,180.958667208,208.607618224,24,5,7.518,98.264195401672,70.53806,22.5259858,180.958667208,18.119214,-9.618842,-2.908022,5.2, -36.1, 11.7,0,0,1684,1024,1024,1024,100,0,0,0,23,-15.1,0,53,3.789,3.79,0,0,0,0,9.16,90.86,98.264195401672,70.53806,31,Sport,
14500,2022-11-08 20:50:17,-34.9199915907187,-56.1711522337809,70.53806,70.9973776,27.266817801672,98.264195401672,30.511812,20.3114152,182.280845728,211.679468716,24,5,7.518,98.264195401672,70.53806,22.5259858,182.280845728,18.119214,-9.171454,-1.789552,5.1, -37.2, 11.7,0,0,1684,1024,1024,1024,100,0,0,0,23,-15.1,0,53,3.789,3.79,0,0,0,0,9.16,90.86,98.264195401672,70.53806,31,Sport,
14600,2022-11-08 20:50:17,-34.9199842523606,-56.1711561822588,70.866144,71.686354,26.905925401672,98.592279401672,30.511812,20.7140644,183.564966504,214.605649912,24,5,7.518,98.592279401672,70.866144,22.5259858,183.564966504,18.566602,-9.171454,-0.671082,5.3, -36.9, 11.8,0,0,1684,1024,1024,1024,100,0,0,0,23,-15.1,0,53,3.789,3.79,0,0,0,0,9.16,90.86,98.592279401672,70.866144,31,Sport,
14700,2022-11-08 20:50:18,-34.9199766604407,-56.1711597428181,70.866144,72.014438,26.577841401672,98.592279401672,30.511812,20.915389,184.776252632,217.573497776,24,5,7.518,98.592279401672,70.866144,22.5259858,184.776252632,19.01399,-8.724066,0,5, -36.9, 12.2,0,0,1684,1024,1024,1024,100,0,0,0,23,-15.1,0,53,3.789,3.79,0,0,0,0,9.16,90.86,98.592279401672,70.866144,31,Sport,
14800,2022-11-08 20:50:18,-34.9199690641924,-56.1711635430578,71.194228,72.7034144,26.216949001672,98.920363401672,30.511812,20.915389,186.098759236,220.568904696,23,5,7.518,98.920363401672,71.194228,22.5259858,186.098759236,19.908766,-8.500372,0,5, -35.9, 12.2,0,0,1684,1024,1024,1024,100,0,0,0,23,-15.1,0,53,3.789,3.79,0,0,0,0,9.16,90.86,98.920363401672,71.194228,31,Sport,
14900,2022-11-08 20:50:18,-34.9199609682821,-56.1711673694179,71.194228,73.0314984,25.888865001672,98.920363401672,30.511812,22.0114896,187.483929884,223.7368838,23,5,7.518,98.920363401672,71.194228,22.5259858,187.483929884,20.579848,-7.82929,0,5.3, -35.7, 12.5,0,0,1684,1024,1024,1024,100,0,0,0,23,-15.1,0,53,3.789,3.79,0,0,0,0,9.16,90.86,98.920363401672,71.194228,31,Sport,
15000,2022-11-08 20:50:18,-34.9199528710918,-56.1711708331856,71.194228,73.3923908,25.527972601672,98.920363401672,30.511812,22.6378328,188.8041399,226.867461328,23,5,7.518,98.920363401672,71.194228,22.6378328,188.8041399,21.474624,-7.158208,0,5.2, -35.4, 12.6,0,0,1684,1024,1024,1024,100,0,0,0,23,-15.1,0,53,3.789,3.79,0,0,0,0,9.16,90.86,98.920363401672,71.194228,31,Sport,
15100,2022-11-08 20:50:18,-34.9199443263498,-56.1711752625288,71.522312,74.1141756,25.134271801672,99.248447401672,30.511812,22.8615268,190.473103208,230.254928628,23,5,7.518,99.248447401672,71.522312,22.8615268,190.473103208,21.922012,-6.487126,0,4.9, -35.6, 12.1,0,0,1684,1024,1024,1024,100,0,0,0,23,-15.1,0,53,3.789,3.79,0,0,0,0,9.16,90.86,99.248447401672,71.522312,31,Sport,
15200,2022-11-08 20:50:18,-34.9199355177705,-56.1711783038155,71.522312,74.475068,24.773379401672,99.248447401672,30.511812,23.376023,191.789048132,233.595151832,23,5,7.518,99.248447401672,71.522312,23.376023,191.789048132,22.593094,-6.039738,0.223694,4.4, -36.5, 12.6,0,0,1684,1024,1024,1024,100,0,0,0,23,-15.1,0,53,3.789,3.79,0,0,0,0,9.16,90.86,99.248447401672,71.522312,31,Sport,
15300,2022-11-08 20:50:18,-34.9199259893278,-56.1711811890906,71.850396,75.2296612,24.346870201672,99.576531401672,30.511812,23.935258,193.14797206,237.177172944,23,5,7.518,99.576531401672,71.850396,23.935258,193.14797206,23.264176,-5.59235,0,4.8, -35.7, 11.8,0,0,1684,1024,1024,1024,100,0,0,0,23,-15.1,0,53,3.789,3.79,0,0,0,0,9.16,90.86,99.576531401672,71.850396,31,Sport,
15400,2022-11-08 20:50:18,-34.91991668165,-56.1711836321585,71.850396,75.623362,23.953169401672,99.576531401672,30.511812,24.270799,194.418969476,240.650926336,24,5,7.518,99.576531401672,71.850396,24.270799,194.418969476,23.711564,-5.144962,0,5.5, -35.7, 12.2,0,0,1684,1024,1024,1024,100,0,0,0,23,-15.1,0,53,3.789,3.79,0,0,0,0,9.16,90.86,99.576531401672,71.850396,31,Sport,
15500,2022-11-08 20:50:18,-34.919906159179,-56.1711860981288,71.850396,76.0826796,23.493851801672,99.576531401672,30.511812,24.382646,195.833667684,244.560047196,24,5,7.518,99.576531401672,71.850396,24.382646,195.833667684,23.935258,-4.697574,0,4.9, -36.5, 12.5,0,0,1684,1024,1024,1024,100,0,0,0,23,-15.1,0,53,3.789,3.79,0,0,0,0,9.16,90.86,99.576531401672,71.850396,31,Sport,
