time(millisecond),datetime(utc),latitude,longitude,height_above_takeoff(feet),height_above_ground_at_drone_location(feet),ground_elevation_at_drone_location(feet),altitude_above_seaLevel(feet),height_sonar(feet),speed(mph),distance(feet),mileage(feet),satellites,gpslevel,voltage(v),max_altitude(feet),max_ascent(feet),max_speed(mph),max_distance(feet), xSpeed(mph), ySpeed(mph), zSpeed(mph), compass_heading(degrees), pitch(degrees), roll(degrees),isPhoto,isVideo,rc_elevator,rc_aileron,rc_throttle,rc_rudder,rc_elevator(percent),rc_aileron(percent),rc_throttle(percent),rc_rudder(percent),gimbal_heading(degrees),gimbal_pitch(degrees),gimbal_roll(degrees),battery_percent,voltageCell1,voltageCell2,voltageCell3,voltageCell4,voltageCell5,voltageCell6,current(A),battery_temperature(f),altitude(feet),ascent(feet),flycStateRaw,flycState,message
0,2022-10-20 04:29:58,0,0,0,,,3.28084E-5,0.328084,0,0,0,0,0,0,3.28084E-5,0,0,0,0,0,0,63.4, 2.8, 0.6,0,0,364,364,364,1684,-100,-100,-100,100,63.3,0,0,59,3.949,3.948,0,0,0,0,0,77.18,3.28084E-5,0,41,Motors_Started,"Vuela con cuidado (sin GPS) Señal débil del GPS. Vuelo estacionario inestable. Vuela con cuidado (Code: 30008). Señal débil del GPS. Vuelo estacionario inestable. Vuela con cuidado (Code: 30002)"
100,2022-10-20 04:29:58,0,0,0,,,3.28084E-5,0.328084,0,0,0,0,0,0,3.28084E-5,0,0,0,0,0,0,63.4, 2.8, 0.6,0,0,364,364,364,1684,-100,-100,-100,100,63.3,0,0,59,3.949,3.948,0,0,0,0,0,77.18,3.28084E-5,0,41,Motors_Started,
200,2022-10-20 04:29:58,0,0,0,,,3.28084E-5,0.328084,0,0,0,0,0,0,3.28084E-5,0,0,0,0,0,0,63.3, 2.8, 0.6,0,0,364,364,364,1684,-100,-100,-100,100,63.3,0,0,59,3.949,3.948,0,0,0,0,0,77.18,3.28084E-5,0,41,Motors_Started,
300,2022-10-20 04:29:58,0,0,0,,,3.28084E-5,0.328084,0,0,0,0,0,0,3.28084E-5,0,0,0,0,0,0,63.4, 2.8, 0.6,0,0,1024,1024,1024,1024,0,0,0,0,63.3,0,0,59,3.949,3.948,0,0,0,0,0,77.18,3.28084E-5,0,41,Motors_Started,
400,2022-10-20 04:29:58,0,0,0,,,3.28084E-5,0.328084,0,0,0,0,0,0,3.28084E-5,0,0,0,0,0,0,63.4, 2.8, 0.6,0,0,1024,1024,1024,1024,0,0,0,0,63.3,0,0,59,3.949,3.948,0,0,0,0,0,77.18,3.28084E-5,0,41,Motors_Started,
500,2022-10-20 04:29:58,0,0,0,,,3.28084E-5,0.328084,0,0,0,0,0,0,3.28084E-5,0,0,0,0,0,0,63.3, 2.8, 0.6,0,0,1024,1024,1024,1024,0,0,0,0,63.3,0,0,59,3.949,3.948,0,0,0,0,0,77.18,3.28084E-5,0,41,Motors_Started,
600,2022-10-20 04:29:58,0,0,0,,,3.28084E-5,0.328084,0,0,0,0,0,0,3.28084E-5,0,0,0,0,0,0,63.4, 2.8, 0.6,0,0,1024,1024,1024,1024,0,0,0,0,63.3,0,0,59,3.949,3.948,0,0,0,0,0,77.18,3.28084E-5,0,41,Motors_Started,
700,2022-10-20 04:29:59,0,0,0,,,3.28084E-5,0.328084,0,0,0,0,0,0,3.28084E-5,0,0,0,0,0,0,63.4, 2.8, 0.6,0,0,1024,1024,1024,1024,0,0,0,0,63.3,0,0,59,3.949,3.948,0,0,0,0,0,77.18,3.28084E-5,0,41,Motors_Started,
800,2022-10-20 04:29:59,0,0,0,,,3.28084E-5,0.328084,0,0,0,0,0,0,3.28084E-5,0,0,0,0,0,0,63.4, 2.8, 0.6,0,0,1024,1024,1024,1024,0,0,0,0,63.3,0,0,59,3.949,3.948,0,0,0,0,0,77.18,3.28084E-5,0,41,Motors_Started,
900,2022-10-20 04:29:59,0,0,0,,,3.28084E-5,0.328084,0,0,0,0,0,0,3.28084E-5,0,0,0,0,0,0,63.4, 2.8, 0.6,0,0,1024,1024,1024,1024,0,0,0,0,63.3,0,0,59,3.949,3.948,0,0,0,0,0,77.18,3.28084E-5,0,41,Motors_Started,"Setting new Return-To-Home altitude to 100m (328 ft). Data Recorder File Index is 6. Setting new Maximum Flight Altitude to 30m (98 ft)"
1000,2022-10-20 04:29:59,0,0,0,,,3.28084E-5,0.328084,0,0,0,0,0,0,3.28084E-5,0,0,0,0,0,0,63.3, 2.8, 0.6,0,0,1024,1024,1342,1024,0,0,48,0,63.3,0,0,59,3.949,3.948,0,0,0,0,0,77.18,3.28084E-5,0,41,Motors_Started,
1100,2022-10-20 04:29:59,0,0,0,,,3.28084E-5,0.328084,0,0,0,0,0,0,3.28084E-5,0,0,0,0,0,0,63.4, 2.8, 0.6,0,0,1024,1024,1329,1024,0,0,46,0,63.3,0,0,59,3.949,3.948,0,0,0,0,0,77.18,3.28084E-5,0,10,Assisted_Takeoff,
1200,2022-10-20 04:29:59,0,0,0,,,3.28084E-5,0.328084,0,0,0,0,0,7.908,3.28084E-5,0,0,0,0,0,0,63.4, 2.8, 0.6,0,0,1024,1024,1024,1024,0,0,0,0,63.3,0,0,59,3.949,3.948,0,0,0,0,1.158,77.18,3.28084E-5,0,10,Assisted_Takeoff,
1300,2022-10-20 04:29:59,0,0,0,,,3.28084E-5,0.328084,0,0,0,0,0,7.908,3.28084E-5,0,0,0,0,0,0,63.3, 2.8, 0.6,0,0,1024,1024,1024,1024,0,0,0,0,63.3,0,0,59,3.949,3.948,0,0,0,0,1.158,77.18,3.28084E-5,0,10,Assisted_Takeoff,
1400,2022-10-20 04:29:59,0,0,0,,,3.28084E-5,0.328084,0,0,0,0,0,7.908,3.28084E-5,0,0,0,0,0,0,63.2, 2.8, 0.5,0,0,1024,1024,1024,1024,0,0,0,0,63.3,0,0,59,3.949,3.948,0,0,0,0,1.158,77.18,3.28084E-5,0,10,Assisted_Takeoff,
1500,2022-10-20 04:29:59,0,0,0,,,3.28084E-5,0.328084,0,0,0,0,0,7.908,3.28084E-5,0,0,0,0,0,0,63.1, 2.8, 0.5,0,0,1024,1024,1024,1024,0,0,0,0,63.3,0,0,59,3.949,3.948,0,0,0,0,1.158,77.18,3.28084E-5,0,10,Assisted_Takeoff,
1600,2022-10-20 04:29:59,0,0,0,,,3.28084E-5,0.328084,0,0,0,0,0,7.908,3.28084E-5,0,0,0,0,0,0,63, 2.8, 0.5,0,0,1024,1024,1024,1024,0,0,0,0,63.2,0,0,59,3.949,3.948,0,0,0,0,1.158,77.18,3.28084E-5,0,10,Assisted_Takeoff,
1700,2022-10-20 04:30:00,0,0,0,,,3.28084E-5,0.328084,0,0,0,0,0,7.908,3.28084E-5,0,0,0,0,0,0,63, 2.8, 0.5,0,0,1024,1024,1146,1024,0,0,18,0,63.1,0,0,59,3.949,3.948,0,0,0,0,1.158,77.18,3.28084E-5,0,10,Assisted_Takeoff,
1800,2022-10-20 04:30:00,0,0,0,,,3.28084E-5,0.328084,0,0,0,0,0,7.908,3.28084E-5,0,0,0,0,0,0,62.9, 2.8, 0.5,0,0,1024,1024,1076,1024,0,0,8,0,63.1,0,0,59,3.949,3.948,0,0,0,0,1.158,77.18,3.28084E-5,0,10,Assisted_Takeoff,
1900,2022-10-20 04:30:00,0,0,0,,,3.28084E-5,0.328084,0,0,0,0,0,7.908,3.28084E-5,0,0,0,0,0,0,62.9, 2.8, 0.5,0,0,1024,1024,1024,1024,0,0,0,0,63,0,0,59,3.949,3.948,0,0,0,0,1.158,77.18,3.28084E-5,0,10,Assisted_Takeoff,
2000,2022-10-20 04:30:00,0,0,0,,,3.28084E-5,0.328084,0,0,0,0,0,7.908,3.28084E-5,0,0,0,0,0,0,62.9, 2.8, 0.5,0,0,1024,1024,1024,1024,0,0,0,0,63,0,0,59,3.949,3.948,0,0,0,0,1.158,77.18,3.28084E-5,0,10,Assisted_Takeoff,
2100,2022-10-20 04:30:00,0,0,0,,,3.28084E-5,0.328084,0,0,0,0,0,7.908,3.28084E-5,0,0,0,0,0,0,62.8, 2.8, 0.5,0,0,1024,1024,1024,1024,0,0,0,0,62.9,0,0,59,3.949,3.948,0,0,0,0,1.158,77.18,3.28084E-5,0,10,Assisted_Takeoff,
2200,2022-10-20 04:30:00,0,0,0,,,3.28084E-5,0.328084,0,0,0,0,0,7.908,3.28084E-5,0,0,0,0,0,0,62.8, 2.8, 0.5,0,0,1024,1024,1024,1024,0,0,0,0,62.9,0,0,59,3.949,3.948,0,0,0,0,1.158,77.18,3.28084E-5,0,10,Assisted_Takeoff,
2300,2022-10-20 04:30:00,0,0,0,,,3.28084E-5,0.328084,0,0,0,0,0,7.9,3.28084E-5,0,0,0,0,0,0,62.8, 2.7, 0.5,0,0,1024,1024,1024,1024,0,0,0,0,62.9,0,0,59,3.942,3.94,0,0,0,0,1.647,77.18,3.28084E-5,0,10,Assisted_Takeoff,
2400,2022-10-20 04:30:00,0,0,0,,,3.28084E-5,0.328084,0,0,0,0,0,7.9,3.28084E-5,0,0,0,0,0,0,62.8, 2.7, 0.5,0,0,1024,1024,1024,1024,0,0,0,0,62.9,0,0,59,3.942,3.94,0,0,0,0,1.647,77.18,3.28084E-5,0,10,Assisted_Takeoff,
2500,2022-10-20 04:30:00,0,0,0,,,3.28084E-5,0.328084,0,0,0,0,0,7.9,3.28084E-5,0,0,0,0,0,0,62.7, 2.8, 0.5,0,0,1024,1024,1024,1024,0,0,0,0,62.8,0,0,59,3.942,3.94,0,0,0,0,1.647,77.18,3.28084E-5,0,10,Assisted_Takeoff,
2600,2022-10-20 04:30:01,0,0,0,,,3.28084E-5,0.328084,0,0,0,0,0,7.9,3.28084E-5,0,0,0,0,0,0,62.6, 2.8, 0.5,0,0,1024,1024,1024,1024,0,0,0,0,62.8,0,0,59,3.942,3.94,0,0,0,0,1.647,77.18,3.28084E-5,0,10,Assisted_Takeoff,
2700,2022-10-20 04:30:01,0,0,0,,,3.28084E-5,0.328084,0,0,0,0,0,7.9,3.28084E-5,0,0,0,0,0,0,62.6, 2.8, 0.5,0,0,1024,1024,1024,1024,0,0,0,0,62.8,0,0,59,3.942,3.94,0,0,0,0,1.647,77.18,3.28084E-5,0,10,Assisted_Takeoff,
2800,2022-10-20 04:30:01,0,0,0,,,3.28084E-5,0.328084,0,0,0,0,0,7.9,3.28084E-5,0,0,0,0,0,0,62.6, 2.8, 0.5,0,0,1024,1024,1024,1024,0,0,0,0,62.7,0,0,59,3.942,3.94,0,0,0,0,1.647,77.18,3.28084E-5,0,10,Assisted_Takeoff,
2900,2022-10-20 04:30:01,0,0,0,,,3.28084E-5,0.328084,0,0,0,0,0,7.9,3.28084E-5,0,0,0,0,0,0,62.6, 2.8, 0.5,0,0,1024,1024,1024,1024,0,0,0,0,62.7,0,0,59,3.942,3.94,0,0,0,0,1.647,77.18,3.28084E-5,0,10,Assisted_Takeoff,
3000,2022-10-20 04:30:01,0,0,0,,,3.28084E-5,0.328084,0,0,0,0,0,7.9,3.28084E-5,0,0,0,0,0,0,62.6, 2.8, 0.5,0,0,1024,1024,1024,1024,0,0,0,0,62.7,0,0,59,3.942,3.94,0,0,0,0,1.647,77.18,3.28084E-5,0,10,Assisted_Takeoff,
3100,2022-10-20 04:30:01,0,0,0,,,3.28084E-5,0.328084,0,0,0,0,0,7.9,3.28084E-5,0,0,0,0,0,0,62.6, 2.8, 0.5,0,0,1024,1024,1024,1024,0,0,0,0,62.7,0,0,59,3.942,3.94,0,0,0,0,1.647,77.18,3.28084E-5,0,10,Assisted_Takeoff,
3200,2022-10-20 04:30:01,0,0,0,,,3.28084E-5,0.328084,0,0,0,0,0,7.9,3.28084E-5,0,0,0,0,0,0,62.6, 2.8, 0.6,0,0,1024,1024,1068,1024,0,0,7,0,62.7,0,0,59,3.942,3.94,0,0,0,0,1.647,77.18,3.28084E-5,0,10,Assisted_Takeoff,
3300,2022-10-20 04:30:01,0,0,0,,,3.28084E-5,0.328084,0,0,0,0,0,7.908,3.28084E-5,0,0,0,0,0,0,62.6, 2.8, 0.6,0,0,1024,1024,1251,1024,0,0,34,0,62.7,0,0,59,3.958,3.956,0,0,0,0,1.509,77.18,3.28084E-5,0,10,Assisted_Takeoff,
3400,2022-10-20 04:30:01,0,0,0,,,3.28084E-5,0.328084,0,0,0,0,0,7.908,3.28084E-5,0,0,0,0,0,0,62.6, 2.8, 0.6,0,0,1024,1024,1355,1024,0,0,50,0,62.6,0,0,59,3.958,3.956,0,0,0,0,1.509,77.18,3.28084E-5,0,10,Assisted_Takeoff,
3500,2022-10-20 04:30:01,0,0,0,,,3.28084E-5,0.328084,0,0,0,0,0,7.908,3.28084E-5,0,0,0,0,0,0,62.5, 2.8, 0.6,0,0,1024,1024,1317,1024,0,0,44,0,62.6,0,0,59,3.958,3.956,0,0,0,0,1.509,77.18,3.28084E-5,0,10,Assisted_Takeoff,
3600,2022-10-20 04:30:01,0,0,0,,,3.28084E-5,0.328084,0,0,0,0,0,7.908,3.28084E-5,0,0,0,0,0,0,62.4, 2.8, 0.6,0,0,1024,1024,1111,1024,0,0,13,0,62.6,0,0,59,3.958,3.956,0,0,0,0,1.509,77.18,3.28084E-5,0,10,Assisted_Takeoff,
3700,2022-10-20 04:30:02,0,0,0,,,3.28084E-5,0.328084,0,0,0,0,0,7.908,3.28084E-5,0,0,0,0,0,0,62.1, 2.8, 0.6,0,0,1024,1024,1111,1024,0,0,13,0,62.5,0,0,59,3.958,3.956,0,0,0,0,1.509,77.18,3.28084E-5,0,10,Assisted_Takeoff,
3800,2022-10-20 04:30:02,0,0,0,,,3.28084E-5,0.328084,0,0,0,0,0,7.908,3.28084E-5,0,0,0,0,0,0,61.5, 2.2, 0.5,0,0,1024,1024,1036,1024,0,0,2,0,62.3,0,0,59,3.958,3.956,0,0,0,0,1.509,77.18,3.28084E-5,0,10,Assisted_Takeoff,
3900,2022-10-20 04:30:02,0,0,0,,,3.28084E-5,0.328084,0,0,0,0,0,7.908,3.28084E-5,0,0,0,0,0,0,60.5, -1, 0.3,0,0,1024,1024,1024,1024,0,0,0,0,61.7,0,0,59,3.958,3.956,0,0,0,0,1.509,77.18,3.28084E-5,0,10,Assisted_Takeoff,
4000,2022-10-20 04:30:02,0,0,0,,,3.28084E-5,0.328084,0,0,0,0,0,7.908,3.28084E-5,0,0,0,0,0,0,59.8, -0.9, 0.6,0,0,1024,1024,1024,1024,0,0,0,0,61.7,0,0,59,3.958,3.956,0,0,0,0,1.509,77.18,3.28084E-5,0,10,Assisted_Takeoff,
4100,2022-10-20 04:30:02,0,0,0,,,3.28084E-5,0.328084,0,0,0,0,0,7.908,3.28084E-5,0,0,0,0,0,0,59.6, 1.3, 0.6,0,0,1024,1024,1024,1024,0,0,0,0,61,0,0,59,3.958,3.956,0,0,0,0,1.509,77.18,3.28084E-5,0,6,P-GPS,"Señal débil del GPS. Vuelo estacionario inestable. Vuela con cuidado (Code: 30002)"
4200,2022-10-20 04:30:02,0,0,0,,,3.28084E-5,0.328084,0,0,0,0,0,7.908,3.28084E-5,0,0,0,0,0,0,59.7, 0, 0.6,0,0,1024,1024,1024,1024,0,0,0,0,60.5,0,0,59,3.958,3.956,0,0,0,0,1.509,77.18,3.28084E-5,0,6,P-GPS,
4300,2022-10-20 04:30:02,0,0,0,,,3.28084E-5,0.328084,0,0,0,0,0,7.898,3.28084E-5,0,0,0,0,0,0,60.2, -1.3, -0.1,0,0,1024,1024,1024,1024,0,0,0,0,60.5,0,0,59,3.918,3.921,0,0,0,0,1.413,77.18,3.28084E-5,0,6,P-GPS,
4400,2022-10-20 04:30:02,0,0,0,,,3.28084E-5,0.328084,0,0,0,0,0,7.898,3.28084E-5,0,0,0,0,0,-0.223694,60.3, -1, 0,0,0,1024,1024,1024,1024,0,0,0,0,60.5,0,0,59,3.918,3.921,0,0,0,0,1.413,77.18,3.28084E-5,0,6,P-GPS,
4500,2022-10-20 04:30:02,0,0,0,,,3.28084E-5,0.328084,0,0,0,0,0,7.898,3.28084E-5,0,0,0,0,0,-0.223694,60.3, -0.2, 0.1,0,0,1024,1024,1024,1024,0,0,0,0,60.5,0,0,59,3.918,3.921,0,0,0,0,1.413,77.18,3.28084E-5,0,6,P-GPS,
4600,2022-10-20 04:30:02,0,0,0,,,3.28084E-5,0.328084,0,0,0,0,0,7.898,3.28084E-5,0,0,0,0,0,-0.447388,60.3, 0.2, 0,0,0,1024,1024,1024,1024,0,0,0,0,60.5,0,0,59,3.918,3.921,0,0,0,0,1.413,77.18,3.28084E-5,0,6,P-GPS,
4700,2022-10-20 04:30:03,0,0,0,,,3.28084E-5,0.656168,0,0,0,0,0,7.898,3.28084E-5,0,0,0,0,0,-0.447388,60.3, 0.7, 0,0,0,1024,1024,1024,1024,0,0,0,0,60.5,0,0,59,3.918,3.921,0,0,0,0,1.413,77.18,3.28084E-5,0,6,P-GPS,
4800,2022-10-20 04:30:03,0,0,0,,,3.28084E-5,0.656168,0,0,0,0,0,7.898,3.28084E-5,0,0,0,0,0,-0.671082,60.3, 0.6, 0.3,0,0,1024,1024,1024,1024,0,0,0,0,60.5,0,0,59,3.918,3.921,0,0,0,0,1.413,77.18,3.28084E-5,0,6,P-GPS,
4900,2022-10-20 04:30:03,0,0,0.328084,,,0.3281168084,0.656168,0,0,0,0,0,7.898,0.3281168084,0.328084,0,0,0,0,-0.671082,60.3, 0.9, 0.3,0,0,1024,1024,1024,1024,0,0,0,0,60.5,0,0,59,3.918,3.921,0,0,0,0,1.413,77.18,0.3281168084,0.328084,6,P-GPS,
5000,2022-10-20 04:30:03,0,0,0.328084,,,0.3281168084,0.656168,0,0,0,0,0,7.898,0.3281168084,0.328084,0,0,0,0,-0.894776,60.4, 0.6, 0.2,0,0,1024,1024,1024,1024,0,0,0,0,60.5,0,0,59,3.918,3.921,0,0,0,0,1.413,77.18,0.3281168084,0.328084,6,P-GPS,
5100,2022-10-20 04:30:03,0,0,0.656168,,,0.6562008084,0.984252,0,0,0,0,0,7.898,0.6562008084,0.656168,0,0,0,0,-0.894776,60.4, 0.6, 0.2,0,0,1024,1024,1024,1024,0,0,0,0,60.5,0,0,59,3.918,3.921,0,0,0,0,1.413,77.18,0.6562008084,0.656168,6,P-GPS,
5200,2022-10-20 04:30:03,0,0,0.656168,,,0.6562008084,0.984252,0,0,0,0,0,7.898,0.6562008084,0.656168,0,0,0,0,-0.894776,60.4, 0.7, 0.3,0,0,1024,1024,1024,1024,0,0,0,0,60.5,0,0,59,3.918,3.921,0,0,0,0,1.413,77.18,0.6562008084,0.656168,6,P-GPS,
5300,2022-10-20 04:30:03,0,0,0.656168,,,0.6562008084,1.312336,0,0,0,0,0,7.798,0.6562008084,0.656168,0,0,0,0,-0.894776,60.4, 0.5, 0.3,0,0,1024,1024,1024,1024,0,0,0,0,60.5,0,0,59,3.877,3.872,0,0,0,0,3.445,77.18,0.6562008084,0.656168,6,P-GPS,
5400,2022-10-20 04:30:03,0,0,0.984252,,,0.9842848084,1.312336,0,0,0,0,0,7.798,0.9842848084,0.984252,0,0,0,0,-0.894776,60.4, 0.3, 0.3,0,0,1024,1024,1024,1024,0,0,0,0,60.5,0,0,59,3.877,3.872,0,0,0,0,3.445,77.18,0.9842848084,0.984252,6,P-GPS,
5500,2022-10-20 04:30:03,0,0,0.984252,,,0.9842848084,1.312336,0,0,0,0,0,7.798,0.9842848084,0.984252,0,0,0,0,-0.671082,60.4, 0.3, 0.3,0,0,1024,1024,1024,1024,0,0,0,0,60.5,0,0,59,3.877,3.872,0,0,0,0,3.445,77.18,0.9842848084,0.984252,6,P-GPS,
5600,2022-10-20 04:30:03,0,0,1.312336,,,1.3123688084,1.64042,0,0,0,0,0,7.798,1.3123688084,1.312336,0,0,0,0,-0.447388,60.4, 0.1, 0.2,0,0,1024,1024,1024,1024,0,0,0,0,60.5,0,0,59,3.877,3.872,0,0,0,0,3.445,77.18,1.3123688084,1.312336,6,P-GPS,
5700,2022-10-20 04:30:04,0,0,1.312336,,,1.3123688084,1.64042,0,0,0,0,0,7.798,1.3123688084,1.312336,0,0,0,0,-0.223694,60.4, 0.1, 0.1,0,0,1024,1024,1024,1024,0,0,0,0,60.5,0,0,59,3.877,3.872,0,0,0,0,3.445,77.18,1.3123688084,1.312336,6,P-GPS,
5800,2022-10-20 04:30:04,0,0,1.312336,,,1.3123688084,1.64042,0,0,0,0,0,7.798,1.3123688084,1.312336,0,0,0,0,-0.223694,60.4, 0.2, 0.1,0,0,1024,1024,1024,1024,0,0,0,0,60.5,0,0,59,3.877,3.872,0,0,0,0,3.445,77.18,1.3123688084,1.312336,6,P-GPS,
5900,2022-10-20 04:30:04,0,0,1.312336,,,1.3123688084,1.64042,0,0,0,0,0,7.798,1.3123688084,1.312336,0,0,0,0,0,60.4, 0.2, 0.1,0,0,1024,1024,1024,1024,0,0,0,0,60.5,0,0,59,3.877,3.872,0,0,0,0,3.445,77.18,1.3123688084,1.312336,6,P-GPS,
6000,2022-10-20 04:30:04,0,0,1.312336,,,1.3123688084,1.64042,0,0,0,0,0,7.798,1.3123688084,1.312336,0,0,0,0,0,60.4, 0.2, 0.1,0,0,1024,1024,1024,1024,0,0,0,0,60.5,0,0,59,3.877,3.872,0,0,0,0,3.445,77.18,1.3123688084,1.312336,6,P-GPS,
6100,2022-10-20 04:30:04,0,0,1.312336,,,1.3123688084,1.64042,0,0,0,0,0,7.798,1.3123688084,1.312336,0,0,0,0,0,60.4, 0.2, 0.1,0,0,1024,1024,1024,1024,0,0,0,0,60.5,0,0,59,3.877,3.872,0,0,0,0,3.445,77.18,1.3123688084,1.312336,6,P-GPS,
6200,2022-10-20 04:30:04,0,0,1.312336,,,1.3123688084,1.64042,0,0,0,0,0,7.798,1.3123688084,1.312336,0,0,0,0,0,60.4, 0.2, 0.2,0,0,1024,1024,1024,1024,0,0,0,0,60.5,0,0,59,3.877,3.872,0,0,0,0,3.445,77.18,1.3123688084,1.312336,6,P-GPS,
6300,2022-10-20 04:30:04,0,0,1.312336,,,1.3123688084,1.64042,0,0,0,0,0,7.768,1.3123688084,1.312336,0,0,0,0,0,60.4, 0.3, 0.2,0,0,1024,1024,1024,1024,0,0,0,0,60.5,0,0,59,3.882,3.878,0,0,0,0,4.54,77.18,1.3123688084,1.312336,6,P-GPS,
6400,2022-10-20 04:30:04,0,0,1.64042,,,1.6404528084,1.64042,0,0,0,0,0,7.768,1.6404528084,1.64042,0,0,0,0,0,60.4, 0.3, 0.2,0,0,1024,1024,1024,1024,0,0,0,0,60.5,0,0,59,3.882,3.878,0,0,0,0,4.54,77.18,1.6404528084,1.64042,6,P-GPS,
6500,2022-10-20 04:30:04,0,0,1.64042,,,1.6404528084,1.64042,0,0,0,0,0,7.768,1.6404528084,1.64042,0,0,0,0,0,60.4, 0.3, 0.2,0,0,1024,1024,1024,1024,0,0,0,0,60.5,0,0,59,3.882,3.878,0,0,0,0,4.54,77.18,1.6404528084,1.64042,6,P-GPS,
6600,2022-10-20 04:30:05,0,0,1.64042,,,1.6404528084,1.64042,0,0,0,0,0,7.768,1.6404528084,1.64042,0,0,0,0,0,60.4, 0.2, 0.2,0,0,1024,1024,1024,1024,0,0,0,0,60.5,0,0,59,3.882,3.878,0,0,0,0,4.54,77.18,1.6404528084,1.64042,6,P-GPS,
6700,2022-10-20 04:30:05,0,0,1.64042,,,1.6404528084,1.64042,0,0,0,0,0,7.768,1.6404528084,1.64042,0,0,0,0,0,60.4, 0.3, 0.2,0,0,1024,1024,1024,1024,0,0,0,0,60.5,0,0,59,3.882,3.878,0,0,0,0,4.54,77.18,1.6404528084,1.64042,6,P-GPS,
6800,2022-10-20 04:30:05,0,0,1.64042,,,1.6404528084,1.64042,0,0,0,0,0,7.768,1.6404528084,1.64042,0,0,0,0,0,60.4, 0.3, 0.2,0,0,1024,1024,1024,1024,0,0,0,0,60.5,0,0,59,3.882,3.878,0,0,0,0,4.54,77.18,1.6404528084,1.64042,6,P-GPS,
6900,2022-10-20 04:30:05,0,0,1.64042,,,1.6404528084,1.64042,0,0,0,0,0,7.768,1.6404528084,1.64042,0,0,0,0,0,60.4, 0.3, 0.2,0,0,1024,1024,1024,1024,0,0,0,0,60.5,0,0,59,3.882,3.878,0,0,0,0,4.54,77.18,1.6404528084,1.64042,6,P-GPS,
7000,2022-10-20 04:30:05,0,0,1.64042,,,1.6404528084,1.64042,0,0,0,0,0,7.768,1.6404528084,1.64042,0,0,0,0,0,60.4, 0.3, 0.2,0,0,1024,1024,1024,1024,0,0,0,0,60.5,0,0,59,3.882,3.878,0,0,0,0,4.54,77.18,1.6404528084,1.64042,6,P-GPS,
7100,2022-10-20 04:30:05,0,0,1.64042,,,1.6404528084,1.64042,0,0,0,0,0,7.768,1.6404528084,1.64042,0,0,0,0,0,60.4, 0, 0,0,0,1024,1024,1024,1024,0,0,0,0,60.5,0,0,59,3.882,3.878,0,0,0,0,4.54,77.18,1.6404528084,1.64042,1,Atti,"Señal del GPS demasiado débil. Se ha pasado al modo Atti. La aeronave no puede hacer vuelo estacionario. Vuela con precaución (Code: 30022)"
7200,2022-10-20 04:30:05,0,0,1.64042,,,1.6404528084,1.64042,0,0,0,0,0,7.768,1.6404528084,1.64042,0,0,0,0,0,60.4, 0, 0,0,0,1024,1024,1024,1024,0,0,0,0,60.5,0,0,59,3.882,3.878,0,0,0,0,4.54,77.18,1.6404528084,1.64042,1,Atti,"Vuela con cuidado (modo Atti) Señal débil del GPS. Vuelo estacionario inestable. Vuela con cuidado (Code: 30002). Aeronave en modo Atti. No se puede hacer vuelo estacionario. Vuela con cuidado (Code: 30004). La brújula no funciona bien el GPS no tiene buena señal. Cambia a modo A"
7300,2022-10-20 04:30:05,0,0,1.64042,,,1.6404528084,1.64042,0,0,0,0,0,7.768,1.6404528084,1.64042,0,0,0,0,0,60.4, 0, 0,0,0,1024,1024,1024,1024,0,0,0,0,60.5,0,0,59,3.882,3.878,0,0,0,0,4.54,77.18,1.6404528084,1.64042,1,Atti,
7400,2022-10-20 04:30:05,0,0,1.64042,,,1.6404528084,1.64042,0,0,0,0,0,7.747,1.6404528084,1.64042,0,0,0,0,0,60.4, 0, 0,0,0,1024,1024,1024,1024,0,0,0,0,60.5,0,0,59,3.875,3.87,0,0,0,0,4.484,77.18,1.6404528084,1.64042,1,Atti,
7500,2022-10-20 04:30:05,0,0,1.64042,,,1.6404528084,1.64042,0,0,0,0,0,7.747,1.6404528084,1.64042,0,0,0,0,0,60.4, 0, 0,0,0,1024,1024,1024,1024,0,0,0,0,60.5,0,0,59,3.875,3.87,0,0,0,0,4.484,77.18,1.6404528084,1.64042,1,Atti,
7600,2022-10-20 04:30:05,0,0,1.64042,,,1.6404528084,1.64042,0,0,0,0,0,7.747,1.6404528084,1.64042,0,0,0,0,0,60.4, 0, 0,0,0,1024,1024,1024,1024,0,0,0,0,60.5,0,0,59,3.875,3.87,0,0,0,0,4.484,77.18,1.6404528084,1.64042,1,Atti,
7700,2022-10-20 04:30:06,0,0,1.64042,,,1.6404528084,1.64042,0,0,0,0,0,7.747,1.6404528084,1.64042,0,0,0,0,0,60.4, 0, 0,0,0,1024,1024,1024,1024,0,0,0,0,60.5,0,0,59,3.875,3.87,0,0,0,0,4.484,77.18,1.6404528084,1.64042,1,Atti,
7800,2022-10-20 04:30:06,0,0,1.64042,,,1.6404528084,1.64042,0,0,0,0,0,7.747,1.6404528084,1.64042,0,0,0,0,0,60.4, 0, 0,0,0,1024,1024,1024,1024,0,0,0,0,60.5,0,0,59,3.875,3.87,0,0,0,0,4.484,77.18,1.6404528084,1.64042,1,Atti,
7900,2022-10-20 04:30:06,0,0,1.64042,,,1.6404528084,1.64042,0,0,0,0,0,7.747,1.6404528084,1.64042,0,0,0,0,0,60.4, 0, 0,0,0,1024,1024,1024,1024,0,0,0,0,60.5,0,0,59,3.875,3.87,0,0,0,0,4.484,77.18,1.6404528084,1.64042,1,Atti,
8000,2022-10-20 04:30:06,0,0,1.64042,,,1.6404528084,1.64042,0,0,0,0,0,7.747,1.6404528084,1.64042,0,0,0,0,0,60.4, 0, 0,0,0,1024,1024,1024,1024,0,0,0,0,60.5,0,0,59,3.875,3.87,0,0,0,0,4.484,77.18,1.6404528084,1.64042,1,Atti,
8100,2022-10-20 04:30:06,0,0,1.64042,,,1.6404528084,1.64042,0,0,0,0,0,7.747,1.6404528084,1.64042,0,0,0,0,0,60.4, 0, 0,0,0,1024,1024,1024,1024,0,0,0,0,60.5,0,0,59,3.875,3.87,0,0,0,0,4.484,77.18,1.6404528084,1.64042,1,Atti,
8200,2022-10-20 04:30:06,0,0,1.64042,,,1.6404528084,1.64042,0,0,0,0,0,7.747,1.6404528084,1.64042,0,0,0,0,0,60.4, 0, 0,0,0,1024,1024,945,1024,0,0,-12,0,60.5,0,0,59,3.875,3.87,0,0,0,0,4.484,77.18,1.6404528084,1.64042,1,Atti,
8300,2022-10-20 04:30:06,0,0,1.64042,,,1.6404528084,1.64042,0,0,0,0,0,7.747,1.6404528084,1.64042,0,0,0,0,0,60.4, 0, 0,0,0,1024,1024,917,1024,0,0,-16,0,60.5,0,0,59,3.875,3.87,0,0,0,0,4.484,77.18,1.6404528084,1.64042,1,Atti,
8400,2022-10-20 04:30:06,0,0,1.64042,,,1.6404528084,1.64042,0,0,0,0,0,7.739,1.6404528084,1.64042,0,0,0,0,0,60.4, 0, 0,0,0,1024,1024,1024,1024,0,0,0,0,60.5,0,0,59,3.871,3.866,0,0,0,0,4.484,77.18,1.6404528084,1.64042,1,Atti,
8500,2022-10-20 04:30:06,0,0,1.64042,,,1.6404528084,1.64042,0,0,0,0,0,7.739,1.6404528084,1.64042,0,0,0,0,0,60.4, 0, 0,0,0,1024,1024,1024,1024,0,0,0,0,60.5,0,0,59,3.871,3.866,0,0,0,0,4.484,77.18,1.6404528084,1.64042,1,Atti,
8600,2022-10-20 04:30:06,0,0,1.64042,,,1.6404528084,1.64042,0,0,0,0,0,7.739,1.6404528084,1.64042,0,0,0,0,0,60.4, 0, 0,0,0,1024,1024,853,1024,0,0,-26,0,60.5,0,0,59,3.871,3.866,0,0,0,0,4.484,77.18,1.6404528084,1.64042,1,Atti,
8700,2022-10-20 04:30:07,0,0,1.64042,,,1.6404528084,1.64042,0,0,0,0,0,7.739,1.6404528084,1.64042,0,0,0,0,0,60.5, 0, 0,0,0,1024,1024,574,1024,0,0,-68,0,60.5,0,0,59,3.871,3.866,0,0,0,0,4.484,77.18,1.6404528084,1.64042,1,Atti,
8800,2022-10-20 04:30:07,0,0,1.64042,,,1.6404528084,1.64042,0,0,0,0,0,7.739,1.6404528084,1.64042,0,0,0,0,0,60.5, 0, 0,0,0,1024,1024,752,1024,0,0,-41,0,60.5,0,0,59,3.871,3.866,0,0,0,0,4.484,77.18,1.6404528084,1.64042,1,Atti,
8900,2022-10-20 04:30:07,0,0,1.64042,,,1.6404528084,1.64042,0,0,0,0,0,7.739,1.6404528084,1.64042,0,0,0,0,0,60.5, 0, 0,0,0,1024,1024,1024,1024,0,0,0,0,60.5,0,0,59,3.871,3.866,0,0,0,0,4.484,77.18,1.6404528084,1.64042,1,Atti,
9000,2022-10-20 04:30:07,0,0,1.64042,,,1.6404528084,1.64042,0,0,0,0,0,7.739,1.6404528084,1.64042,0,0,0,0,0,60.5, 0, 0,0,0,1024,1024,1024,1024,0,0,0,0,60.5,0,0,59,3.871,3.866,0,0,0,0,4.484,77.18,1.6404528084,1.64042,1,Atti,
9100,2022-10-20 04:30:07,0,0,1.64042,,,1.6404528084,1.64042,0,0,0,0,0,7.739,1.6404528084,1.64042,0,0,0,0,0,60.4, 0, 0,0,0,1024,1024,1024,1024,0,0,0,0,60.5,0,0,59,3.871,3.866,0,0,0,0,4.484,77.18,1.6404528084,1.64042,1,Atti,
9200,2022-10-20 04:30:07,0,0,1.64042,,,1.6404528084,1.64042,0,0,0,0,0,7.739,1.6404528084,1.64042,0,0,0,0,0,60.4, 0, 0,0,0,1024,1024,1024,1024,0,0,0,0,60.5,0,0,59,3.871,3.866,0,0,0,0,4.484,77.18,1.6404528084,1.64042,1,Atti,
9300,2022-10-20 04:30:07,0,0,1.64042,,,1.6404528084,1.968504,0,0,0,0,0,7.739,1.6404528084,1.64042,0,0,0,0,0,60.4, 0, 0,0,0,1024,1024,619,1024,0,0,-61,0,60.5,0,0,59,3.871,3.866,0,0,0,0,4.484,77.18,1.6404528084,1.64042,1,Atti,
9400,2022-10-20 04:30:07,0,0,1.64042,,,1.6404528084,1.968504,0,0,0,0,0,7.731,1.6404528084,1.64042,0,0,0,0,0,60.5, 0, 0,0,0,1024,1024,364,1024,0,0,-100,0,60.5,0,0,59,3.868,3.863,0,0,0,0,4.474,77.18,1.6404528084,1.64042,1,Atti,
9500,2022-10-20 04:30:07,0,0,1.64042,,,1.6404528084,1.968504,0,0,0,0,0,7.731,1.6404528084,1.64042,0,0,0,0,0,60.5, 0, 0,0,0,1024,1024,540,1024,0,0,-73,0,60.5,0,0,59,3.868,3.863,0,0,0,0,4.474,77.18,1.6404528084,1.64042,1,Atti,
9600,2022-10-20 04:30:07,0,0,1.64042,,,1.6404528084,2.296588,0,0,0,0,0,7.731,1.6404528084,1.64042,0,0,0,0,0,60.5, 0, 0,0,0,1024,1024,1024,1024,0,0,0,0,60.5,0,0,59,3.868,3.863,0,0,0,0,4.474,77.18,1.6404528084,1.64042,1,Atti,
9700,2022-10-20 04:30:08,0,0,1.312336,,,1.3123688084,2.296588,0,0,0,0,0,7.731,1.6404528084,1.64042,0,0,0,0,0.223694,60.5, 0, 0,0,0,1024,1024,1024,1024,0,0,0,0,60.5,0,0,59,3.868,3.863,0,0,0,0,4.474,77.18,1.3123688084,1.312336,1,Atti,
9800,2022-10-20 04:30:08,0,0,1.312336,,,1.3123688084,2.296588,0,0,0,0,0,7.731,1.6404528084,1.64042,0,0,0,0,0,60.4, 0, 0,0,0,1024,1024,1024,1024,0,0,0,0,60.5,0,0,59,3.868,3.863,0,0,0,0,4.474,77.18,1.3123688084,1.312336,1,Atti,
9900,2022-10-20 04:30:08,0,0,1.312336,,,1.3123688084,2.296588,0,0,0,0,0,7.731,1.6404528084,1.64042,0,0,0,0,0,60.5, 0, 0,0,0,1024,1024,1024,1024,0,0,0,0,60.5,0,0,59,3.868,3.863,0,0,0,0,4.474,77.18,1.3123688084,1.312336,6,P-GPS,"Señal débil del GPS. Vuelo estacionario inestable. Vuela con cuidado (Code: 30002)"
10000,2022-10-20 04:30:08,0,0,1.312336,,,1.3123688084,2.624672,0,0,0,0,0,7.731,1.6404528084,1.64042,0,0,0,0,0,60.5, 0.6, 0.3,0,0,1024,1024,1024,1024,0,0,0,0,60.5,0,0,59,3.868,3.863,0,0,0,0,4.474,77.18,1.3123688084,1.312336,6,P-GPS,
10100,2022-10-20 04:30:08,0,0,1.312336,,,1.3123688084,2.624672,0,0,0,0,0,7.731,1.6404528084,1.64042,0,0,0,0,0,60.5, 0.8, 0.4,0,0,1024,1024,1024,1024,0,0,0,0,60.5,0,0,59,3.868,3.863,0,0,0,0,4.474,77.18,1.3123688084,1.312336,6,P-GPS,
10200,2022-10-20 04:30:08,0,0,1.312336,,,1.3123688084,2.624672,0,0,0,0,0,7.731,1.6404528084,1.64042,0,0,0,0,0,60.5, 0.8, 0.4,0,0,1024,1024,1024,1024,0,0,0,0,60.5,0,0,59,3.868,3.863,0,0,0,0,4.474,77.18,1.3123688084,1.312336,6,P-GPS,"En vuelo"
10300,2022-10-20 04:30:08,0,0,1.312336,,,1.3123688084,2.624672,0,0,0,0,0,7.731,1.6404528084,1.64042,0,0,0,0,0,60.5, 0.8, 0.4,0,0,1024,1024,1024,1024,0,0,0,0,60.5,0,0,59,3.868,3.863,0,0,0,0,4.474,77.18,1.3123688084,1.312336,6,P-GPS,
10400,2022-10-20 04:30:08,0,0,1.312336,,,1.3123688084,2.624672,0,0,0,0,0,7.735,1.6404528084,1.64042,0,0,0,0,0,60.5, 0.8, 0.4,0,0,1024,1024,1024,1024,0,0,0,0,60.5,0,0,59,3.863,3.859,0,0,0,0,4.473,77.18,1.3123688084,1.312336,6,P-GPS,
10500,2022-10-20 04:30:08,0,0,1.312336,,,1.3123688084,2.624672,0,0,0,0,0,7.735,1.6404528084,1.64042,0,0,0,0,0,60.5, 1, 0.5,0,0,1024,1024,1383,1024,0,0,54,0,60.5,0,0,59,3.863,3.859,0,0,0,0,4.473,77.18,1.3123688084,1.312336,6,P-GPS,
10600,2022-10-20 04:30:09,0,0,1.312336,,,1.3123688084,2.624672,0,0,0,0,0,7.735,1.6404528084,1.64042,0,0,0,0,0,60.5, 0.9, 0.4,0,0,1024,1024,1235,1024,0,0,32,0,60.5,0,0,59,3.863,3.859,0,0,0,0,4.473,77.18,1.3123688084,1.312336,6,P-GPS,
10700,2022-10-20 04:30:09,0,0,1.312336,,,1.3123688084,2.624672,0,0,0,0,0,7.735,1.6404528084,1.64042,0,0,0,0,-0.223694,60.4, 0.7, 0.5,0,0,1024,1024,1024,1024,0,0,0,0,60.5,0,0,59,3.863,3.859,0,0,0,0,4.473,77.18,1.3123688084,1.312336,6,P-GPS,
10800,2022-10-20 04:30:09,0,0,1.312336,,,1.3123688084,2.624672,0,0,0,0,0,7.735,1.6404528084,1.64042,0,0,0,0,-0.671082,60.5, 1, 0.6,0,0,1024,1024,1024,1024,0,0,0,0,60.5,0,0,59,3.863,3.859,0,0,0,0,4.473,77.18,1.3123688084,1.312336,6,P-GPS,
10900,2022-10-20 04:30:09,0,0,1.64042,,,1.6404528084,2.624672,0,0,0,0,0,7.735,1.6404528084,1.64042,0,0,0,0,-0.447388,60.5, 1.1, 0.4,0,0,964,1024,1024,1024,-9,0,0,0,60.5,0,0,59,3.863,3.859,0,0,0,0,4.473,77.18,1.6404528084,1.64042,6,P-GPS,
11000,2022-10-20 04:30:09,0,0,1.64042,,,1.6404528084,2.624672,0,0,0,0,0,7.735,1.6404528084,1.64042,0,0,0,0,-0.223694,60.5, 0.9, 0.3,0,0,964,1024,1024,1024,-9,0,0,0,60.5,0,0,59,3.863,3.859,0,0,0,0,4.473,77.18,1.6404528084,1.64042,6,P-GPS,
11100,2022-10-20 04:30:09,0,0,1.64042,,,1.6404528084,2.952756,0,0,0,0,0,7.735,1.6404528084,1.64042,0,0,0,0,-0.223694,60.5, 1.1, 0.2,0,0,456,1024,1024,1024,-86,0,0,0,60.5,0,0,59,3.863,3.859,0,0,0,0,4.473,77.18,1.6404528084,1.64042,6,P-GPS,
11200,2022-10-20 04:30:09,0,0,1.64042,,,1.6404528084,2.952756,0,0,0,0,0,7.735,1.6404528084,1.64042,0,0,0,0,0,60.5, 8.7, 0.3,0,0,1024,1024,1024,1024,0,0,0,0,60.5,0,0,59,3.863,3.859,0,0,0,0,4.473,77.18,1.6404528084,1.64042,6,P-GPS,
11300,2022-10-20 04:30:09,0,0,1.64042,,,1.6404528084,2.952756,0,0,0,0,0,7.735,1.6404528084,1.64042,0,0,0,-0.223694,0,60.4, 8.9, 0.2,0,0,1024,1024,1024,1024,0,0,0,0,60.5,0,0,59,3.863,3.859,0,0,0,0,4.473,77.18,1.6404528084,1.64042,6,P-GPS,
11400,2022-10-20 04:30:09,0,0,1.64042,,,1.6404528084,2.624672,0.223694,0,0,0,0,7.643,1.6404528084,1.64042,0,0,0,-0.223694,0,60.6, -0.9, 0,0,0,1024,1024,1024,1024,0,0,0,0,60.5,0,0,59,3.853,3.852,0,0,0,0,4.652,77.36,1.6404528084,1.64042,6,P-GPS,
11500,2022-10-20 04:30:09,0,0,1.64042,,,1.6404528084,2.624672,0.223694,0,0,0,0,7.643,1.6404528084,1.64042,0,0,0,-0.223694,0,60.6, -2.2, 0.2,0,0,1024,1024,1024,1024,0,0,0,0,60.5,0,0,59,3.853,3.852,0,0,0,0,4.652,77.36,1.6404528084,1.64042,6,P-GPS,
11600,2022-10-20 04:30:09,0,0,1.64042,,,1.6404528084,2.624672,0.223694,0,0,0,0,7.643,1.6404528084,1.64042,0,0,0,-0.223694,0,60.5, -1.9, 0.2,0,0,1024,1024,1024,1024,0,0,0,0,60.5,0,0,59,3.853,3.852,0,0,0,0,4.652,77.36,1.6404528084,1.64042,6,P-GPS,
11700,2022-10-20 04:30:10,0,0,1.64042,,,1.6404528084,2.624672,0,0,0,0,0,7.643,1.6404528084,1.64042,0,0,0,0,0,60.5, -1.4, 0.2,0,0,1024,1024,1024,1024,0,0,0,0,60.5,0,0,59,3.853,3.852,0,0,0,0,4.652,77.36,1.6404528084,1.64042,6,P-GPS,
11800,2022-10-20 04:30:10,0,0,1.64042,,,1.6404528084,2.624672,0,0,0,0,0,7.643,1.6404528084,1.64042,0,0,0,0,0,60.5, -1.1, 0.2,0,0,713,1024,1024,1024,-47,0,0,0,60.5,0,0,59,3.853,3.852,0,0,0,0,4.652,77.36,1.6404528084,1.64042,6,P-GPS,
11900,2022-10-20 04:30:10,0,0,1.64042,,,1.6404528084,2.624672,0,0,0,0,0,7.643,1.6404528084,1.64042,0,0,0,0,0,60.5, -1.4, 0,0,0,491,1024,1024,1024,-81,0,0,0,60.5,0,0,59,3.853,3.852,0,0,0,0,4.652,77.36,1.6404528084,1.64042,6,P-GPS,
12000,2022-10-20 04:30:10,0,0,1.64042,,,1.6404528084,2.624672,0,0,0,0,0,7.643,1.6404528084,1.64042,0,0,0,0,0,60.5, 2.1, 0.2,0,0,491,1024,1024,1024,-81,0,0,0,60.5,0,0,59,3.853,3.852,0,0,0,0,4.652,77.36,1.6404528084,1.64042,6,P-GPS,
12100,2022-10-20 04:30:10,0,0,1.64042,,,1.6404528084,2.624672,0,0,0,0,0,7.643,1.6404528084,1.64042,0,0,0,0,0,60.5, 9.2, 0.3,0,0,1024,1024,1024,1024,0,0,0,0,60.5,0,0,59,3.853,3.852,0,0,0,0,4.652,77.36,1.6404528084,1.64042,6,P-GPS,
12200,2022-10-20 04:30:10,0,0,1.64042,,,1.6404528084,2.624672,0.3131716,0,0,0,0,7.643,1.6404528084,1.64042,0,0,-0.223694,-0.223694,0,60.5, 5.3, 0.2,0,0,1024,1024,1024,1024,0,0,0,0,60.5,0,0,59,3.853,3.852,0,0,0,0,4.652,77.36,1.6404528084,1.64042,6,P-GPS,
12300,2022-10-20 04:30:10,0,0,1.64042,,,1.6404528084,2.624672,0.4921268,0,0,0,0,7.643,1.6404528084,1.64042,0,0,-0.223694,-0.447388,0,60.6, -1.3, 0.1,0,0,1024,1024,1024,1024,0,0,0,0,60.5,0,0,59,3.853,3.852,0,0,0,0,4.652,77.36,1.6404528084,1.64042,6,P-GPS,
12400,2022-10-20 04:30:10,0,0,1.64042,,,1.6404528084,2.624672,0.3131716,0,0,0,0,7.709,1.6404528084,1.64042,0,0,-0.223694,-0.223694,0,60.6, -2.3, 0.2,0,0,1024,1024,1024,1024,0,0,0,0,60.5,0,0,59,3.858,3.852,0,0,0,0,4.52,77.36,1.6404528084,1.64042,6,P-GPS,
12500,2022-10-20 04:30:10,0,0,1.64042,,,1.6404528084,2.624672,0.223694,0,0,0,0,7.709,1.6404528084,1.64042,0,0,0,-0.223694,0,60.5, -2.1, 0.1,0,0,1024,1024,1024,1024,0,0,0,0,60.5,0,0,59,3.858,3.852,0,0,0,0,4.52,77.36,1.6404528084,1.64042,6,P-GPS,
12600,2022-10-20 04:30:10,0,0,1.64042,,,1.6404528084,2.624672,0.223694,0,0,0,0,7.709,1.6404528084,1.64042,0,0,0,-0.223694,0,60.5, -1.7, 0.1,0,0,568,1024,1024,1024,-69,0,0,0,60.5,0,0,59,3.858,3.852,0,0,0,0,4.52,77.36,1.6404528084,1.64042,6,P-GPS,
12700,2022-10-20 04:30:11,0,0,1.64042,,,1.6404528084,2.624672,0,0,0,0,0,7.709,1.6404528084,1.64042,0,0,0,0,0,60.5, -0.5, 0.1,0,0,716,1024,1024,1024,-47,0,0,0,60.5,0,0,59,3.858,3.852,0,0,0,0,4.52,77.36,1.6404528084,1.64042,6,P-GPS,
12800,2022-10-20 04:30:11,0,0,1.64042,,,1.6404528084,2.624672,0,0,0,0,0,7.709,1.6404528084,1.64042,0,0,0,0,0,60.5, 6.5, 0.2,0,0,1024,1024,1024,1024,0,0,0,0,60.5,0,0,59,3.858,3.852,0,0,0,0,4.52,77.36,1.6404528084,1.64042,6,P-GPS,
12900,2022-10-20 04:30:11,0,0,1.64042,,,1.6404528084,2.624672,0.3131716,0,0,0,0,7.709,1.6404528084,1.64042,0,0,-0.223694,-0.223694,0,60.5, 8.5, -0.1,0,0,1024,1024,1024,1024,0,0,0,0,60.5,0,0,59,3.858,3.852,0,0,0,0,4.52,77.36,1.6404528084,1.64042,6,P-GPS,
13000,2022-10-20 04:30:11,0,0,1.64042,,,1.6404528084,2.624672,0.4921268,0,0,0,0,7.709,1.6404528084,1.64042,0,0,-0.223694,-0.447388,0,60.7, -0.9, 0,0,0,1024,1024,1024,1024,0,0,0,0,60.5,0,0,59,3.858,3.852,0,0,0,0,4.52,77.36,1.6404528084,1.64042,6,P-GPS,
13100,2022-10-20 04:30:11,0,0,1.64042,,,1.6404528084,2.624672,0.4921268,0,0,0,0,7.709,1.6404528084,1.64042,0,0,-0.223694,-0.447388,0,60.6, -2.7, 0.2,0,0,1024,1024,1024,1024,0,0,0,0,60.5,0,0,59,3.858,3.852,0,0,0,0,4.52,77.36,1.6404528084,1.64042,6,P-GPS,
13200,2022-10-20 04:30:11,0,0,1.64042,,,1.6404528084,2.296588,0.4921268,0,0,0,0,7.709,1.6404528084,1.64042,0,0,-0.223694,-0.447388,0,60.6, -2.7, 0.3,0,0,1024,1024,1024,1024,0,0,0,0,60.5,0,0,59,3.858,3.852,0,0,0,0,4.52,77.36,1.6404528084,1.64042,6,P-GPS,
13300,2022-10-20 04:30:11,0,0,1.64042,,,1.6404528084,1.968504,0.223694,0,0,0,0,7.709,1.6404528084,1.64042,0,0,0,-0.223694,0,60.5, -2.3, 0.4,0,0,1024,1024,1024,1024,0,0,0,0,60.5,0,0,59,3.858,3.852,0,0,0,0,4.52,77.36,1.6404528084,1.64042,6,P-GPS,
13400,2022-10-20 04:30:11,0,0,1.64042,,,1.6404528084,1.968504,0.223694,0,0,0,0,7.704,1.6404528084,1.64042,0,0,0,-0.223694,0,60.5, -1.8, 0.3,0,0,1024,1024,1024,1024,0,0,0,0,60.5,0,0,58,3.853,3.849,0,0,0,0,4.611,77.36,1.6404528084,1.64042,6,P-GPS,
13500,2022-10-20 04:30:11,0,0,1.64042,,,1.6404528084,1.968504,0,0,0,0,0,7.704,1.6404528084,1.64042,0,0,0,0,0,60.5, -1.3, 0.1,0,0,1024,1024,1024,1024,0,0,0,0,60.5,0,0,58,3.853,3.849,0,0,0,0,4.611,77.36,1.6404528084,1.64042,6,P-GPS,
13600,2022-10-20 04:30:11,0,0,1.64042,,,1.6404528084,1.64042,0,0,0,0,0,7.704,1.6404528084,1.64042,0,0,0,0,0,60.5, -0.8, 0.1,0,0,962,1024,1024,1024,-9,0,0,0,60.5,0,0,58,3.853,3.849,0,0,0,0,4.611,77.36,1.6404528084,1.64042,6,P-GPS,
13700,2022-10-20 04:30:12,0,0,1.64042,,,1.6404528084,1.64042,0,0,0,0,0,7.704,1.6404528084,1.64042,0,0,0,0,0,60.5, -0.9, -0.1,0,0,713,1024,1024,1024,-47,0,0,0,60.5,0,0,58,3.853,3.849,0,0,0,0,4.611,77.36,1.6404528084,1.64042,6,P-GPS,
13800,2022-10-20 04:30:12,0,0,1.64042,,,1.6404528084,1.64042,0,0,0,0,0,7.704,1.6404528084,1.64042,0,0,0,0,0,60.6, 0.1, 0,0,0,1024,1024,1024,1024,0,0,0,0,60.5,0,0,58,3.853,3.849,0,0,0,0,4.611,77.36,1.6404528084,1.64042,6,P-GPS,
13900,2022-10-20 04:30:12,0,0,1.64042,,,1.6404528084,1.64042,0,0,0,0,0,7.704,1.6404528084,1.64042,0,0,0,0,0,60.5, 3.3, 0.1,0,0,1024,1024,1024,1024,0,0,0,0,60.5,0,0,58,3.853,3.849,0,0,0,0,4.611,77.36,1.6404528084,1.64042,6,P-GPS,
14000,2022-10-20 04:30:12,0,0,1.312336,,,1.3123688084,1.64042,0,0,0,0,0,7.704,1.6404528084,1.64042,0,0,0,0,0,60.6, -0.4, 0,0,0,1024,1024,1024,1024,0,0,0,0,60.5,0,0,58,3.853,3.849,0,0,0,0,4.611,77.36,1.3123688084,1.312336,6,P-GPS,
14100,2022-10-20 04:30:12,0,0,1.312336,,,1.3123688084,1.64042,0,0,0,0,0,7.704,1.6404528084,1.64042,0,0,0,0,0,60.6, -0.6, 0,0,0,1024,1024,1024,1024,0,0,0,0,60.5,0,0,58,3.853,3.849,0,0,0,0,4.611,77.36,1.3123688084,1.312336,6,P-GPS,
14200,2022-10-20 04:30:12,0,0,1.312336,,,1.3123688084,1.64042,0,0,0,0,0,7.704,1.6404528084,1.64042,0,0,0,0,0,60.6, -0.4, 0,0,0,1024,1024,1024,1024,0,0,0,0,60.5,0,0,58,3.853,3.849,0,0,0,0,4.611,77.36,1.3123688084,1.312336,6,P-GPS,
14300,2022-10-20 04:30:12,0,0,1.312336,,,1.3123688084,1.64042,0,0,0,0,0,7.704,1.6404528084,1.64042,0,0,0,0,0,60.6, -0.3, 0,0,0,1024,1024,1024,1024,0,0,0,0,60.5,0,0,58,3.853,3.849,0,0,0,0,4.611,77.36,1.3123688084,1.312336,6,P-GPS,
14400,2022-10-20 04:30:12,0,0,1.312336,,,1.3123688084,1.64042,0,0,0,0,0,7.7,1.6404528084,1.64042,0,0,0,0,0,60.6, -0.2, 0,0,0,854,1024,1024,1024,-26,0,0,0,60.5,0,0,58,3.852,3.846,0,0,0,0,4.534,77.36,1.3123688084,1.312336,6,P-GPS,
14500,2022-10-20 04:30:12,0,0,1.312336,,,1.3123688084,1.64042,0,0,0,0,0,7.7,1.6404528084,1.64042,0,0,0,0,0,60.6, -0.2, 0,0,0,465,1024,1024,1024,-85,0,0,0,60.5,0,0,58,3.852,3.846,0,0,0,0,4.534,77.36,1.3123688084,1.312336,6,P-GPS,
14600,2022-10-20 04:30:13,0,0,1.64042,,,1.6404528084,1.64042,0,0,0,0,0,7.7,1.6404528084,1.64042,0,0,0,0,0,60.6, 3.9, 0,0,0,673,1024,1024,1024,-53,0,0,0,60.5,0,0,58,3.852,3.846,0,0,0,0,4.534,77.36,1.6404528084,1.64042,6,P-GPS,
14700,2022-10-20 04:30:13,0,0,1.64042,,,1.6404528084,1.64042,0.223694,0,0,0,0,7.7,1.6404528084,1.64042,0,0,0,-0.223694,0,60.5, 11, 0.1,0,0,1024,1024,1024,1024,0,0,0,0,60.5,0,0,58,3.852,3.846,0,0,0,0,4.534,77.36,1.6404528084,1.64042,6,P-GPS,
14800,2022-10-20 04:30:13,0,0,1.64042,,,1.6404528084,1.64042,0.4921268,0,0,0,0,7.7,1.6404528084,1.64042,0,0,-0.223694,-0.447388,0,60.6, 6.5, 0,0,0,1024,1024,1024,1024,0,0,0,0,60.5,0,0,58,3.852,3.846,0,0,0,0,4.534,77.36,1.6404528084,1.64042,6,P-GPS,
14900,2022-10-20 04:30:13,0,0,1.64042,,,1.6404528084,1.64042,0.4921268,0,0,0,0,7.7,1.6404528084,1.64042,0,0,-0.223694,-0.447388,0,60.7, -1.8, 0.1,0,0,1024,1024,1024,1024,0,0,0,0,60.5,0,0,58,3.852,3.846,0,0,0,0,4.534,77.36,1.6404528084,1.64042,6,P-GPS,
15000,2022-10-20 04:30:13,0,0,1.64042,,,1.6404528084,1.64042,0.4921268,0,0,0,0,7.7,1.6404528084,1.64042,0,0,-0.223694,-0.447388,0,60.6, -3.4, 0.1,0,0,1024,1024,1024,1024,0,0,0,0,60.5,0,0,58,3.852,3.846,0,0,0,0,4.534,77.36,1.6404528084,1.64042,6,P-GPS,
15100,2022-10-20 04:30:13,0,0,1.64042,,,1.6404528084,1.64042,0.4921268,0,0,0,0,7.7,1.6404528084,1.64042,0,0,-0.223694,-0.223694,0,60.6, -3.1, 0,0,0,1024,1024,1024,1024,0,0,0,0,60.5,0,0,58,3.852,3.846,0,0,0,0,4.534,77.36,1.6404528084,1.64042,6,P-GPS,
15200,2022-10-20 04:30:13,0,0,1.64042,,,1.6404528084,1.64042,0.223694,0,0,0,0,7.7,1.6404528084,1.64042,0,0,0,-0.223694,0,60.6, -2.5, 0.1,0,0,1024,1024,1024,1024,0,0,0,0,60.5,0,0,58,3.852,3.846,0,0,0,0,4.534,77.36,1.6404528084,1.64042,6,P-GPS,
15300,2022-10-20 04:30:13,0,0,1.64042,,,1.6404528084,1.64042,0.223694,0,0,0,0,7.7,1.6404528084,1.64042,0,0,0,-0.223694,0,60.5, -1.9, 0.2,0,0,1024,1024,1024,1024,0,0,0,0,60.5,0,0,58,3.852,3.846,0,0,0,0,4.534,77.36,1.6404528084,1.64042,6,P-GPS,
15400,2022-10-20 04:30:13,0,0,1.64042,,,1.6404528084,1.64042,0.223694,0,0,0,0,7.7,1.6404528084,1.64042,0,0,0,0,0,60.5, -1.4, 0.2,0,0,1024,1024,1024,1024,0,0,0,0,60.5,0,0,58,3.852,3.846,0,0,0,0,4.534,77.36,1.6404528084,1.64042,6,P-GPS,
15500,2022-10-20 04:30:13,0,0,1.64042,,,1.6404528084,1.64042,0,0,0,0,0,7.692,1.6404528084,1.64042,0,0,0,0,0,60.5, -0.9, 0.1,0,0,611,1024,1024,1024,-63,0,0,0,60.5,0,0,58,3.841,3.841,0,0,0,0,4.628,77.36,1.6404528084,1.64042,6,P-GPS,
15600,2022-10-20 04:30:13,0,0,1.64042,,,1.6404528084,1.64042,0,0,0,0,0,7.692,1.6404528084,1.64042,0,0,0,0,0,60.5, 0.4, 0.2,0,0,1024,1024,1024,1024,0,0,0,0,60.5,0,0,58,3.841,3.841,0,0,0,0,4.628,77.36,1.6404528084,1.64042,6,P-GPS,
15700,2022-10-20 04:30:14,0,0,1.64042,,,1.6404528084,1.64042,0,0,0,0,0,7.692,1.6404528084,1.64042,0,0,0,0,0,60.5, 6.7, 0.3,0,0,1024,1024,1024,1024,0,0,0,0,60.5,0,0,58,3.841,3.841,0,0,0,0,4.628,77.36,1.6404528084,1.64042,6,P-GPS,
15800,2022-10-20 04:30:14,0,0,1.64042,,,1.6404528084,1.64042,0.223694,0,0,0,0,7.692,1.6404528084,1.64042,0,0,0,-0.223694,0,60.6, -0.4, 0,0,0,1024,1024,1024,1024,0,0,0,0,60.5,0,0,58,3.841,3.841,0,0,0,0,4.628,77.36,1.6404528084,1.64042,6,P-GPS,
15900,2022-10-20 04:30:14,0,0,1.64042,,,1.6404528084,1.64042,0.223694,0,0,0,0,7.692,1.6404528084,1.64042,0,0,0,-0.223694,0,60.6, -1.6, 0.1,0,0,1024,1024,1024,1024,0,0,0,0,60.5,0,0,58,3.841,3.841,0,0,0,0,4.628,77.36,1.6404528084,1.64042,6,P-GPS,
16000,2022-10-20 04:30:14,0,0,1.64042,,,1.6404528084,1.64042,0.223694,0,0,0,0,7.692,1.6404528084,1.64042,0,0,0,-0.223694,0,60.5, -1.6, 0.1,0,0,1024,1024,1024,1024,0,0,0,0,60.5,0,0,58,3.841,3.841,0,0,0,0,4.628,77.36,1.6404528084,1.64042,6,P-GPS,
16100,2022-10-20 04:30:14,0,0,1.64042,,,1.6404528084,1.64042,0,0,0,0,0,7.692,1.6404528084,1.64042,0,0,0,0,0,60.5, -1.4, 0,0,0,1024,1024,1024,1024,0,0,0,0,60.5,0,0,58,3.841,3.841,0,0,0,0,4.628,77.36,1.6404528084,1.64042,6,P-GPS,
16200,2022-10-20 04:30:14,0,0,1.64042,,,1.6404528084,1.64042,0,0,0,0,0,7.692,1.6404528084,1.64042,0,0,0,0,0,60.5, -1.1, 0,0,0,1024,1024,1024,1024,0,0,0,0,60.5,0,0,58,3.841,3.841,0,0,0,0,4.628,77.36,1.6404528084,1.64042,6,P-GPS,
16300,2022-10-20 04:30:14,0,0,1.64042,,,1.6404528084,1.64042,0,0,0,0,0,7.692,1.6404528084,1.64042,0,0,0,0,0,60.5, -0.8, 0,0,0,1024,1024,1024,1024,0,0,0,0,60.5,0,0,58,3.841,3.841,0,0,0,0,4.628,77.36,1.6404528084,1.64042,6,P-GPS,
16400,2022-10-20 04:30:14,0,0,1.64042,,,1.6404528084,1.64042,0,0,0,0,0,7.692,1.6404528084,1.64042,0,0,0,0,0,60.5, -0.5, 0.1,0,0,679,1024,1024,1024,-52,0,0,0,60.5,0,0,58,3.841,3.841,0,0,0,0,4.628,77.36,1.6404528084,1.64042,6,P-GPS,
16500,2022-10-20 04:30:14,0,0,1.64042,,,1.6404528084,1.64042,0,0,0,0,0,7.688,1.6404528084,1.64042,0,0,0,0,0,60.5, 0.7, 0.1,0,0,614,1024,1024,1024,-62,0,0,0,60.5,0,0,58,3.847,3.841,0,0,0,0,4.566,77.36,1.6404528084,1.64042,6,P-GPS,"Vuela con cuidado (sin GPS) Señal débil del GPS. Vuelo estacionario inestable. Vuela con cuidado (Code: 30002)"
16600,2022-10-20 04:30:14,0,0,1.64042,,,1.6404528084,1.64042,0,0,0,0,0,7.688,1.6404528084,1.64042,0,0,0,0,0,60.4, 4, 0.1,0,0,678,1024,1024,1024,-52,0,0,0,60.5,0,0,58,3.847,3.841,0,0,0,0,4.566,77.36,1.6404528084,1.64042,1,Atti,"Señal del GPS demasiado débil. Se ha pasado al modo Atti. La aeronave no puede hacer vuelo estacionario. Vuela con precaución (Code: 30022). Señal débil del GPS. Vuelo estacionario inestable. Vuela con cuidado (Code: 30002)"
16700,2022-10-20 04:30:15,0,0,1.64042,,,1.6404528084,1.64042,0,0,0,0,0,7.688,1.6404528084,1.64042,0,0,0,0,0,60.5, 2.2, 0,0,0,706,1024,1024,1024,-48,0,0,0,60.5,0,0,58,3.847,3.841,0,0,0,0,4.566,77.36,1.6404528084,1.64042,1,Atti,"Vuela con cuidado (modo Atti) Aeronave en modo Atti. No se puede hacer vuelo estacionario. Vuela con cuidado (Code: 30004). La brújula no funciona bien el GPS no tiene buena señal. Cambia a modo Atti (Code: 30020)"
16800,2022-10-20 04:30:15,0,0,1.64042,,,1.6404528084,1.64042,0,0,0,0,0,7.688,1.6404528084,1.64042,0,0,0,0,0,60.5, 1.9, 0,0,0,731,1024,1024,1024,-44,0,0,0,60.5,0,0,58,3.847,3.841,0,0,0,0,4.566,77.36,1.6404528084,1.64042,1,Atti,
16900,2022-10-20 04:30:15,0,0,1.64042,,,1.6404528084,1.64042,0,0,0,0,0,7.688,1.6404528084,1.64042,0,0,0,0,0,60.5, 2, 0,0,0,740,1024,1024,1024,-43,0,0,0,60.5,0,0,58,3.847,3.841,0,0,0,0,4.566,77.36,1.6404528084,1.64042,1,Atti,
17000,2022-10-20 04:30:15,0,0,1.64042,,,1.6404528084,1.64042,0,0,0,0,0,7.688,1.6404528084,1.64042,0,0,0,0,0,60.5, 2, 0,0,0,740,1024,1024,1024,-43,0,0,0,60.5,0,0,58,3.847,3.841,0,0,0,0,4.566,77.36,1.6404528084,1.64042,1,Atti,
17100,2022-10-20 04:30:15,0,0,1.64042,,,1.6404528084,1.64042,0,0,0,0,0,7.688,1.6404528084,1.64042,0,0,0,0,0,60.4, 2.1, 0,0,0,740,1024,1024,1024,-43,0,0,0,60.5,0,0,58,3.847,3.841,0,0,0,0,4.566,77.36,1.6404528084,1.64042,1,Atti,
17200,2022-10-20 04:30:15,0,0,1.64042,,,1.6404528084,1.64042,0,0,0,0,0,7.688,1.6404528084,1.64042,0,0,0,0,0,60.5, 2.3, 0,0,0,733,1024,1024,1024,-44,0,0,0,60.5,0,0,58,3.847,3.841,0,0,0,0,4.566,77.36,1.6404528084,1.64042,1,Atti,
17300,2022-10-20 04:30:15,0,0,1.64042,,,1.6404528084,1.64042,0,0,0,0,0,7.688,1.6404528084,1.64042,0,0,0,0,0,60.5, 2.5, 0,0,0,712,1024,1024,1024,-47,0,0,0,60.5,0,0,58,3.847,3.841,0,0,0,0,4.566,77.36,1.6404528084,1.64042,1,Atti,
17400,2022-10-20 04:30:15,0,0,1.64042,,,1.6404528084,1.64042,0,0,0,0,0,7.688,1.6404528084,1.64042,0,0,0,0,0,60.5, 2.9, 0,0,0,711,1024,1024,1024,-47,0,0,0,60.5,0,0,58,3.847,3.841,0,0,0,0,4.566,77.36,1.6404528084,1.64042,1,Atti,
17500,2022-10-20 04:30:15,0,0,1.64042,,,1.6404528084,1.64042,0,0,0,0,0,7.684,1.6404528084,1.64042,0,0,0,0,0,60.5, 3.3, 0,0,0,711,1024,1024,1024,-47,0,0,0,60.5,0,0,58,3.845,3.84,0,0,0,0,4.547,77.54,1.6404528084,1.64042,1,Atti,
17600,2022-10-20 04:30:15,0,0,1.64042,,,1.6404528084,1.64042,0,0,0,0,0,7.684,1.6404528084,1.64042,0,0,0,0,0,60.5, 3.4, 0,0,0,716,1024,1024,1024,-47,0,0,0,60.5,0,0,58,3.845,3.84,0,0,0,0,4.547,77.54,1.6404528084,1.64042,1,Atti,
17700,2022-10-20 04:30:16,0,0,1.64042,,,1.6404528084,1.64042,0,0,0,0,0,7.684,1.6404528084,1.64042,0,0,0,0,0,60.5, 3.4, 0,0,0,719,1024,1024,1024,-46,0,0,0,60.5,0,0,58,3.845,3.84,0,0,0,0,4.547,77.54,1.6404528084,1.64042,1,Atti,
17800,2022-10-20 04:30:16,0,0,1.64042,,,1.6404528084,1.64042,0,0,0,0,0,7.684,1.6404528084,1.64042,0,0,0,0,0,60.5, 3.5, 0,0,0,719,1024,1024,1024,-46,0,0,0,60.5,0,0,58,3.845,3.84,0,0,0,0,4.547,77.54,1.6404528084,1.64042,1,Atti,
17900,2022-10-20 04:30:16,0,0,1.64042,,,1.6404528084,1.64042,0,0,0,0,0,7.684,1.6404528084,1.64042,0,0,0,0,0,60.5, 3.5, 0,0,0,728,1024,1024,1024,-45,0,0,0,60.5,0,0,58,3.845,3.84,0,0,0,0,4.547,77.54,1.6404528084,1.64042,1,Atti,
18000,2022-10-20 04:30:16,0,0,1.64042,,,1.6404528084,1.64042,0,0,0,0,0,7.684,1.6404528084,1.64042,0,0,0,0,0,60.5, 3.5, -0.1,0,0,770,1024,1024,1024,-38,0,0,0,60.5,0,0,58,3.845,3.84,0,0,0,0,4.547,77.54,1.6404528084,1.64042,1,Atti,
18100,2022-10-20 04:30:16,0,0,1.64042,,,1.6404528084,1.64042,0,0,0,0,0,7.684,1.6404528084,1.64042,0,0,0,0,0,60.5, 3.2, -0.1,0,0,1024,1024,1024,1024,0,0,0,0,60.5,0,0,58,3.845,3.84,0,0,0,0,4.547,77.54,1.6404528084,1.64042,1,Atti,
18200,2022-10-20 04:30:16,0,0,1.64042,,,1.6404528084,1.64042,0,0,0,0,0,7.684,1.6404528084,1.64042,0,0,0,0,0,60.5, 1.4, -0.2,0,0,1024,1024,1024,1024,0,0,0,0,60.5,0,0,58,3.845,3.84,0,0,0,0,4.547,77.54,1.6404528084,1.64042,1,Atti,
18300,2022-10-20 04:30:16,0,0,1.64042,,,1.6404528084,1.64042,0,0,0,0,0,7.684,1.6404528084,1.64042,0,0,0,0,0,60.5, 0, -0.1,0,0,1024,1024,1024,1024,0,0,0,0,60.5,0,0,58,3.845,3.84,0,0,0,0,4.547,77.54,1.6404528084,1.64042,1,Atti,
18400,2022-10-20 04:30:16,0,0,1.64042,,,1.6404528084,1.64042,0,0,0,0,0,7.684,1.6404528084,1.64042,0,0,0,0,0,60.5, 0, -0.2,0,0,1024,1024,1024,1024,0,0,0,0,60.5,0,0,58,3.845,3.84,0,0,0,0,4.547,77.54,1.6404528084,1.64042,1,Atti,
18500,2022-10-20 04:30:16,0,0,1.64042,,,1.6404528084,1.64042,0,0,0,0,0,7.683,1.6404528084,1.64042,0,0,0,0,0,60.5, 0, -0.1,0,0,1024,1024,1024,1024,0,0,0,0,60.5,0,0,58,3.843,3.837,0,0,0,0,4.475,77.54,1.6404528084,1.64042,1,Atti,
18600,2022-10-20 04:30:17,0,0,1.64042,,,1.6404528084,1.64042,0,0,0,0,0,7.683,1.6404528084,1.64042,0,0,0,0,0,60.5, 0, 0,0,0,1024,1024,1024,1024,0,0,0,0,60.5,0,0,58,3.843,3.837,0,0,0,0,4.475,77.54,1.6404528084,1.64042,1,Atti,
18700,2022-10-20 04:30:17,0,0,1.64042,,,1.6404528084,1.64042,0,0,0,0,0,7.683,1.6404528084,1.64042,0,0,0,0,0,60.5, 0, 0.1,0,0,1024,1024,1024,1024,0,0,0,0,60.5,0,0,58,3.843,3.837,0,0,0,0,4.475,77.54,1.6404528084,1.64042,1,Atti,
18800,2022-10-20 04:30:17,0,0,1.64042,,,1.6404528084,1.64042,0,0,0,0,0,7.683,1.6404528084,1.64042,0,0,0,0,0,60.6, 0, 0.1,0,0,1024,1024,1024,1024,0,0,0,0,60.5,0,0,58,3.843,3.837,0,0,0,0,4.475,77.54,1.6404528084,1.64042,1,Atti,
18900,2022-10-20 04:30:17,0,0,1.64042,,,1.6404528084,1.64042,0,0,0,0,0,7.683,1.6404528084,1.64042,0,0,0,0,0,60.5, 0, 0.2,0,0,1024,1024,1024,1024,0,0,0,0,60.5,0,0,58,3.843,3.837,0,0,0,0,4.475,77.54,1.6404528084,1.64042,1,Atti,
19000,2022-10-20 04:30:17,0,0,1.64042,,,1.6404528084,1.64042,0,0,0,0,0,7.683,1.6404528084,1.64042,0,0,0,0,0,60.5, 0, 0.2,0,0,1024,1024,1024,1024,0,0,0,0,60.5,0,0,58,3.843,3.837,0,0,0,0,4.475,77.54,1.6404528084,1.64042,1,Atti,
19100,2022-10-20 04:30:17,0,0,1.64042,,,1.6404528084,1.64042,0,0,0,0,0,7.683,1.6404528084,1.64042,0,0,0,0,0,60.5, 0, 0.1,0,0,1024,1024,1024,1024,0,0,0,0,60.5,0,0,58,3.843,3.837,0,0,0,0,4.475,77.54,1.6404528084,1.64042,1,Atti,
19200,2022-10-20 04:30:17,0,0,1.64042,,,1.6404528084,1.64042,0,0,0,0,0,7.683,1.6404528084,1.64042,0,0,0,0,0,60.4, 0, 0,0,0,1024,1024,1024,1024,0,0,0,0,60.5,0,0,58,3.843,3.837,0,0,0,0,4.475,77.54,1.6404528084,1.64042,1,Atti,
19300,2022-10-20 04:30:17,0,0,1.64042,,,1.6404528084,1.64042,0,0,0,0,0,7.683,1.6404528084,1.64042,0,0,0,0,0,60.4, 0, 0,0,0,1024,1024,1024,1024,0,0,0,0,60.5,0,0,58,3.843,3.837,0,0,0,0,4.475,77.54,1.6404528084,1.64042,1,Atti,
19400,2022-10-20 04:30:17,0,0,1.64042,,,1.6404528084,1.64042,0,0,0,0,0,7.683,1.6404528084,1.64042,0,0,0,0,0,60.4, 0.1, -0.1,0,0,1024,1024,1024,1024,0,0,0,0,60.5,0,0,58,3.843,3.837,0,0,0,0,4.475,77.54,1.6404528084,1.64042,1,Atti,
19500,2022-10-20 04:30:17,0,0,1.64042,,,1.6404528084,1.64042,0,0,0,0,0,7.679,1.6404528084,1.64042,0,0,0,0,0,60.4, 0, -0.1,0,0,1024,1024,1024,1024,0,0,0,0,60.5,0,0,58,3.841,3.835,0,0,0,0,4.483,77.54,1.6404528084,1.64042,1,Atti,
19600,2022-10-20 04:30:17,0,0,1.64042,,,1.6404528084,1.64042,0,0,0,0,0,7.679,1.6404528084,1.64042,0,0,0,0,0,60.5, 0, -0.1,0,0,1024,1024,1024,1024,0,0,0,0,60.5,0,0,58,3.841,3.835,0,0,0,0,4.483,77.54,1.6404528084,1.64042,1,Atti,
19700,2022-10-20 04:30:18,0,0,1.64042,,,1.6404528084,1.64042,0,0,0,0,0,7.679,1.6404528084,1.64042,0,0,0,0,0,60.5, 0, 0,0,0,1024,1024,1024,1024,0,0,0,0,60.5,0,0,58,3.841,3.835,0,0,0,0,4.483,77.54,1.6404528084,1.64042,1,Atti,
19800,2022-10-20 04:30:18,0,0,1.64042,,,1.6404528084,1.64042,0,0,0,0,0,7.679,1.6404528084,1.64042,0,0,0,0,0,60.5, -0.1, 0,0,0,1024,1024,1024,1024,0,0,0,0,60.5,0,0,58,3.841,3.835,0,0,0,0,4.483,77.54,1.6404528084,1.64042,1,Atti,
19900,2022-10-20 04:30:18,0,0,1.64042,,,1.6404528084,1.64042,0,0,0,0,0,7.679,1.6404528084,1.64042,0,0,0,0,0,60.5, 0, 0,0,0,1024,1024,1024,1024,0,0,0,0,60.5,0,0,58,3.841,3.835,0,0,0,0,4.483,77.54,1.6404528084,1.64042,1,Atti,
20000,2022-10-20 04:30:18,0,0,1.64042,,,1.6404528084,1.64042,0,0,0,0,0,7.679,1.6404528084,1.64042,0,0,0,0,0,60.5, 0, 0,0,0,1024,1024,1024,1024,0,0,0,0,60.5,0,0,58,3.841,3.835,0,0,0,0,4.483,77.54,1.6404528084,1.64042,1,Atti,
20100,2022-10-20 04:30:18,0,0,1.64042,,,1.6404528084,1.64042,0,0,0,0,0,7.679,1.6404528084,1.64042,0,0,0,0,0,60.5, 0, 0.1,0,0,1024,1024,1024,1024,0,0,0,0,60.5,0,0,58,3.841,3.835,0,0,0,0,4.483,77.54,1.6404528084,1.64042,1,Atti,
20200,2022-10-20 04:30:18,0,0,1.64042,,,1.6404528084,1.64042,0,0,0,0,0,7.679,1.6404528084,1.64042,0,0,0,0,0,60.5, -0.1, 0.2,0,0,1165,1024,1024,1024,21,0,0,0,60.5,0,0,58,3.841,3.835,0,0,0,0,4.483,77.54,1.6404528084,1.64042,1,Atti,
20300,2022-10-20 04:30:18,0,0,1.64042,,,1.6404528084,1.64042,0,0,0,0,0,7.679,1.6404528084,1.64042,0,0,0,0,0,60.5, -0.9, 0,0,0,1196,1024,1024,1024,26,0,0,0,60.5,0,0,58,3.841,3.835,0,0,0,0,4.483,77.54,1.6404528084,1.64042,1,Atti,
20400,2022-10-20 04:30:18,0,0,1.64042,,,1.6404528084,1.64042,0,0,0,0,0,7.679,1.6404528084,1.64042,0,0,0,0,0,60.5, -2.6, 0,0,0,1024,1024,1024,1024,0,0,0,0,60.5,0,0,58,3.841,3.835,0,0,0,0,4.483,77.54,1.6404528084,1.64042,1,Atti,
20500,2022-10-20 04:30:18,0,0,1.64042,,,1.6404528084,1.64042,0,0,0,0,0,7.679,1.6404528084,1.64042,0,0,0,0,0,60.6, -0.2, 0.1,0,0,1024,1024,1024,1024,0,0,0,0,60.5,0,0,58,3.841,3.835,0,0,0,0,4.483,77.54,1.6404528084,1.64042,1,Atti,
20600,2022-10-20 04:30:18,0,0,1.64042,,,1.6404528084,1.64042,0,0,0,0,0,7.675,1.6404528084,1.64042,0,0,0,0,0,60.6, -0.1, 0.1,0,0,1024,1024,1024,1024,0,0,0,0,60.5,0,0,58,3.84,3.835,0,0,0,0,4.484,77.54,1.6404528084,1.64042,1,Atti,
20700,2022-10-20 04:30:19,0,0,1.64042,,,1.6404528084,1.64042,0,0,0,0,0,7.675,1.6404528084,1.64042,0,0,0,0,0,60.5, 0, 0,0,0,1024,1024,1024,1024,0,0,0,0,60.5,0,0,58,3.84,3.835,0,0,0,0,4.484,77.54,1.6404528084,1.64042,1,Atti,
20800,2022-10-20 04:30:19,0,0,1.64042,,,1.6404528084,1.64042,0,0,0,0,0,7.675,1.6404528084,1.64042,0,0,0,0,0,60.5, 0, 0.2,0,0,1307,1024,1024,1024,43,0,0,0,60.5,0,0,58,3.84,3.835,0,0,0,0,4.484,77.54,1.6404528084,1.64042,1,Atti,
20900,2022-10-20 04:30:19,0,0,1.64042,,,1.6404528084,1.64042,0,0,0,0,0,7.675,1.6404528084,1.64042,0,0,0,0,0,60.5, -0.1, 0.1,0,0,1239,1024,1024,1024,33,0,0,0,60.5,0,0,58,3.84,3.835,0,0,0,0,4.484,77.54,1.6404528084,1.64042,1,Atti,
21000,2022-10-20 04:30:19,0,0,1.64042,,,1.6404528084,1.968504,0,0,0,0,0,7.675,1.6404528084,1.64042,0,0,0,0,0,60.6, -5.3, 0.2,0,0,1239,1024,1024,1024,33,0,0,0,60.5,0,0,58,3.84,3.835,0,0,0,0,4.484,77.54,1.6404528084,1.64042,1,Atti,
21100,2022-10-20 04:30:19,0,0,1.64042,,,1.6404528084,1.968504,0,0,0,0,0,7.675,1.6404528084,1.64042,0,0,0,0,0,60.4, -2.9, 0.1,0,0,1024,1024,1024,1024,0,0,0,0,60.5,0,0,58,3.84,3.835,0,0,0,0,4.484,77.54,1.6404528084,1.64042,1,Atti,
21200,2022-10-20 04:30:19,0,0,1.64042,,,1.6404528084,1.968504,0,0,0,0,0,7.675,1.6404528084,1.64042,0,0,0,0,0,60.3, 0.3, -0.1,0,0,1024,1024,1024,1024,0,0,0,0,60.5,0,0,58,3.84,3.835,0,0,0,0,4.484,77.54,1.6404528084,1.64042,1,Atti,
21300,2022-10-20 04:30:19,0,0,1.64042,,,1.6404528084,1.968504,0,0,0,0,0,7.675,1.6404528084,1.64042,0,0,0,0,0,60.4, 0.6, 0,0,0,1024,1024,1024,1024,0,0,0,0,60.5,0,0,58,3.84,3.835,0,0,0,0,4.484,77.54,1.6404528084,1.64042,1,Atti,
21400,2022-10-20 04:30:19,0,0,1.312336,,,1.3123688084,1.968504,0,0,0,0,0,7.675,1.6404528084,1.64042,0,0,0,0,0,60.4, 0.3, 0,0,0,1024,1024,1024,1024,0,0,0,0,60.5,0,0,58,3.84,3.835,0,0,0,0,4.484,77.54,1.3123688084,1.312336,1,Atti,
21500,2022-10-20 04:30:19,0,0,1.312336,,,1.3123688084,1.64042,0,0,0,0,0,7.675,1.6404528084,1.64042,0,0,0,0,0,60.4, -0.1, -0.2,0,0,1024,1024,1024,1024,0,0,0,0,60.5,0,0,58,3.84,3.835,0,0,0,0,4.484,77.54,1.3123688084,1.312336,1,Atti,
21600,2022-10-20 04:30:19,0,0,1.312336,,,1.3123688084,1.64042,0,0,0,0,0,7.674,1.6404528084,1.64042,0,0,0,0,0,60.5, 0, 0,0,0,1024,1024,1024,1024,0,0,0,0,60.5,0,0,58,3.839,3.835,0,0,0,0,4.421,77.54,1.3123688084,1.312336,1,Atti,
21700,2022-10-20 04:30:20,0,0,1.312336,,,1.3123688084,1.64042,0,0,0,0,0,7.674,1.6404528084,1.64042,0,0,0,0,0,60.5, 0, 0.2,0,0,1024,1130,1024,1024,0,16,0,0,60.5,0,0,58,3.839,3.835,0,0,0,0,4.421,77.54,1.3123688084,1.312336,1,Atti,
21800,2022-10-20 04:30:20,0,0,1.312336,,,1.3123688084,1.64042,0,0,0,0,0,7.674,1.6404528084,1.64042,0,0,0,0,0,60.5, 0.1, 0.3,0,0,1024,1357,1024,1024,0,50,0,0,60.5,0,0,58,3.839,3.835,0,0,0,0,4.421,77.54,1.3123688084,1.312336,1,Atti,
21900,2022-10-20 04:30:20,0,0,1.312336,,,1.3123688084,1.64042,0,0,0,0,0,7.674,1.6404528084,1.64042,0,0,0,0,0,60.5, 0.2, 2.9,0,0,1024,1024,1024,1024,0,0,0,0,60.5,0,0,58,3.839,3.835,0,0,0,0,4.421,77.54,1.3123688084,1.312336,1,Atti,
22000,2022-10-20 04:30:20,0,0,1.312336,,,1.3123688084,1.64042,0,0,0,0,0,7.674,1.6404528084,1.64042,0,0,0,0,0,60.8, 0.6, 4.4,0,0,1024,1024,1024,1024,0,0,0,0,60.5,0,0,58,3.839,3.835,0,0,0,0,4.421,77.54,1.3123688084,1.312336,1,Atti,
22100,2022-10-20 04:30:20,0,0,1.312336,,,1.3123688084,1.64042,0,0,0,0,0,7.674,1.6404528084,1.64042,0,0,0,0,0,60.4, 0.4, 0.3,0,0,1024,1024,1024,1024,0,0,0,0,60.5,0,0,58,3.839,3.835,0,0,0,0,4.421,77.54,1.3123688084,1.312336,1,Atti,
22200,2022-10-20 04:30:20,0,0,1.312336,,,1.3123688084,1.64042,0,0,0,0,0,7.674,1.6404528084,1.64042,0,0,0,0,0,60.5, 0.2, 0.2,0,0,1024,1024,1024,1024,0,0,0,0,60.5,0,0,58,3.839,3.835,0,0,0,0,4.421,77.54,1.3123688084,1.312336,1,Atti,
22300,2022-10-20 04:30:20,0,0,1.312336,,,1.3123688084,1.64042,0,0,0,0,0,7.674,1.6404528084,1.64042,0,0,0,0,0,60.5, 0.1, 0,0,0,1024,1125,1024,1024,0,15,0,0,60.5,0,0,58,3.839,3.835,0,0,0,0,4.421,77.54,1.3123688084,1.312336,1,Atti,
22400,2022-10-20 04:30:20,0,0,1.312336,,,1.3123688084,1.64042,0,0,0,0,0,7.674,1.6404528084,1.64042,0,0,0,0,0,60.5, 0, 0.3,0,0,1024,1412,1024,1024,0,59,0,0,60.5,0,0,58,3.839,3.835,0,0,0,0,4.421,77.54,1.3123688084,1.312336,1,Atti,
22500,2022-10-20 04:30:20,0,0,1.312336,,,1.3123688084,1.64042,0,0,0,0,0,7.674,1.6404528084,1.64042,0,0,0,0,0,60.7, 0, 6.5,0,0,1024,1024,1024,1024,0,0,0,0,60.5,0,0,58,3.839,3.835,0,0,0,0,4.421,77.54,1.3123688084,1.312336,1,Atti,
22600,2022-10-20 04:30:21,0,0,1.64042,,,1.6404528084,1.64042,0,0,0,0,0,7.669,1.6404528084,1.64042,0,0,0,0,0,60.6, 0, 2.9,0,0,1024,1024,1024,1024,0,0,0,0,60.5,0,0,58,3.833,3.827,0,0,0,0,4.478,77.72,1.6404528084,1.64042,1,Atti,
22700,2022-10-20 04:30:21,0,0,1.64042,,,1.6404528084,1.64042,0,0,0,0,0,7.669,1.6404528084,1.64042,0,0,0,0,0,60.3, 0, 0.2,0,0,1024,1027,1024,1024,0,0,0,0,60.5,0,0,58,3.833,3.827,0,0,0,0,4.478,77.72,1.6404528084,1.64042,1,Atti,
22800,2022-10-20 04:30:21,0,0,1.64042,,,1.6404528084,1.64042,0,0,0,0,0,7.669,1.6404528084,1.64042,0,0,0,0,0,60.4, 0.1, 0,0,0,1024,1365,1024,1024,0,52,0,0,60.5,0,0,58,3.833,3.827,0,0,0,0,4.478,77.72,1.6404528084,1.64042,1,Atti,
22900,2022-10-20 04:30:21,0,0,1.64042,,,1.6404528084,1.64042,0,0,0,0,0,7.669,1.6404528084,1.64042,0,0,0,0,0,60.4, 0.1, 0.8,0,0,1024,1181,1024,1024,0,24,0,0,60.5,0,0,58,3.833,3.827,0,0,0,0,4.478,77.72,1.6404528084,1.64042,1,Atti,
23000,2022-10-20 04:30:21,0,0,1.64042,,,1.6404528084,1.64042,0,0,0,0,0,7.669,1.6404528084,1.64042,0,0,0,0,0,60.7, 0.1, 6.8,0,0,1024,1181,1024,1024,0,24,0,0,60.5,0,0,58,3.833,3.827,0,0,0,0,4.478,77.72,1.6404528084,1.64042,1,Atti,
23100,2022-10-20 04:30:21,0,0,1.64042,,,1.6404528084,1.64042,0,0,0,0,0,7.669,1.6404528084,1.64042,0,0,0,0,0,60.4, 0.2, 2.1,0,0,1024,1024,1024,1024,0,0,0,0,60.5,0,0,58,3.833,3.827,0,0,0,0,4.478,77.72,1.6404528084,1.64042,1,Atti,
23200,2022-10-20 04:30:21,0,0,1.64042,,,1.6404528084,1.64042,0,0,0,0,0,7.669,1.6404528084,1.64042,0,0,0,0,0,60.3, 0.1, 0.1,0,0,1024,1024,1024,1024,0,0,0,0,60.5,0,0,58,3.833,3.827,0,0,0,0,4.478,77.72,1.6404528084,1.64042,1,Atti,
23300,2022-10-20 04:30:21,0,0,1.64042,,,1.6404528084,1.64042,0,0,0,0,0,7.669,1.6404528084,1.64042,0,0,0,0,0,60.4, 0.1, 0,0,0,1024,1024,1024,1024,0,0,0,0,60.5,0,0,58,3.833,3.827,0,0,0,0,4.478,77.72,1.6404528084,1.64042,1,Atti,
23400,2022-10-20 04:30:21,0,0,1.64042,,,1.6404528084,1.64042,0,0,0,0,0,7.669,1.6404528084,1.64042,0,0,0,0,0,60.4, 0.1, -0.1,0,0,618,1024,1024,1024,-62,0,0,0,60.5,0,0,58,3.833,3.827,0,0,0,0,4.478,77.72,1.6404528084,1.64042,1,Atti,
23500,2022-10-20 04:30:21,0,0,1.64042,,,1.6404528084,1.64042,0,0,0,0,0,7.669,1.6404528084,1.64042,0,0,0,0,0,60.4, 3, -0.3,0,0,1024,1024,1024,1024,0,0,0,0,60.5,0,0,58,3.833,3.827,0,0,0,0,4.478,77.72,1.6404528084,1.64042,1,Atti,
23600,2022-10-20 04:30:21,0,0,1.64042,,,1.6404528084,1.64042,0,0,0,0,0,7.664,1.6404528084,1.64042,0,0,0,0,0,60.3, 10.7, 0,0,0,1024,1024,1024,1024,0,0,0,0,60.5,0,0,58,3.834,3.828,0,0,0,0,4.539,77.72,1.6404528084,1.64042,1,Atti,
23700,2022-10-20 04:30:22,0,0,1.64042,,,1.6404528084,1.64042,0,0,0,0,0,7.664,1.6404528084,1.64042,0,0,0,0,0,60.6, -0.2, -0.2,0,0,1024,1024,1024,1024,0,0,0,0,60.5,0,0,58,3.834,3.828,0,0,0,0,4.539,77.72,1.6404528084,1.64042,1,Atti,
23800,2022-10-20 04:30:22,0,0,1.64042,,,1.6404528084,1.64042,0,0,0,0,0,7.664,1.6404528084,1.64042,0,0,0,0,0,60.5, 0, -0.2,0,0,1024,1024,1024,1024,0,0,0,0,60.5,0,0,58,3.834,3.828,0,0,0,0,4.539,77.72,1.6404528084,1.64042,1,Atti,
23900,2022-10-20 04:30:22,0,0,1.64042,,,1.6404528084,1.64042,0,0,0,0,0,7.664,1.6404528084,1.64042,0,0,0,0,0,60.4, 0, -0.2,0,0,1024,1024,1024,1024,0,0,0,0,60.5,0,0,58,3.834,3.828,0,0,0,0,4.539,77.72,1.6404528084,1.64042,1,Atti,
24000,2022-10-20 04:30:22,0,0,1.64042,,,1.6404528084,1.64042,0,0,0,0,0,7.664,1.6404528084,1.64042,0,0,0,0,0,60.4, 0, -0.1,0,0,1024,1024,1024,1024,0,0,0,0,60.5,0,0,58,3.834,3.828,0,0,0,0,4.539,77.72,1.6404528084,1.64042,1,Atti,
24100,2022-10-20 04:30:22,0,0,1.64042,,,1.6404528084,1.64042,0,0,0,0,0,7.664,1.6404528084,1.64042,0,0,0,0,0,60.4, 0, 0,0,0,903,1024,1024,1024,-18,0,0,0,60.5,0,0,58,3.834,3.828,0,0,0,0,4.539,77.72,1.6404528084,1.64042,1,Atti,
24200,2022-10-20 04:30:22,0,0,1.64042,,,1.6404528084,1.64042,0,0,0,0,0,7.664,1.6404528084,1.64042,0,0,0,0,0,60.4, 1, 0,0,0,721,1024,1024,1024,-46,0,0,0,60.5,0,0,58,3.834,3.828,0,0,0,0,4.539,77.72,1.6404528084,1.64042,1,Atti,
24300,2022-10-20 04:30:22,0,0,1.64042,,,1.6404528084,1.64042,0,0,0,0,0,7.664,1.6404528084,1.64042,0,0,0,0,0,60.4, 7.1, 0.1,0,0,1024,1024,1024,1024,0,0,0,0,60.5,0,0,58,3.834,3.828,0,0,0,0,4.539,77.72,1.6404528084,1.64042,1,Atti,
24400,2022-10-20 04:30:22,0,0,1.64042,,,1.6404528084,1.968504,0,0,0,0,0,7.664,1.6404528084,1.64042,0,0,0,0,0,60.5, -0.1, -0.1,0,0,1024,1024,1024,1024,0,0,0,0,60.5,0,0,58,3.834,3.828,0,0,0,0,4.539,77.72,1.6404528084,1.64042,1,Atti,
24500,2022-10-20 04:30:22,0,0,1.64042,,,1.6404528084,1.968504,0,0,0,0,0,7.664,1.6404528084,1.64042,0,0,0,0,0,60.5, 0.1, 0,0,0,1009,1024,1024,1024,-2,0,0,0,60.5,0,0,58,3.834,3.828,0,0,0,0,4.539,77.72,1.6404528084,1.64042,1,Atti,
24600,2022-10-20 04:30:22,0,0,1.64042,,,1.6404528084,1.968504,0,0,0,0,0,7.653,1.6404528084,1.64042,0,0,0,0,0,60.5, 0, 0,0,0,663,1024,1024,1024,-55,0,0,0,60.5,0,0,58,3.832,3.826,0,0,0,0,4.636,77.72,1.6404528084,1.64042,1,Atti,
24700,2022-10-20 04:30:23,0,0,1.64042,,,1.6404528084,1.968504,0,0,0,0,0,7.653,1.6404528084,1.64042,0,0,0,0,0,60.5, 3.9, 0.1,0,0,1024,1024,1024,1024,0,0,0,0,60.5,0,0,58,3.832,3.826,0,0,0,0,4.636,77.72,1.6404528084,1.64042,1,Atti,
24800,2022-10-20 04:30:23,0,0,1.64042,,,1.6404528084,2.296588,0.223694,0,0,0,0,7.653,1.6404528084,1.64042,0,0,-0.223694,0,0,60.4, 5.6, 0.4,0,0,1024,1024,1024,1024,0,0,0,0,60.5,0,0,58,3.832,3.826,0,0,0,0,4.636,77.72,1.6404528084,1.64042,6,P-GPS,
24900,2022-10-20 04:30:23,0,0,1.64042,,,1.6404528084,2.296588,0.223694,0,0,0,0,7.653,1.6404528084,1.64042,0,0,-0.223694,0,0,60.6, -1.7, -0.3,0,0,1024,1024,1024,1024,0,0,0,0,60.5,0,0,58,3.832,3.826,0,0,0,0,4.636,77.72,1.6404528084,1.64042,6,P-GPS,
25000,2022-10-20 04:30:23,0,0,1.64042,,,1.6404528084,2.296588,0.223694,0,0,0,0,7.653,1.6404528084,1.64042,0,0,-0.223694,0,0,60.5, -2.3, -0.7,0,0,1000,1024,1024,1024,-4,0,0,0,60.5,0,0,58,3.832,3.826,0,0,0,0,4.636,77.72,1.6404528084,1.64042,6,P-GPS,
25100,2022-10-20 04:30:23,0,0,1.64042,,,1.6404528084,2.296588,0,0,0,0,0,7.653,1.6404528084,1.64042,0,0,0,0,0,60.5, -1.5, -0.7,0,0,663,1024,1024,1024,-55,0,0,0,60.5,0,0,58,3.832,3.826,0,0,0,0,4.636,77.72,1.6404528084,1.64042,6,P-GPS,
25200,2022-10-20 04:30:23,0,0,1.64042,,,1.6404528084,2.296588,0,0,0,0,0,7.653,1.6404528084,1.64042,0,0,0,0,0,60.5, 2.2, -0.4,0,0,1024,1024,1024,1024,0,0,0,0,60.5,0,0,58,3.832,3.826,0,0,0,0,4.636,77.72,1.6404528084,1.64042,6,P-GPS,
