time(millisecond),datetime(utc),latitude,longitude,height_above_takeoff(feet),height_above_ground_at_drone_location(feet),ground_elevation_at_drone_location(feet),altitude_above_seaLevel(feet),height_sonar(feet),speed(mph),distance(feet),mileage(feet),satellites,gpslevel,voltage(v),max_altitude(feet),max_ascent(feet),max_speed(mph),max_distance(feet), xSpeed(mph), ySpeed(mph), zSpeed(mph), compass_heading(degrees), pitch(degrees), roll(degrees),isPhoto,isVideo,rc_elevator,rc_aileron,rc_throttle,rc_rudder,rc_elevator(percent),rc_aileron(percent),rc_throttle(percent),rc_rudder(percent),gimbal_heading(degrees),gimbal_pitch(degrees),gimbal_roll(degrees),battery_percent,voltageCell1,voltageCell2,voltageCell3,voltageCell4,voltageCell5,voltageCell6,current(A),battery_temperature(f),altitude(feet),ascent(feet),flycStateRaw,flycState,message
62500,2022-10-29 00:31:57,-34.9065131820267,-56.1630815691296,0,0,120.8194900867,120.0648968867,0,0,0,0,17,4,0,120.0648968867,0,0,0,0,0,0,319, -10, -2.6,0,0,364,364,364,1684,-100,-100,-100,100,327.5,0,0,64,4.006,4.004,0,0,0,0,0,104.36,120.0648968867,0,6,P-GPS,"Error de calibración del estabilizador. Reinicia la aeronave o contacta con la Asistencia DJI (Code: 40011)"
62600,2022-10-29 00:31:57,-34.906513613553,-56.1630816991488,0,0.032808399999993,120.7866816867,120.0648968867,0,0,0.162177170544,0.162177170544,17,4,0,120.0648968867,0,0,0.162177170544,0,0,0,319.5, -9.7, -2.8,0,0,364,364,364,1684,-100,-100,-100,100,328,0,0,64,4.006,4.004,0,0,0,0,0,104.36,120.0648968867,0,41,Motors_Started,"Setting new Return-To-Home altitude to 100m (328 ft). Data Recorder File Index is 68. Setting new Maximum Flight Altitude to 120m (394 ft) Aeronave en Zona de altitud restringida (150). Vuela con precaución (Code: 190001)"
62700,2022-10-29 00:31:57,-34.9065136975383,-56.1630818165426,0,0.032808399999993,120.7866816867,120.0648968867,0.328084,0,15.568077926,0.208789704844,17,4,0,120.0648968867,0,0,15.568077926,0,0,0,319.7, -9.9, -2.7,0,0,364,364,364,1684,-100,-100,-100,100,328.5,0,0,64,4.006,4.004,0,0,0,0,0,104.36,120.0648968867,0,41,Motors_Started,
62800,2022-10-29 00:31:57,-34.9065137884926,-56.1630818645203,0,0.032808399999993,120.7866816867,120.0648968867,0.328084,0,15.5676186084,0.244946202064,19,4,0,120.0648968867,0,0,15.568077926,0,0,0,319.5, -9.4, -2.9,0,0,476,741,635,1097,-83,-43,-59,11,328.7,0,0,64,4.006,4.004,0,0,0,0,0,104.36,120.0648968867,0,41,Motors_Started,
62900,2022-10-29 00:31:57,-34.9065138704824,-56.1630818357528,0,0.032808399999993,120.7866816867,120.0648968867,0.328084,0,15.5871396064,0.276073827732,19,4,0,120.0648968867,0,0,15.5871396064,0,0,0,319.1, -8.4, -3.5,0,0,1024,1024,1024,1024,0,0,0,0,328.7,0,0,64,4.006,4.004,0,0,0,0,0,104.36,120.0648968867,0,41,Motors_Started,
63000,2022-10-29 00:31:57,-34.9065137770251,-56.1630812842874,0,0.032808399999993,120.7866816867,120.0648968867,0.328084,0,15.7263128392,0.44456366252,19,4,0,120.0648968867,0,0,15.7263128392,0,0,0,318.5, -7.2, -3.6,0,0,1024,1024,1024,1024,0,0,0,0,328.3,0,0,64,4.006,4.004,0,0,0,0,0,104.36,120.0648968867,0,41,Motors_Started,
63100,2022-10-29 00:31:57,-34.906513842491,-56.1630812051538,0,0.032808399999993,120.7866816867,120.0648968867,0.328084,0,15.7573167772,0.47819555336,19,4,0,120.0648968867,0,0,15.7573167772,0,0,0,317.6, -6.5, -3.7,0,0,1024,1024,1024,1024,0,0,0,0,327.6,0,0,64,4.006,4.004,0,0,0,0,0,104.36,120.0648968867,0,41,Motors_Started,
63200,2022-10-29 00:31:57,-34.9065139275129,-56.1630811549232,0,0.032808399999993,120.7866816867,120.0648968867,0.328084,0,15.7831041796,0.5126640584,19,4,0,120.0648968867,0,0,15.7831041796,0,0,0,316.6, -5.2, -4,0,0,1024,1024,1024,1024,0,0,0,0,326.7,0,0,64,4.006,4.004,0,0,0,0,0,104.36,120.0648968867,0,41,Motors_Started,
63300,2022-10-29 00:31:57,-34.9065140003833,-56.1630810945428,0,0.032808399999993,120.7866816867,120.0648968867,0.328084,0,15.8100070676,0.54480972872,19,4,0,120.0648968867,0,0,15.8100070676,0,0,0,315.4, -4.7, -3.3,0,0,1024,1024,1024,1024,0,0,0,0,325.6,0,0,64,4.006,4.004,0,0,0,0,0,104.36,120.0648968867,0,41,Motors_Started,
63400,2022-10-29 00:31:58,-34.9065139926718,-56.1630809438044,0,0.032808399999993,120.7866816867,120.0648968867,0.328084,0,15.85055825,0.59000001888,18,4,0,120.0648968867,0,0,15.85055825,0,0,0,314.6, -3.8, -3,0,0,1024,1024,1024,1024,0,0,0,0,324.7,0,0,64,4.006,4.004,0,0,0,0,0,104.36,120.0648968867,0,41,Motors_Started,
63500,2022-10-29 00:31:58,-34.9065140768665,-56.1630808469527,0,0.032808399999993,120.7866816867,120.0648968867,0.328084,0,15.88910812,0.63222771052,18,4,0,120.0648968867,0,0,15.88910812,0,0,0,314, -2.6, -2.7,0,0,1024,1024,1024,1024,0,0,0,0,324,0,0,64,4.006,4.004,0,0,0,0,0,104.36,120.0648968867,0,41,Motors_Started,
63600,2022-10-29 00:31:58,-34.9065141621888,-56.1630807153381,0,0.032808399999993,120.7866816867,120.0648968867,0.328084,0,15.9374677016,0.68242784336,18,4,0,120.0648968867,0,0,15.9374677016,0,0,0,314.1, -1.9, -2.2,0,0,1024,1024,1024,1024,0,0,0,0,323.8,0,0,64,4.006,4.004,0,0,0,0,0,104.36,120.0648968867,0,41,Motors_Started,
63700,2022-10-29 00:31:58,-34.9065142446349,-56.1630806118135,0,0.032808399999993,120.7866816867,120.0648968867,0.328084,0,15.9776579916,0.72560369776,18,4,0,120.0648968867,0,0,15.9776579916,0,0,0,314.4, -1.6, -2,0,0,1024,1024,1024,1024,0,0,0,0,323.8,0,0,64,4.006,4.004,0,0,0,0,0,104.36,120.0648968867,0,10,Assisted_Takeoff,
63800,2022-10-29 00:31:58,-34.9065143258458,-56.1630803920485,0,0,120.8194900867,120.0648968867,0.328084,0,16.0497380464,0.79772640348,18,4,0,120.0648968867,0,0,16.0497380464,0,0,0,314.4, -1.8, -1.3,0,0,1024,1024,1024,1024,0,0,0,0,323.9,0,0,64,4.006,4.004,0,0,0,0,0,104.36,120.0648968867,0,10,Assisted_Takeoff,
63900,2022-10-29 00:31:58,-34.9065144230631,-56.1630802608783,0,0,120.8194900867,120.0648968867,0.328084,0,16.0996724312,0.85062666764,18,4,0,120.0648968867,0,0,16.0996724312,0,0,0,314.4, -1.7, -1.9,0,0,1024,1024,1024,1024,0,0,0,0,323.9,0,0,64,4.006,4.004,0,0,0,0,0,104.36,120.0648968867,0,10,Assisted_Takeoff,
64000,2022-10-29 00:31:58,-34.9065145293325,-56.1630800859106,0,0.032808399999993,120.7866816867,120.0648968867,0.328084,0,16.1629598348,0.91577430752,18,5,0,120.0648968867,0,0,16.1629598348,0,0,0,314.4, -1.7, -1.9,0,0,1024,1024,1024,1024,0,0,0,0,323.9,0,0,64,4.006,4.004,0,0,0,0,0,104.36,120.0648968867,0,10,Assisted_Takeoff,
64100,2022-10-29 00:31:58,-34.9065146099258,-56.1630799597116,0,0.032808399999993,120.7866816867,120.0648968867,0.328084,0,16.2091868704,0.9636319206,18,5,0,120.0648968867,0,0,16.2091868704,0,0,0,314.4, -1.9, -2.1,0,0,1024,1024,1024,1021,0,0,0,-0,323.9,0,0,64,4.006,4.004,0,0,0,0,0,104.36,120.0648968867,0,10,Assisted_Takeoff,
64200,2022-10-29 00:31:58,-34.9065146733708,-56.1630798837053,0,0.032808399999993,120.7866816867,120.0648968867,0.328084,0,16.239173748,0.99608270904,18,5,0,120.0648968867,0,0,16.239173748,0,0,0,314.7, -1.8, -2.2,0,0,1024,1024,1531,1024,0,0,77,0,324,0,0,64,4.006,4.004,0,0,0,0,0,104.36,120.0648968867,0,10,Assisted_Takeoff,
64300,2022-10-29 00:31:59,-34.9065147011907,-56.1630797466339,0,0.032808399999993,120.7866816867,120.0648968867,0.328084,0,16.2809060328,1.03833336656,18,5,8.03,120.0648968867,0,0,16.2809060328,0,0,0,314.8, -1.7, -2,0,0,1024,1024,1522,1024,0,0,75,0,324.2,0,0,64,4.008,4.006,0,0,0,0,0.706,104.36,120.0648968867,0,10,Assisted_Takeoff,
64400,2022-10-29 00:31:59,-34.9065147708381,-56.1630797055507,0,0.032808399999993,120.7866816867,120.0648968867,0.328084,0,16.3021330676,1.06656171392,18,5,8.03,120.0648968867,0,0,16.3021330676,0,0,0,314.6, -1.3, -2,0,0,1024,1024,1457,1024,0,0,66,0,324.3,0,0,64,4.008,4.006,0,0,0,0,0.706,104.36,120.0648968867,0,10,Assisted_Takeoff,
64500,2022-10-29 00:31:59,-34.9065148093373,-56.1630796721233,0,0.032808399999993,120.7866816867,120.0648968867,0.328084,0,16.3168312308,1.08380252812,18,5,8.03,120.0648968867,0,0,16.3168312308,0,0,0,315, -1.3, -1.3,0,0,1024,1024,1457,1024,0,0,66,0,324.3,0,0,64,4.008,4.006,0,0,0,0,0.706,104.36,120.0648968867,0,10,Assisted_Takeoff,
64600,2022-10-29 00:31:59,-34.9065148195631,-56.1630796448035,0,0.032808399999993,120.7866816867,120.0648968867,0.328084,0,16.3258207324,1.09278874888,18,5,8.03,120.0648968867,0,0,16.3258207324,0,0,0,316.4, -1.3, 0.3,0,0,1024,1024,1402,1024,0,0,57,0,325.1,0,0,64,4.008,4.006,0,0,0,0,0.706,104.36,120.0648968867,0,10,Assisted_Takeoff,
64700,2022-10-29 00:31:59,-34.9065147581305,-56.1630798179375,0,0.032808399999993,120.7866816867,120.0648968867,0.328084,0,16.269357476,1.14923232024,18,5,8.03,120.0648968867,0,0,16.3258207324,0,0,0,317.4, 0.1, -0.3,0,0,1024,1024,1303,1024,0,0,42,0,326.4,0,0,64,4.008,4.006,0,0,0,0,0.706,104.36,120.0648968867,0,10,Assisted_Takeoff,
64800,2022-10-29 00:31:59,-34.9065148276251,-56.1630797666144,0,0.032808399999993,120.7866816867,120.0648968867,0.328084,0,16.2934388416,1.17887470964,18,5,8.03,120.0648968867,0,0,16.3258207324,0,0,0,316.3, 1.4, -0.8,0,0,1024,1024,1084,1024,0,0,9,0,326.6,0,0,64,4.008,4.006,0,0,0,0,0.706,104.36,120.0648968867,0,10,Assisted_Takeoff,
64900,2022-10-29 00:31:59,-34.906514884935,-56.1630797371545,0,0.032808399999993,120.7866816867,120.0648968867,0.328084,0,16.3097446164,1.20156827992,18,5,8.03,120.0648968867,0,0,16.3258207324,0,0,0,314.8, 1.7, -1.7,0,0,1024,1024,1125,1024,0,0,15,0,325.5,0,0,64,4.008,4.006,0,0,0,0,0.706,104.36,120.0648968867,0,10,Assisted_Takeoff,
65000,2022-10-29 00:31:59,-34.9065149535548,-56.1630797511336,0,0.032808399999993,120.7866816867,120.0648968867,0.328084,0,16.315781362,1.22694885816,18,5,8.03,120.0648968867,0,0,16.3258207324,0,0,0,314.3, -1, -2.4,0,0,1024,1024,1410,1024,0,0,58,0,324.6,0,0,64,4.008,4.006,0,0,0,0,0.706,104.36,120.0648968867,0,10,Assisted_Takeoff,
65100,2022-10-29 00:31:59,-34.9065150482349,-56.1630802462772,0,0.032808399999993,120.7866816867,120.0648968867,0.328084,0,16.1935372636,1.37907484728,18,5,8.03,120.0648968867,0,0,16.3258207324,0,0,0,313.4, -2.6, -2.3,0,0,1024,1024,1405,1024,0,0,58,0,323.8,0,0,64,4.008,4.006,0,0,0,0,0.706,104.36,120.0648968867,0,10,Assisted_Takeoff,
65200,2022-10-29 00:31:59,-34.9065151631237,-56.1630805031663,0,0.065616799999987,120.7538732867,120.0648968867,0.328084,0.223694,16.1399939548,1.46662406268,18,5,8.03,120.0648968867,0,0.223694,16.3258207324,0,-0.223694,-0.447388,312.4, -2.8, -2.3,0,0,1024,1024,1024,1024,0,0,0,0,322.8,0,0,64,4.008,4.006,0,0,0,0,0.706,104.36,120.0648968867,0,10,Assisted_Takeoff,"Error de calibración del estabilizador. Reinicia la aeronave o contacta con la Asistencia DJI (Code: 40011)"
65300,2022-10-29 00:32:00,-34.906515247782,-56.163080820393,0,0.065616799999987,120.7538732867,120.0648968867,0.328084,0.447388,16.065781354,1.56644033884,18,5,8.004,120.0648968867,0,0.447388,16.3258207324,0,-0.447388,-0.894776,312.5, -0.8, -0.4,0,0,1024,1024,1024,1024,0,0,0,0,322.7,0,0,64,3.976,3.969,0,0,0,0,1.532,104.36,120.0648968867,0,6,P-GPS,
65400,2022-10-29 00:32:00,-34.9065153106591,-56.1630811822236,0,0.065616799999987,120.7538732867,120.0648968867,0.984252,0.447388,15.9764112724,1.67710635288,19,5,8.004,120.0648968867,0,0.447388,16.3258207324,0,-0.447388,-1.342164,312.9, 0.8, 1.7,0,0,1024,1024,1024,1024,0,0,0,0,322.7,0,0,64,3.976,3.969,0,0,0,0,1.532,104.36,120.0648968867,0,6,P-GPS,
65500,2022-10-29 00:32:00,-34.9065151453671,-56.1630818250845,0.328084,0.4265092,120.7210648867,120.3929808867,1.312336,0.447388,15.7762800324,1.878691005,19,5,8.004,120.3929808867,0.328084,0.447388,16.3258207324,0,-0.447388,-1.565858,312.9, 1.5, 2,0,0,1024,1024,1024,1024,0,0,0,0,322.7,0,0,64,3.976,3.969,0,0,0,0,1.532,104.36,120.3929808867,0.328084,6,P-GPS,
65600,2022-10-29 00:32:00,-34.9065151402184,-56.1630821934425,0.656168,0.7545932,120.7210648867,120.7210648867,1.64042,0.223694,15.675197352,1.98892066732,19,5,8.004,120.7210648867,0.656168,0.447388,16.3258207324,0,-0.223694,-1.342164,312.9, 1.6, 2.3,0,0,1024,1024,1024,1024,0,0,0,0,322.7,0,0,64,3.976,3.969,0,0,0,0,1.532,104.36,120.7210648867,0.656168,6,P-GPS,"Error de calibración del estabilizador. Reinicia la aeronave o contacta con la Asistencia DJI (Code: 40011)"
65700,2022-10-29 00:32:00,-34.9065151560672,-56.1630826171313,0.656168,0.7874016,120.6882564867,120.7210648867,1.968504,0.223694,15.5623692644,2.11582355852,19,5,8.004,120.7210648867,0.656168,0.447388,16.3258207324,0,-0.223694,-1.11847,312.9, 1.5, 2.2,0,0,1024,1024,1024,1024,0,0,0,0,322.7,0,0,64,3.976,3.969,0,0,0,0,1.532,104.36,120.7210648867,0.656168,6,P-GPS,
65800,2022-10-29 00:32:00,-34.9065151970739,-56.1630831264782,0.984252,1.1154856,120.6882564867,121.0491488867,2.296588,0,15.4304138796,2.26895676552,20,5,8.004,121.0491488867,0.984252,0.447388,16.3258207324,0,0,-0.894776,312.9, 1.7, 2.3,0,0,1024,1024,1024,1024,0,0,0,0,322.7,0,0,64,3.976,3.969,0,0,0,0,1.532,104.36,121.0491488867,0.984252,6,P-GPS,
65900,2022-10-29 00:32:00,-34.9065151943011,-56.1630834995599,0.984252,1.1154856,120.6882564867,121.0491488867,2.624672,0,15.3289374984,2.38059062736,20,5,8.004,121.0491488867,0.984252,0.447388,16.3258207324,0,0,-0.447388,312.9, 1.3, 1.8,0,0,1024,1024,1024,1024,0,0,0,0,322.7,0,0,64,3.976,3.969,0,0,0,0,1.532,104.36,121.0491488867,0.984252,6,P-GPS,
66000,2022-10-29 00:32:00,-34.9065150819848,-56.163084206395,0.984252,1.148294,120.6554480867,121.0491488867,2.624672,0,15.1202104576,2.59601714344,18,5,8.004,121.0491488867,0.984252,0.447388,16.3258207324,0,0,-0.223694,312.9, 0.9, 1,0,0,1024,1024,1024,1024,0,0,0,0,322.7,0,0,64,3.976,3.969,0,0,0,0,1.532,104.36,121.0491488867,0.984252,6,P-GPS,
66100,2022-10-29 00:32:00,-34.9065150340797,-56.1630844613851,0.984252,1.148294,120.6554480867,121.0491488867,2.624672,0,15.043799694,2.67428814332,18,5,8.004,121.0491488867,0.984252,0.447388,16.3258207324,0,0,0,312.9, 1, 0.7,0,0,1024,1024,1024,1024,0,0,0,0,322.7,0,0,64,3.976,3.969,0,0,0,0,1.532,104.36,121.0491488867,0.984252,6,P-GPS,
66200,2022-10-29 00:32:00,-34.9065149832999,-56.163084734333,0.984252,1.1811024,120.6226396867,121.0491488867,2.624672,0,14.9621395864,2.75803158432,19,5,8.004,121.0491488867,0.984252,0.447388,16.3258207324,0,0,0,312.9, 0.8, 0.7,0,0,1024,1024,1024,1024,0,0,0,0,322.7,0,0,64,3.976,3.969,0,0,0,0,1.532,104.36,121.0491488867,0.984252,6,P-GPS,
66300,2022-10-29 00:32:01,-34.9065149458848,-56.1630849772611,0.984252,1.1811024,120.6226396867,121.0491488867,2.624672,0,14.8906828912,2.8319882796,19,5,7.996,121.0491488867,0.984252,0.447388,16.3258207324,0,0,0,312.9, 0.6, 0.5,0,0,1024,1024,1024,1024,0,0,0,0,322.7,0,0,64,3.973,3.965,0,0,0,0,1.552,104.36,121.0491488867,0.984252,6,P-GPS,
66400,2022-10-29 00:32:01,-34.9065148307078,-56.1630853279168,0.984252,1.1811024,120.6226396867,121.0491488867,2.624672,0,14.777887612,2.94500993676,18,5,7.996,121.0491488867,0.984252,0.447388,16.3258207324,0,0,0,312.9, 0.5, 0.3,0,0,1024,1024,1024,1024,0,0,0,0,322.7,0,0,64,3.973,3.965,0,0,0,0,1.552,104.36,121.0491488867,0.984252,6,P-GPS,
66500,2022-10-29 00:32:01,-34.9065147677729,-56.163085577591,0.984252,1.2139108,120.5898312867,121.0491488867,2.624672,0,14.70062383,3.0231628264,18,5,7.996,121.0491488867,0.984252,0.447388,16.3258207324,0,0,0,312.9, 0.3, 0.2,0,0,1024,1024,1058,1024,0,0,5,0,322.7,0,0,64,3.973,3.965,0,0,0,0,1.552,104.36,121.0491488867,0.984252,6,P-GPS,
66600,2022-10-29 00:32:01,-34.9065146654671,-56.1630858621308,0.984252,1.2139108,120.5898312867,121.0491488867,2.624672,0,14.6077104412,3.11612214696,18,5,7.996,121.0491488867,0.984252,0.447388,16.3258207324,0,0,0,313, 0.3, 0.3,0,0,1024,1024,1539,1024,0,0,78,0,322.7,0,0,64,3.973,3.965,0,0,0,0,1.552,104.36,121.0491488867,0.984252,6,P-GPS,
66700,2022-10-29 00:32:01,-34.9065146067308,-56.1630860582841,0.984252,1.2139108,120.5898312867,121.0491488867,2.624672,0,14.5455385232,3.17860246392,18,5,7.996,121.0491488867,0.984252,0.447388,16.3258207324,0,0,0,313, 0.2, 0.4,0,0,1046,1024,1684,1024,3,0,100,0,322.7,0,0,64,3.973,3.965,0,0,0,0,1.552,104.36,121.0491488867,0.984252,6,P-GPS,
66800,2022-10-29 00:32:01,-34.9065144992148,-56.1630861556636,0.984252,1.148294,120.6554480867,121.0491488867,2.952756,0,14.502297052,3.22746729488,18,5,7.996,121.0491488867,0.984252,0.447388,16.3258207324,0,0,-0.447388,313, 0.2, 0.4,0,0,1024,1024,1684,1024,0,0,100,0,322.7,0,0,64,3.973,3.965,0,0,0,0,1.552,104.36,121.0491488867,0.984252,6,P-GPS,
66900,2022-10-29 00:32:01,-34.9065144656522,-56.1630863474699,1.312336,1.476378,120.6554480867,121.3772328867,2.952756,0,14.4452432444,3.2861549608,18,5,7.996,121.3772328867,1.312336,0.447388,16.3258207324,0,0,-0.894776,313, 0.2, 0.3,0,0,1164,1024,1684,1024,21,0,100,0,322.7,0,0,64,3.973,3.965,0,0,0,0,1.552,104.36,121.3772328867,1.312336,6,P-GPS,
67000,2022-10-29 00:32:01,-34.9065144182144,-56.163086608243,1.64042,1.8372704,120.6226396867,121.7053168867,3.28084,0,14.367454528,3.3660762232,18,5,7.996,121.7053168867,1.64042,0.447388,16.3258207324,0,0,-1.789552,312.9, 0.1, 0.1,0,0,1684,1024,1126,1024,100,0,15,0,322.7,0,0,64,3.973,3.965,0,0,0,0,1.552,104.36,121.7053168867,1.64042,6,P-GPS,
67100,2022-10-29 00:32:01,-34.9065143421937,-56.1630868881665,1.968504,2.1653544,120.6226396867,122.0334008867,3.608924,0,14.2799545252,3.4542980108,18,5,7.996,122.0334008867,1.968504,0.447388,16.3258207324,0,0,-2.460634,312.9, -1.4, 0.3,0,0,1684,1024,1024,1024,100,0,0,0,322.7,0,0,64,3.973,3.965,0,0,0,0,1.552,104.36,122.0334008867,1.968504,6,P-GPS,
67200,2022-10-29 00:32:01,-34.9065141106864,-56.1630874803913,2.296588,2.4934384,120.6226396867,122.3614848867,3.937008,0,14.083661868,3.650590668,18,5,7.996,122.3614848867,2.296588,0.447388,16.3258207324,0,0,-2.908022,313.1, -10.5, 0.5,0,0,1684,1024,1024,1024,100,0,0,0,322.7,0,0,64,3.973,3.965,0,0,0,0,1.552,104.36,122.3614848867,2.296588,6,P-GPS,
67300,2022-10-29 00:32:02,-34.9065138645214,-56.1630879764922,2.624672,2.8543308,120.5898312867,122.6895688867,4.265092,0.6263432,13.9109584504,3.8240814872,18,5,7.937,122.6895688867,2.624672,0.6263432,16.3258207324,0.447388,-0.447388,-2.460634,313.1, -16, 0.5,0,0,1684,1024,1024,1024,100,0,0,0,322.7,0,0,64,3.941,3.932,0,0,0,0,4.637,104.36,122.6895688867,2.624672,6,P-GPS,
67400,2022-10-29 00:32:02,-34.906513477766,-56.1630886473087,2.952756,3.1496064,120.6226396867,123.0176528867,4.593176,0.6263432,13.6689308836,4.0694555108,19,5,7.937,123.0176528867,2.952756,0.6263432,16.3258207324,0.671082,-0.671082,-2.013246,313.1, -18, 0.5,0,0,1684,1024,1024,1024,100,0,0,0,322.7,0,0,64,3.941,3.932,0,0,0,0,4.637,104.36,123.0176528867,2.952756,6,P-GPS,
67500,2022-10-29 00:32:02,-34.9065130279474,-56.163089380327,3.28084,3.4776904,120.6226396867,123.3457368867,4.92126,1.5882274,13.4003285128,4.3433728424,19,5,7.937,123.3457368867,3.28084,1.5882274,16.3258207324,1.11847,-1.11847,-1.342164,313.1, -18.9, 0.5,0,0,1684,1024,1024,1024,100,0,0,0,322.7,0,0,64,3.941,3.932,0,0,0,0,4.637,104.36,123.3457368867,3.28084,6,P-GPS,
67600,2022-10-29 00:32:02,-34.9065124655594,-56.1630902607071,3.28084,3.4776904,120.6226396867,123.3457368867,5.249344,2.0579848,13.074639526,4.6772639292,18,5,7.937,123.3457368867,3.28084,2.0579848,16.3258207324,1.342164,-1.565858,-0.671082,313, -19, 0.5,0,0,1684,1024,1024,1024,100,0,0,0,322.7,0,0,64,3.941,3.932,0,0,0,0,4.637,104.36,123.3457368867,3.28084,6,P-GPS,"Punto de origen actualizado. Altitud de RPO establecida en 100m (Code: 3000001)"
67700,2022-10-29 00:32:02,-34.9065117530378,-56.1630913460614,3.28084,3.5104988,120.5898312867,123.3457368867,5.249344,2.684328,12.670768122,5.0932744412,18,5,7.937,123.3457368867,3.28084,2.684328,16.3258207324,1.789552,-2.013246,-0.223694,312.9, -18.9, 0.4,0,0,1684,984,1024,1024,100,-6,0,0,322.7,0,0,64,3.941,3.932,0,0,0,0,4.637,104.36,123.3457368867,3.28084,6,P-GPS,
67800,2022-10-29 00:32:02,-34.9065107883354,-56.1630928059693,3.28084,3.5104988,120.5898312867,123.3457368867,5.249344,3.3330406,12.1278875272,5.6542324644,18,5,7.937,123.3457368867,3.28084,3.3330406,16.3258207324,2.23694,-2.460634,0,312.9, -18.6, 0.4,0,0,1464,364,1684,1024,67,-100,100,0,322.7,0,0,64,3.941,3.932,0,0,0,0,4.637,104.36,123.3457368867,3.28084,6,P-GPS,
67900,2022-10-29 00:32:02,-34.9065097645522,-56.1630944011577,3.28084,3.5104988,120.5898312867,123.3457368867,5.249344,3.9593838,11.541010868,6.2603020376,18,5,7.937,123.3457368867,3.28084,3.9593838,16.3258207324,2.684328,-2.908022,0,313.1, -16.8, -2.6,0,0,1393,364,1684,1024,56,-100,100,0,322.7,0,0,64,3.941,3.932,0,0,0,0,4.637,104.36,123.3457368867,3.28084,6,P-GPS,
68000,2022-10-29 00:32:02,-34.9065086069711,-56.1630963433054,3.608924,3.8385828,120.5898312867,123.6738208867,5.249344,4.6080964,10.8416670136,6.978674764,16,5,7.937,123.6738208867,3.608924,4.6080964,16.3258207324,2.908022,-3.579104,-0.447388,312.8, -9.5, -10.7,0,0,1383,364,1684,1024,54,-100,100,0,322.7,0,0,64,3.941,3.932,0,0,0,0,4.637,104.36,123.6738208867,3.608924,6,P-GPS,
68100,2022-10-29 00:32:02,-34.9065075370777,-56.1630986887238,3.608924,3.9041996,120.5242144867,123.6738208867,5.577428,4.921268,10.0445869356,7.7817259708,16,5,7.937,123.6738208867,3.608924,4.921268,16.3258207324,2.460634,-4.250186,-1.342164,312.7, -4.9, -13.4,0,0,1289,629,1684,1024,40,-60,100,0,322.7,0,0,64,3.941,3.932,0,0,0,0,4.637,104.36,123.6738208867,3.608924,6,P-GPS,
68200,2022-10-29 00:32:02,-34.9065064582051,-56.1631012567906,3.937008,4.1994752,120.5570228867,124.0019048867,5.577428,5.3239172,9.1853021312,8.6450462084,16,5,7.937,124.0019048867,3.937008,5.3239172,16.3258207324,2.013246,-4.921268,-2.013246,313.1, -4, -12.3,0,0,1205,948,1657,1024,27,-12,96,0,322.7,0,0,64,3.941,3.932,0,0,0,0,4.637,104.36,124.0019048867,3.937008,6,P-GPS,
68300,2022-10-29 00:32:02,-34.9065056655241,-56.1631037864016,4.593176,4.9540684,120.4585976867,124.6580728867,6.233596,5.6594582,8.3750658848,9.4553152632,16,5,7.893,124.6580728867,4.593176,5.6594582,16.3258207324,1.789552,-5.368656,-2.684328,313.1, -3.2, -9.2,0,0,1205,948,1657,1024,27,-12,96,0,322.7,0,0,64,3.94,3.933,0,0,0,0,4.837,104.36,124.6580728867,4.593176,6,P-GPS,
68400,2022-10-29 00:32:03,-34.9065049092568,-56.163106911953,4.92126,5.3149608,120.4257892867,124.9861568867,6.56168,5.7489358,7.4041012868,10.4303481028,18,5,7.893,124.9861568867,4.92126,5.7489358,16.3258207324,1.342164,-5.59235,-3.579104,313.4, -1.7, -1.9,0,0,1211,965,1618,1024,28,-9,90,0,322.7,0,0,64,3.94,3.933,0,0,0,0,4.837,104.36,124.9861568867,4.92126,6,P-GPS,
68500,2022-10-29 00:32:03,-34.9065040989398,-56.1631104781212,5.577428,6.0039372,120.3929808867,125.6423248867,7.217848,5.5252418,6.3053151624,11.537565986,18,5,7.893,125.6423248867,5.577428,5.7489358,16.3258207324,1.342164,-5.368656,-4.026492,313.3, -1, 2.3,0,0,1204,500,1684,1024,27,-79,100,0,322.7,0,0,64,3.94,3.933,0,0,0,0,4.837,104.36,125.6423248867,5.577428,6,P-GPS,
68600,2022-10-29 00:32:03,-34.9065033339815,-56.1631137573681,6.233596,6.7585304,120.2945556867,126.2984928867,7.874016,5.3239172,5.2950461012,12.5576775672,17,5,7.893,126.2984928867,6.233596,5.7489358,16.3258207324,1.342164,-5.144962,-4.697574,313.1, -1.2, -0.7,0,0,1218,380,1684,1024,29,-98,100,0,322.7,0,0,63,3.94,3.933,0,0,0,0,4.837,104.36,126.2984928867,6.233596,6,P-GPS,
68700,2022-10-29 00:32:03,-34.9065027925288,-56.1631167740705,7.217848,7.8412076,120.1961304867,127.2827448867,8.858268,5.256809,4.3963584084,13.4816605364,17,5,7.893,127.2827448867,7.217848,5.7489358,16.3258207324,1.11847,-5.144962,-5.368656,312.8, -1.2, -8.7,0,0,1228,364,1684,1024,31,-100,100,0,322.7,0,0,63,3.94,3.933,0,0,0,0,4.837,104.36,127.2827448867,7.217848,6,P-GPS,
68800,2022-10-29 00:32:03,-34.9065024752216,-56.1631199589733,7.874016,8.530184,120.1633220867,127.9389128867,9.514436,5.6594582,3.5110565428,14.4416343204,17,5,7.893,127.9389128867,7.874016,5.7489358,16.3258207324,0.894776,-5.59235,-5.816044,313, -1.7, -13.4,0,0,1287,364,1684,1024,40,-100,100,0,322.7,0,0,63,3.94,3.933,0,0,0,0,4.837,104.36,127.9389128867,7.874016,6,P-GPS,
68900,2022-10-29 00:32:03,-34.9065031502246,-56.1631225435545,8.858268,9.6456696,120.0320884867,128.9231648867,10.498688,5.8384134,3.05581702692,15.2532157112,17,5,7.893,128.9231648867,8.858268,5.8384134,16.3258207324,0.447388,-5.816044,-6.263432,313.3, -2, -14.3,0,0,1373,364,1684,1024,53,-100,100,0,322.7,0,0,63,3.94,3.933,0,0,0,0,4.837,104.36,128.9231648867,8.858268,6,P-GPS,
69000,2022-10-29 00:32:03,-34.9065032502616,-56.1631256949818,9.84252,10.7283468,119.9336632867,129.9074168867,11.48294,6.263432,2.50205388584,16.196850912,18,5,7.893,129.9074168867,9.84252,6.263432,16.3258207324,0,-6.263432,-6.487126,313.5, -2.8, -13.6,0,0,1538,364,1684,1024,78,-100,100,0,322.7,0,0,63,3.94,3.933,0,0,0,0,4.837,104.36,129.9074168867,9.84252,6,P-GPS,
69100,2022-10-29 00:32:03,-34.9065034404785,-56.1631287306261,10.826772,11.811024,119.8352380867,130.8916688867,12.467192,6.71082,2.26535112236,17.1078089464,18,5,7.893,130.8916688867,10.826772,6.71082,16.3258207324,-0.223694,-6.71082,-6.487126,313.7, -4, -12.8,0,0,1538,364,1684,1024,78,-100,100,0,322.7,0,0,63,3.94,3.933,0,0,0,0,4.837,104.36,130.8916688867,10.826772,6,P-GPS,
69200,2022-10-29 00:32:03,-34.9065037085155,-56.1631320118448,11.811024,12.9265096,119.7040044867,131.8759208867,13.451444,7.1805774,2.42580060256,18.0944231512,19,5,7.893,131.8759208867,11.811024,7.1805774,16.3258207324,-0.447388,-7.158208,-6.487126,313.1, -6.5, -11.6,0,0,1684,479,1684,1024,100,-83,100,0,322.7,0,0,63,3.94,3.933,0,0,0,0,4.837,104.36,131.8759208867,11.811024,6,P-GPS,
69300,2022-10-29 00:32:03,-34.9065039394826,-56.1631354910283,12.795276,14.0091868,119.6055792867,132.8601728867,14.435696,7.4042714,2.95207030444,19.1388129484,19,5,7.918,132.8601728867,12.795276,7.4042714,16.3258207324,-0.671082,-7.381902,-6.487126,313.2, -9.5, -9,0,0,1684,498,1684,1024,100,-80,100,0,322.7,0,0,63,3.933,3.924,0,0,0,0,4.617,104.36,132.8601728867,12.795276,6,P-GPS,
69400,2022-10-29 00:32:04,-34.9065040681183,-56.1631400929035,13.779528,15.1246724,119.4743456867,133.8444248867,15.419948,7.6279654,3.9352691548,20.5165360896,18,5,7.918,133.8444248867,13.779528,7.6279654,16.3258207324,-0.671082,-7.605596,-6.487126,313.2, -11.6, -7,0,0,1684,578,1684,1024,100,-68,100,0,322.7,0,0,63,3.933,3.924,0,0,0,0,4.617,104.36,133.8444248867,13.779528,6,P-GPS,
69500,2022-10-29 00:32:04,-34.9065043157053,-56.163144389122,14.76378,16.240158,119.3431120867,134.8286768867,16.732284,8.0753534,5.0468505552,21.8051844248,18,5,7.918,134.8286768867,14.76378,8.0753534,16.3258207324,-0.447388,-8.052984,-6.487126,313, -12.3, -6.6,0,0,1684,874,1684,1024,100,-23,100,0,322.7,0,0,63,3.933,3.924,0,0,0,0,4.617,104.36,134.8286768867,14.76378,6,P-GPS,
69600,2022-10-29 00:32:04,-34.9065045878639,-56.1631490151702,15.748032,17.4212604,119.1462616867,135.8129288867,17.716536,8.2990474,6.3202757928,23.1928813196,18,5,7.918,135.8129288867,15.748032,8.2990474,16.3258207324,-0.447388,-8.276678,-6.487126,313, -13.6, -4.7,0,0,1684,1024,1684,1024,100,0,100,0,322.7,0,0,63,3.933,3.924,0,0,0,0,4.617,104.36,135.8129288867,15.748032,6,P-GPS,
69700,2022-10-29 00:32:04,-34.9065047724138,-56.1631535259684,16.732284,18.5695544,118.9822196867,136.7971808867,19.028872,8.724066,7.5899280644,24.5442265072,18,5,7.918,136.7971808867,16.732284,8.724066,16.3258207324,0,-8.724066,-6.487126,312.6, -15, -0.1,0,0,1684,1024,1684,1024,100,0,100,0,322.7,0,0,63,3.933,3.924,0,0,0,0,4.617,104.36,136.7971808867,16.732284,6,P-GPS,
69800,2022-10-29 00:32:04,-34.9065049359991,-56.1631586471245,17.716536,19.68504,118.8509860867,137.7814328867,20.013124,8.724066,9.0549215496,26.0776911232,19,5,7.918,137.7814328867,17.716536,8.724066,16.3258207324,0.223694,-8.724066,-6.487126,312.2, -15.3, 2.9,0,0,1684,1112,1684,1024,100,13,100,0,322.7,0,0,63,3.933,3.924,0,0,0,0,4.617,104.36,137.7814328867,17.716536,6,P-GPS,
69900,2022-10-29 00:32:04,-34.9065047536264,-56.1631632890304,18.700788,20.8005256,118.7197524867,138.7656848867,20.997376,8.9701294,10.3675856336,27.468176732,19,5,7.918,138.7656848867,18.700788,8.9701294,16.3258207324,0.671082,-8.94776,-6.487126,311.9, -15.2, 2.9,0,0,1684,1451,1684,1024,100,65,100,0,322.7,0,0,63,3.933,3.924,0,0,0,0,4.617,104.36,138.7656848867,18.700788,6,P-GPS,
70000,2022-10-29 00:32:04,-34.906504324082,-56.1631682094638,20.013124,22.2112868,118.6213272867,140.0780208867,21.981628,9.2385622,11.7594491952,28.9487213988,19,5,7.918,140.0780208867,20.013124,9.2385622,16.3258207324,1.11847,-9.171454,-6.487126,311.9, -15, 2.3,0,0,1684,1451,1684,1024,100,65,100,0,322.7,0,0,63,3.933,3.924,0,0,0,0,4.617,104.36,140.0780208867,20.013124,6,P-GPS,
70100,2022-10-29 00:32:04,-34.906503718177,-56.1631728497297,20.997376,23.3595808,118.4572852867,141.0622728867,22.309712,9.3056704,13.07660803,30.3546269556,19,5,7.918,141.0622728867,20.997376,9.3056704,16.3258207324,1.565858,-9.171454,-6.487126,311.8, -14.3, 5.1,0,0,1684,1684,1684,1024,100,100,100,0,322.7,0,0,63,3.933,3.924,0,0,0,0,4.617,104.36,141.0622728867,20.997376,6,P-GPS,
70200,2022-10-29 00:32:04,-34.9065026557346,-56.1631770434635,21.981628,24.442258,118.3588600867,142.0465248867,25.918636,9.4398868,14.254593632,31.6679143992,19,5,7.918,142.0465248867,21.981628,9.4398868,16.3258207324,2.23694,-9.171454,-6.487126,311.8, -11.3, 10.4,0,0,1684,1684,1684,1024,100,100,100,0,322.7,0,0,63,3.933,3.924,0,0,0,0,4.617,104.36,142.0465248867,21.981628,6,P-GPS,
70300,2022-10-29 00:32:05,-34.9065015207254,-56.1631817200411,22.96588,25.5249352,118.2604348867,143.0307768867,26.902888,9.3504092,15.5955057484,33.127297648,19,5,7.854,143.0307768867,22.96588,9.4398868,16.3258207324,2.684328,-8.94776,-6.71082,311.6, -9.2, 12.8,0,0,1684,1024,1684,1024,100,0,100,0,322.7,0,0,63,3.933,3.923,0,0,0,0,6.88,104.36,143.0307768867,22.96588,6,P-GPS,
70400,2022-10-29 00:32:05,-34.9065001129584,-56.1631861647709,23.950132,26.5419956,118.2276264867,144.0150288867,27.88714,9.059607,16.880413926,34.552822628,19,5,7.854,144.0150288867,23.950132,9.4398868,16.880413926,3.131716,-8.500372,-6.71082,311.2, -11, 10.7,0,0,1684,1024,1684,1024,100,0,100,0,322.7,0,0,63,3.933,3.923,0,0,0,0,6.88,104.36,144.0150288867,23.950132,6,P-GPS,
70500,2022-10-29 00:32:05,-34.9064985746667,-56.1631903559454,24.934384,27.6246728,118.1292012867,144.9992808867,28.543308,9.2161928,18.1091869312,35.92683842,19,5,7.854,144.9992808867,24.934384,9.4398868,18.1091869312,3.579104,-8.500372,-6.487126,311.1, -14.4, 2.9,0,0,1684,1024,1684,1024,100,0,100,0,322.7,0,0,63,3.933,3.923,0,0,0,0,6.88,104.36,144.9992808867,24.934384,6,P-GPS,
70600,2022-10-29 00:32:05,-34.9064964856124,-56.1631944761888,25.918636,28.6089248,118.1292012867,145.9835328867,29.52756,9.618842,19.3383208288,37.375985448,19,5,7.854,145.9835328867,25.918636,9.618842,19.3383208288,4.026492,-8.724066,-6.487126,311.7, -14.8, 0.5,0,0,1684,1024,1684,1024,100,0,100,0,322.7,0,0,63,3.933,3.923,0,0,0,0,6.88,104.36,145.9835328867,25.918636,6,P-GPS,
70700,2022-10-29 00:32:05,-34.9064946745856,-56.1631988340462,27.230972,30.019686,118.0307760867,147.2958688867,30.511812,9.9096442,20.6621397688,38.837927752,19,5,7.854,147.2958688867,27.230972,9.9096442,20.6621397688,4.250186,-8.94776,-6.487126,312.2, -14.9, 0.4,0,0,1684,1024,1684,1024,100,0,100,0,322.7,0,0,63,3.933,3.923,0,0,0,0,6.88,104.36,147.2958688867,27.230972,6,P-GPS,
70800,2022-10-29 00:32:05,-34.906492640278,-56.1632034641268,28.215224,31.0367464,117.9979676867,148.2801208867,31.496064,10.2004464,22.0908143552,40.409450112,19,5,7.854,148.2801208867,28.215224,10.2004464,22.0908143552,4.47388,-9.171454,-6.487126,312.2, -14.6, 1,0,0,1684,1024,1684,1024,100,0,100,0,322.7,0,0,63,3.933,3.923,0,0,0,0,6.88,104.36,148.2801208867,28.215224,6,P-GPS,
70900,2022-10-29 00:32:05,-34.9064906042736,-56.1632078834823,29.199476,32.1194236,117.8995424867,149.2643728867,32.480316,10.513618,23.475066368,41.926182444,19,5,7.854,149.2643728867,29.199476,10.513618,23.475066368,4.697574,-9.395148,-6.487126,312.2, -14.3, 1.3,0,0,1684,1024,1684,1024,100,0,100,0,322.7,0,0,63,3.933,3.923,0,0,0,0,6.88,104.36,149.2643728867,29.199476,6,P-GPS,
71000,2022-10-29 00:32:05,-34.9064883644596,-56.1632125495926,30.183728,33.136484,117.8667340867,150.2486248867,33.464568,10.8044202,24.9575795388,43.543964648,19,5,7.854,150.2486248867,30.183728,10.8044202,24.9575795388,4.921268,-9.618842,-6.487126,312.1, -14.3, 1.6,0,0,1684,1024,1684,1024,100,0,100,0,322.7,0,0,63,3.933,3.923,0,0,0,0,6.88,104.36,150.2486248867,30.183728,6,P-GPS,
71100,2022-10-29 00:32:05,-34.9064861156696,-56.1632162337712,31.16798,34.120736,117.8667340867,151.2328768867,34.44882,11.0057448,26.1662081864,44.91798044,19,5,7.854,151.2328768867,31.16798,11.0057448,26.1662081864,5.368656,-9.618842,-6.487126,312.2, -13.9, 2,0,0,1684,1024,1684,1024,100,0,100,0,322.7,0,0,63,3.933,3.923,0,0,0,0,6.88,104.36,151.2328768867,31.16798,6,P-GPS,
71200,2022-10-29 00:32:05,-34.9064836277231,-56.1632213737204,32.480316,35.4986888,117.8011172867,152.5452128867,35.433072,11.1175918,27.83464656,46.704069736,19,5,7.854,152.5452128867,32.480316,11.1175918,27.83464656,5.59235,-9.618842,-6.71082,312.1, -14.1, 1.6,0,0,1684,1024,1684,1024,100,0,100,0,322.7,0,0,63,3.933,3.923,0,0,0,0,6.88,104.36,152.5452128867,32.480316,6,P-GPS,
71300,2022-10-29 00:32:06,-34.90648128761,-56.1632260046889,33.464568,36.5157492,117.7683088867,153.5294648867,36.417324,11.4307634,29.356792278,48.331366376,19,5,7.854,153.5294648867,33.464568,11.4307634,29.356792278,5.816044,-9.842536,-6.71082,312.1, -13.9, 1.2,0,0,1684,1024,1684,1024,100,0,100,0,322.7,0,0,63,3.933,3.923,0,0,0,0,6.88,104.36,153.5294648867,33.464568,6,P-GPS,
71400,2022-10-29 00:32:06,-34.9064787399257,-56.163230864413,34.44882,37.5984264,117.6698836867,154.5137168867,37.401576,11.743935,30.9729996788,50.0574163,19,5,7.854,154.5137168867,34.44882,11.743935,30.9729996788,6.039738,-10.06623,-6.71082,312.3, -14.4, 1.5,0,0,1684,1024,1684,1024,100,0,100,0,322.7,0,0,63,3.933,3.923,0,0,0,0,6.88,104.36,154.5137168867,34.44882,6,P-GPS,
71500,2022-10-29 00:32:06,-34.9064764290334,-56.1632351271663,35.433072,38.5826784,117.6698836867,155.4979688867,38.385828,11.855782,32.4064971,51.58628774,19,5,7.842,155.4979688867,35.433072,11.855782,32.4064971,6.263432,-10.06623,-6.487126,312.1, -13.8, 1.6,0,0,1684,1024,1684,1024,100,0,100,0,322.7,0,0,63,3.925,3.917,0,0,0,0,6.112,104.36,155.4979688867,35.433072,6,P-GPS,
71600,2022-10-29 00:32:06,-34.90647372012,-56.1632401372352,36.417324,39.6325472,117.6042668867,156.4822208867,39.37008,11.967629,34.101379044,53.381891472,19,5,7.842,156.4822208867,36.417324,11.967629,34.101379044,6.487126,-10.06623,-6.71082,312.1, -13.9, 1.4,0,0,1684,1024,1684,1024,100,0,100,0,322.7,0,0,63,3.925,3.917,0,0,0,0,6.112,104.36,156.4822208867,36.417324,6,P-GPS,
71700,2022-10-29 00:32:06,-34.9064710439091,-56.1632450039375,37.401576,40.682416,117.5386500867,157.4664728867,40.354332,12.2808006,35.761156,55.134844284,20,5,7.842,157.4664728867,37.401576,12.2808006,35.761156,6.71082,-10.289924,-6.487126,312, -14.2, 1.3,0,0,1684,1024,1684,1024,100,0,100,0,322.7,0,0,63,3.925,3.917,0,0,0,0,6.112,104.36,157.4664728867,37.401576,6,P-GPS,
71800,2022-10-29 00:32:06,-34.9064681273789,-56.1632502321902,38.385828,41.6994764,117.5058416867,158.4507248867,41.338584,12.415017,37.558400152,57.026904712,20,5,7.842,158.4507248867,38.385828,12.415017,37.558400152,6.934514,-10.289924,-6.487126,312.1, -14.1, 1.6,0,0,1684,1024,1684,1024,100,0,100,0,322.7,0,0,63,3.925,3.917,0,0,0,0,6.112,104.36,158.4507248867,38.385828,6,P-GPS,
71900,2022-10-29 00:32:06,-34.9064653315751,-56.1632552623371,39.698164,43.0446208,117.4730332867,159.7630608867,42.322836,12.415017,39.29462068,58.84514624,20,5,7.842,159.7630608867,39.698164,12.415017,39.29462068,7.158208,-10.513618,-6.71082,312, -14, 1,0,0,1684,1024,1684,1024,100,0,100,0,322.7,0,0,63,3.925,3.917,0,0,0,0,6.112,104.36,159.7630608867,39.698164,6,P-GPS,
72000,2022-10-29 00:32:06,-34.9064623794406,-56.1632606262052,40.682416,44.127298,117.3746080867,160.7473128867,43.307088,12.8400356,41.150591868,60.777889084,20,5,7.842,160.7473128867,40.682416,12.8400356,41.150591868,7.381902,-10.513618,-6.71082,312, -13.8, 1,0,0,1684,1024,1684,1024,100,0,100,0,322.7,0,0,63,3.925,3.917,0,0,0,0,6.112,104.36,160.7473128867,40.682416,6,P-GPS,
72100,2022-10-29 00:32:06,-34.9064593716199,-56.1632659780494,41.666668,45.1443584,117.3417996867,161.7315648867,43.307088,13.0189908,43.01673366,62.719162112,21,5,7.842,161.7315648867,41.666668,13.0189908,43.01673366,7.381902,-10.737312,-6.71082,312, -13.6, 1,0,0,1684,1024,1684,1024,100,0,100,0,322.7,0,0,63,3.925,3.917,0,0,0,0,6.112,104.36,161.7315648867,41.666668,6,P-GPS,
72200,2022-10-29 00:32:06,-34.9064560039456,-56.1632718238419,42.65092,46.2270356,117.2433744867,162.7158168867,43.307088,13.1532072,45.071851836,64.856629372,21,5,7.842,162.7158168867,42.65092,13.1532072,45.071851836,7.605596,-10.737312,-6.71082,312, -14, 1.1,0,0,1684,1024,1684,1024,100,0,100,0,322.7,0,0,63,3.925,3.917,0,0,0,0,6.112,104.36,162.7158168867,42.65092,6,P-GPS,
72300,2022-10-29 00:32:06,-34.9064528009851,-56.1632777515343,43.635172,47.2769044,117.1777576867,163.7000688867,43.307088,13.4663788,47.136812532,66.980645188,21,5,7.842,163.7000688867,43.635172,13.4663788,47.136812532,7.82929,-10.961006,-6.71082,312.1, -13.7, 1.3,0,0,1684,1024,1684,1024,100,0,100,0,322.7,0,0,63,3.925,3.917,0,0,0,0,6.112,104.36,163.7000688867,43.635172,6,P-GPS,
72400,2022-10-29 00:32:07,-34.9064494569428,-56.1632835080308,44.619424,48.2939648,117.1449492867,164.6843208867,43.307088,13.6005952,49.177166928,69.091537644,21,5,7.842,164.6843208867,44.619424,13.6005952,49.177166928,8.052984,-10.961006,-6.71082,312.2, -14, 1.2,0,0,1684,1024,1684,1024,100,0,100,0,322.7,0,0,63,3.925,3.917,0,0,0,0,6.112,104.36,164.6843208867,44.619424,6,P-GPS,
72500,2022-10-29 00:32:07,-34.9064461977685,-56.163288982683,45.603676,49.3438336,117.0793324867,165.6685728867,43.307088,13.6005952,51.13353182,71.11548784,21,5,7.832,165.6685728867,45.603676,13.6005952,51.13353182,8.052984,-10.961006,-6.71082,312.3, -14.3, 0.8,0,0,1684,1024,1684,1024,100,0,100,0,322.7,0,0,63,3.922,3.914,0,0,0,0,6.215,104.36,165.6685728867,45.603676,6,P-GPS,
72600,2022-10-29 00:32:07,-34.9064424984062,-56.1632950147769,46.587928,50.3937024,117.0137156867,166.6528248867,43.307088,13.7348116,53.309712992,73.36942492,21,5,7.832,166.6528248867,46.587928,13.7348116,53.309712992,8.276678,-10.961006,-6.71082,312.3, -14.3, 0.7,0,0,1684,1024,1684,1024,100,0,100,0,322.7,0,0,63,3.922,3.914,0,0,0,0,6.215,104.36,166.6528248867,46.587928,6,P-GPS,
72700,2022-10-29 00:32:07,-34.9064391133401,-56.1633004778127,47.57218,51.4107628,116.9809072867,167.6370768867,43.307088,14.0479832,55.290684184,75.417981416,21,5,7.832,167.6370768867,47.57218,14.0479832,55.290684184,8.500372,-11.1847,-6.487126,312.3, -14.2, 0.9,0,0,1684,1024,1684,1024,100,0,100,0,322.7,0,0,63,3.922,3.914,0,0,0,0,6.215,104.36,167.6370768867,47.57218,6,P-GPS,
72800,2022-10-29 00:32:07,-34.9064357848592,-56.1633056361476,48.556432,52.49344,116.8824820867,168.6213288867,43.307088,14.0479832,57.184385032,77.38189224,21,5,7.832,168.6213288867,48.556432,14.0479832,57.184385032,8.500372,-11.1847,-6.71082,312.2, -13.5, 0.2,0,0,1684,1024,1684,1024,100,0,100,0,322.7,0,0,63,3.922,3.914,0,0,0,0,6.215,104.36,168.6213288867,48.556432,6,P-GPS,
72900,2022-10-29 00:32:07,-34.906432124547,-56.1633113410388,49.2126,53.1824164,116.8496736867,169.2774968867,43.307088,14.1821996,59.281169876,79.549215144,23,5,7.832,169.2774968867,49.2126,14.1821996,59.281169876,8.724066,-11.1847,-6.71082,312.2, -14, 0.2,0,0,1684,1024,1684,1024,100,0,100,0,322.7,0,0,63,3.922,3.914,0,0,0,0,6.215,104.36,169.2774968867,49.2126,6,P-GPS,
73000,2022-10-29 00:32:07,-34.9064283907464,-56.1633170193335,50.196852,54.1994768,116.8168652867,170.2617488867,43.307088,14.3611548,61.386484904,81.727036736,23,5,7.832,170.2617488867,50.196852,14.3611548,61.386484904,8.724066,-11.408394,-6.71082,312.2, -14.2, 0.5,0,0,1684,1024,1684,1024,100,0,100,0,322.7,0,0,63,3.922,3.914,0,0,0,0,6.215,104.36,170.2617488867,50.196852,6,P-GPS,
73100,2022-10-29 00:32:07,-34.9064248176797,-56.1633224125246,51.181104,55.2493456,116.7512484867,171.2460008867,43.307088,14.4953712,63.395015152,83.801511868,23,5,7.832,171.2460008867,51.181104,14.4953712,63.395015152,8.94776,-11.408394,-6.71082,312.2, -14.5, 0.4,0,0,1684,1024,1684,1024,100,0,100,0,322.7,0,0,63,3.922,3.914,0,0,0,0,6.215,104.36,171.2460008867,51.181104,6,P-GPS,
73200,2022-10-29 00:32:07,-34.906421106977,-56.1633274253409,52.165356,56.266406,116.7184400867,172.2302528867,43.307088,14.4953712,65.325461408,85.82185314,23,5,7.832,172.2302528867,52.165356,14.4953712,65.325461408,8.94776,-11.408394,-6.71082,312.2, -14.5, 0.5,0,0,1684,1024,1684,1024,100,0,100,0,322.7,0,0,63,3.922,3.914,0,0,0,0,6.215,104.36,172.2302528867,52.165356,6,P-GPS,
73300,2022-10-29 00:32:08,-34.9064174671376,-56.163332833554,53.149608,57.3162748,116.6528232867,173.2145048867,43.307088,14.6295876,67.356957536,87.915357144,23,5,7.832,173.2145048867,53.149608,14.6295876,67.356957536,9.171454,-11.408394,-6.487126,312.2, -14.8, 0,0,0,1684,1024,1684,1024,100,0,100,0,322.7,0,0,63,3.922,3.914,0,0,0,0,6.215,104.36,173.2145048867,53.149608,6,P-GPS,
73400,2022-10-29 00:32:08,-34.906413585357,-56.1633385615318,54.13386,58.3333352,116.6200148867,174.1987568867,43.307088,14.8085428,69.516734508,90.138454328,23,5,7.832,174.1987568867,54.13386,14.8085428,69.516734508,9.171454,-11.632088,-6.487126,312.1, -14.8, 0.3,0,0,1684,1024,1684,1024,100,0,100,0,322.7,0,0,63,3.922,3.914,0,0,0,0,6.215,104.36,174.1987568867,54.13386,6,P-GPS,
73500,2022-10-29 00:32:08,-34.9064100589745,-56.1633437908396,55.118112,59.2847788,116.6528232867,175.1830088867,43.307088,14.9427592,71.489175516,92.164373028,23,5,7.841,175.1830088867,55.118112,14.9427592,71.489175516,9.395148,-11.632088,-6.487126,312.1, -14.2, 0.8,0,0,1684,1024,1684,1024,100,0,100,0,322.7,0,0,63,3.923,3.916,0,0,0,0,5.887,104.36,175.1830088867,55.118112,6,P-GPS,
73600,2022-10-29 00:32:08,-34.9064060558293,-56.1633496296539,56.102364,60.2690308,116.6528232867,176.1672608867,43.307088,15.1217144,73.70571102,94.441275988,23,5,7.841,176.1672608867,56.102364,15.1217144,73.70571102,9.395148,-11.855782,-6.487126,312, -13.4, 0.7,0,0,1684,1024,1684,1024,100,0,100,0,322.7,0,0,63,3.923,3.916,0,0,0,0,5.887,104.36,176.1672608867,56.102364,6,P-GPS,
73700,2022-10-29 00:32:08,-34.9064022644599,-56.1633553214662,57.086616,61.2204744,116.6856316867,177.1515128867,43.307088,15.2559308,75.85138038,96.63550178,23,5,7.841,177.1515128867,57.086616,15.2559308,75.85138038,9.618842,-11.855782,-6.487126,311.9, -12.9, 0.8,0,0,1684,1024,1684,1024,100,0,100,0,322.7,0,0,63,3.923,3.916,0,0,0,0,5.887,104.36,177.1515128867,57.086616,6,P-GPS,
73800,2022-10-29 00:32:08,-34.9063982450042,-56.1633613917103,58.070868,62.2047264,116.6856316867,178.1357648867,43.307088,15.2559308,78.138453944,98.96981944,23,5,7.841,178.1357648867,58.070868,15.2559308,78.138453944,9.618842,-11.855782,-6.71082,311.9, -12.8, 0.6,0,0,1684,1024,1684,1024,100,0,100,0,322.7,0,0,63,3.923,3.916,0,0,0,0,5.887,104.36,178.1357648867,58.070868,6,P-GPS,
73900,2022-10-29 00:32:08,-34.9063944031139,-56.1633671367158,59.383204,63.5170624,116.6856316867,179.4481008867,43.307088,15.2559308,80.312010444,101.187995364,23,5,7.841,179.4481008867,59.383204,15.2559308,80.312010444,9.618842,-11.855782,-6.71082,312, -14.5, 1,0,0,1684,1024,1684,1024,100,0,100,0,322.7,0,0,63,3.923,3.916,0,0,0,0,5.887,104.36,179.4481008867,59.383204,6,P-GPS,
74000,2022-10-29 00:32:08,-34.9063906375522,-56.1633727850083,60.367456,64.5669312,116.6200148867,180.4323528867,43.307088,15.5914718,82.449477704,103.365816956,23,5,7.841,180.4323528867,60.367456,15.5914718,82.449477704,9.842536,-12.079476,-6.487126,311.9, -15.1, 1.1,0,0,1684,1024,1684,1024,100,0,100,0,322.7,0,0,63,3.923,3.916,0,0,0,0,5.887,104.36,180.4323528867,60.367456,6,P-GPS,
74100,2022-10-29 00:32:08,-34.9063867288176,-56.1633785863409,61.351708,65.5839916,116.5872064867,181.4166048867,43.307088,15.5914718,84.6538741,105.612208104,23,5,7.841,181.4166048867,61.351708,15.5914718,84.6538741,9.842536,-12.079476,-6.487126,312.2, -14.4, 1.3,0,0,1684,1024,1684,1024,100,0,100,0,322.7,0,0,63,3.923,3.916,0,0,0,0,5.887,104.36,181.4166048867,61.351708,6,P-GPS,
74200,2022-10-29 00:32:08,-34.9063825560275,-56.1633848172509,62.33596,66.601052,116.5543980867,182.4008568867,43.307088,15.7256882,87.019687824,108.019360412,23,5,7.841,182.4008568867,62.33596,15.7256882,87.019687824,10.06623,-12.079476,-6.487126,312.1, -14.4, 1.3,0,0,1684,1024,1684,1024,100,0,100,0,322.7,0,0,63,3.923,3.916,0,0,0,0,5.887,104.36,182.4008568867,62.33596,6,P-GPS,
74300,2022-10-29 00:32:09,-34.9063785208606,-56.1633907618664,63.648296,67.9461964,116.5215896867,183.7131928867,43.307088,15.9046434,89.288388684,110.328415604,23,5,7.841,183.7131928867,63.648296,15.9046434,89.288388684,10.06623,-12.30317,-6.263432,312, -13.1, 0.8,0,0,1684,1024,1684,1024,100,0,100,0,322.7,0,0,63,3.923,3.916,0,0,0,0,5.887,104.36,183.7131928867,63.648296,6,P-GPS,
74400,2022-10-29 00:32:09,-34.9063739941119,-56.1633973263095,64.632548,68.9632568,116.4887812867,184.6974448867,43.307088,16.0388598,91.808401888,112.894360568,23,5,7.841,184.6974448867,64.632548,16.0388598,91.808401888,10.289924,-12.30317,-6.487126,311.9, -11.8, 0.3,0,0,1684,1024,1684,1024,100,0,100,0,322.7,0,0,63,3.923,3.916,0,0,0,0,5.887,104.36,184.6974448867,64.632548,6,P-GPS,
74500,2022-10-29 00:32:09,-34.9063700877093,-56.1634030932942,65.6168,70.0131256,116.4231644867,185.6816968867,43.307088,16.217815,94.011814032,115.132549616,23,5,7.841,185.6816968867,65.6168,16.217815,94.011814032,10.289924,-12.526864,-6.71082,312, -11.8, 0.7,0,0,1684,1024,1447,1024,100,0,64,0,322.7,0,0,63,3.923,3.916,0,0,0,0,5.887,104.36,185.6816968867,65.6168,6,P-GPS,
74600,2022-10-29 00:32:09,-34.9063657782342,-56.1634093036039,66.601052,71.030186,116.3903560867,186.6659488867,43.307088,16.217815,96.405186812,117.566604812,23,5,7.841,186.6659488867,66.601052,16.217815,96.405186812,10.289924,-12.526864,-6.487126,312.1, -12.7, 0.9,0,0,1684,1024,1174,1024,100,0,23,0,322.7,0,0,63,3.923,3.916,0,0,0,0,5.887,104.36,186.6659488867,66.601052,6,P-GPS,
74700,2022-10-29 00:32:09,-34.9063614418832,-56.1634155901932,67.585304,72.0472464,116.3575476867,187.6502008867,43.307088,16.0388598,98.825134396,120.02461014,23,5,7.832,187.6502008867,67.585304,16.217815,98.825134396,10.289924,-12.30317,-5.816044,312.1, -13.1, 1.1,0,0,1684,1024,1024,1024,100,0,0,0,322.7,0,0,63,3.911,3.896,0,0,0,0,5.684,104.36,187.6502008867,67.585304,6,P-GPS,
74800,2022-10-29 00:32:09,-34.9063573104948,-56.1634216227467,68.569556,73.0971152,116.2919308867,188.6344528867,43.307088,16.0388598,101.14337594,122.376316252,23,5,7.832,188.6344528867,68.569556,16.217815,101.14337594,10.289924,-12.30317,-5.144962,312.1, -13.5, 1.4,0,0,1684,1059,1024,1024,100,5,0,0,322.7,0,0,63,3.911,3.896,0,0,0,0,5.684,104.36,188.6344528867,68.569556,6,P-GPS,
74900,2022-10-29 00:32:09,-34.9063529932422,-56.1634278893834,69.225724,73.7860916,116.2591224867,189.2906208867,43.307088,16.0388598,103.55807418,124.825135228,23,5,7.832,189.2906208867,69.225724,16.217815,103.55807418,10.289924,-12.30317,-4.250186,312.1, -14, 1.4,0,0,1684,1313,1024,1024,100,44,0,0,322.7,0,0,63,3.911,3.896,0,0,0,0,5.684,104.36,189.2906208867,69.225724,6,P-GPS,
75000,2022-10-29 00:32:09,-34.9063489516005,-56.1634336908204,69.553808,74.1797924,116.1935056867,189.6187048867,43.307088,16.0388598,105.803152992,127.102694356,23,5,7.832,189.6187048867,69.553808,16.217815,105.803152992,10.289924,-12.30317,-3.579104,312, -14.2, 1.9,0,0,1684,1473,1024,1024,100,68,0,0,322.7,0,0,63,3.911,3.896,0,0,0,0,5.684,104.36,189.6187048867,69.553808,6,P-GPS,
75100,2022-10-29 00:32:09,-34.9063448982601,-56.1634395758705,69.881892,74.5406848,116.1606972867,189.9467888867,43.307088,16.0388598,108.073494272,129.402235112,23,5,7.832,189.9467888867,69.881892,16.217815,108.073494272,10.289924,-12.30317,-2.908022,311.9, -14, 5.5,0,0,1684,1559,1024,1024,100,81,0,0,322.7,0,0,63,3.911,3.896,0,0,0,0,5.684,104.36,189.9467888867,69.881892,6,P-GPS,
75200,2022-10-29 00:32:09,-34.9063406069324,-56.1634458581768,70.209976,74.9343856,116.0950804867,190.2748728867,43.307088,15.8599046,110.491473352,131.848429416,23,5,7.832,190.2748728867,70.209976,16.217815,110.491473352,10.289924,-12.079476,-2.23694,311.7, -13.1, 10,0,0,1684,1569,1024,1024,100,83,0,0,322.7,0,0,63,3.911,3.896,0,0,0,0,5.684,104.36,190.2748728867,70.209976,6,P-GPS,
75300,2022-10-29 00:32:10,-34.9063365258563,-56.163451851995,70.209976,74.967194,116.0622720867,190.2748728867,43.307088,15.8375352,112.79691962,134.179466236,22,5,7.832,190.2748728867,70.209976,16.217815,112.79691962,10.513618,-11.855782,-1.342164,311.3, -13.1, 13.2,0,0,1684,1569,1024,1024,100,83,0,0,322.7,0,0,63,3.911,3.896,0,0,0,0,5.684,104.36,190.2748728867,70.209976,6,P-GPS,
75400,2022-10-29 00:32:10,-34.9063320003323,-56.1634584917358,70.209976,75.0000024,116.0294636867,190.2748728867,43.307088,15.8375352,115.353350148,136.762799652,22,5,7.832,190.2748728867,70.209976,16.217815,115.353350148,10.737312,-11.632088,-0.671082,311.3, -12.1, 14.1,0,0,1684,1569,1024,1024,100,83,0,0,322.7,0,0,63,3.911,3.896,0,0,0,0,5.684,104.36,190.2748728867,70.209976,6,P-GPS,
75500,2022-10-29 00:32:10,-34.9063278304474,-56.1634641758387,70.209976,75.0328108,115.9966552867,190.2748728867,43.307088,15.65858,117.599085128,139.044623872,23,5,7.832,190.2748728867,70.209976,16.217815,117.599085128,10.961006,-11.1847,-0.223694,310.9, -12.5, 14.5,0,0,1684,1569,1024,1024,100,83,0,0,322.7,0,0,63,3.911,3.896,0,0,0,0,5.684,104.36,190.2748728867,70.209976,6,P-GPS,
75600,2022-10-29 00:32:10,-34.9063233383911,-56.1634697672192,70.209976,75.0656192,115.9638468867,190.2748728867,43.307088,15.65858,119.88517444,141.386487464,23,5,7.832,190.2748728867,70.209976,16.217815,119.88517444,11.1847,-10.961006,0,311, -11.7, 14.9,0,0,1684,1541,1024,1024,100,78,0,0,322.7,0,0,63,3.911,3.896,0,0,0,0,5.684,104.36,190.2748728867,70.209976,6,P-GPS,
75700,2022-10-29 00:32:10,-34.9063187718824,-56.1634748709193,69.881892,74.7703436,115.9310384867,189.9467888867,43.307088,15.8375352,122.063980284,143.64665814,23,5,7.832,190.2748728867,70.209976,16.217815,122.063980284,11.632088,-10.737312,0,311, -11.6, 14.2,0,0,1684,1488,1024,1024,100,70,0,0,322.7,0,0,63,3.911,3.896,0,0,0,0,5.684,104.36,189.9467888867,69.881892,6,P-GPS,"Error de calibración del estabilizador. Reinicia la aeronave o contacta con la Asistencia DJI (Code: 40011)"
75800,2022-10-29 00:32:10,-34.9063138028354,-56.1634803490189,69.881892,74.7703436,115.9310384867,189.9467888867,43.307088,15.8375352,124.419623404,146.090555856,23,5,7.864,190.2748728867,70.209976,16.217815,124.419623404,11.855782,-10.289924,0,311.1, -11, 13.2,0,0,1684,1464,1024,1024,100,67,0,0,322.7,0,0,63,3.936,3.93,0,0,0,0,4.969,104.54,189.9467888867,69.881892,6,P-GPS,
75900,2022-10-29 00:32:10,-34.9063089611196,-56.163485382937,69.553808,74.4422596,115.9310384867,189.6187048867,43.307088,15.7256882,126.641408252,148.41207824,23,5,7.864,190.2748728867,70.209976,16.217815,126.641408252,12.079476,-10.06623,0,310.9, -12.4, 11.4,0,0,1684,1459,1024,1024,100,66,0,0,322.7,0,0,63,3.936,3.93,0,0,0,0,4.969,104.54,189.6187048867,69.553808,6,P-GPS,
76000,2022-10-29 00:32:10,-34.906303779007,-56.1634905051063,69.553808,74.4422596,115.9310384867,189.6187048867,43.307088,15.7480576,128.957025124,150.846133436,23,5,7.864,190.2748728867,70.209976,16.217815,128.957025124,12.30317,-9.842536,0,311, -13.1, 10.4,0,0,1684,1455,1024,1024,100,65,0,0,322.7,0,0,63,3.936,3.93,0,0,0,0,4.969,104.54,189.6187048867,69.553808,6,P-GPS,
76100,2022-10-29 00:32:10,-34.9062990056729,-56.1634950346297,69.225724,74.1141756,115.9310384867,189.2906208867,43.307088,15.7927964,131.04659212,153.05282642,23,5,7.864,190.2748728867,70.209976,16.217815,131.04659212,12.526864,-9.618842,0,311.1, -13.3, 9.9,0,0,1684,1438,1024,1024,100,63,0,0,322.7,0,0,63,3.936,3.93,0,0,0,0,4.969,104.54,189.2906208867,69.225724,6,P-GPS,
76200,2022-10-29 00:32:10,-34.9062929793358,-56.1635001577601,69.225724,74.0813672,115.9638468867,189.2906208867,43.307088,15.9717516,133.541999024,155.732944616,23,5,7.864,190.2748728867,70.209976,16.217815,133.541999024,12.750558,-9.618842,0,311.2, -12.9, 9.3,0,0,1684,1438,1024,1024,100,63,0,0,322.7,0,0,63,3.936,3.93,0,0,0,0,4.969,104.54,189.2906208867,69.225724,6,P-GPS,
76300,2022-10-29 00:32:10,-34.906287795777,-56.163504785647,68.89764,73.7532832,115.9638468867,188.9625368867,43.307088,16.0164904,135.749020092,158.077104796,22,5,7.864,190.2748728867,70.209976,16.217815,135.749020092,12.974252,-9.395148,0,311.2, -13.1, 9,0,0,1684,1428,1035,1024,100,61,2,0,322.7,0,0,63,3.936,3.93,0,0,0,0,4.969,104.54,188.9625368867,68.89764,6,P-GPS,
76400,2022-10-29 00:32:11,-34.9062823270192,-56.1635095955103,68.89764,73.7204748,115.9966552867,188.9625368867,43.307088,16.1954456,138.06430888,160.537078628,22,5,7.864,190.2748728867,70.209976,16.217815,138.06430888,13.197946,-9.395148,0,311.5, -12.1, 8.2,0,0,1684,1403,1033,1024,100,57,1,0,322.7,0,0,63,3.936,3.93,0,0,0,0,4.969,104.54,188.9625368867,68.89764,6,P-GPS,
76500,2022-10-29 00:32:11,-34.9062770067493,-56.1635141473055,68.569556,73.3923908,115.9966552867,188.6344528867,43.307088,16.2625538,140.29035882,162.90846978,22,5,7.864,190.2748728867,70.209976,16.2625538,140.29035882,13.42164,-9.171454,0,311.6, -12.2, 8.1,0,0,1684,1394,1024,1024,100,56,0,0,322.7,0,0,63,3.936,3.93,0,0,0,0,4.969,104.54,188.6344528867,68.569556,6,P-GPS,
76600,2022-10-29 00:32:11,-34.9062712805149,-56.1635189776856,68.569556,73.3595824,116.0294636867,188.6344528867,43.307088,16.2625538,142.674545248,165.448824192,22,5,7.864,190.2748728867,70.209976,16.2625538,142.674545248,13.42164,-9.171454,-0.223694,311.6, -12.3, 7.1,0,0,1684,1364,1024,1024,100,52,0,0,322.7,0,0,63,3.936,3.93,0,0,0,0,4.969,104.54,188.6344528867,68.569556,6,P-GPS,
76700,2022-10-29 00:32:11,-34.9062658458892,-56.1635234224259,68.569556,73.326774,116.0622720867,188.6344528867,43.307088,16.3072926,144.908469204,167.83629146,23,5,7.864,190.2748728867,70.209976,16.3072926,144.908469204,13.645334,-8.94776,-0.223694,311.5, -13.3, 6.9,0,0,1684,1327,1024,1024,100,46,0,0,322.7,0,0,63,3.936,3.93,0,0,0,0,4.969,104.54,188.6344528867,68.569556,6,P-GPS,
76800,2022-10-29 00:32:11,-34.9062601434171,-56.16352800485,68.569556,73.2939656,116.0950804867,188.6344528867,43.307088,16.3072926,147.237865604,170.32808944,23,5,7.854,190.2748728867,70.209976,16.3072926,147.237865604,13.645334,-8.94776,0,311.4, -12.1, 6.4,0,0,1684,1291,1024,1024,100,40,0,0,322.7,0,0,63,3.936,3.93,0,0,0,0,4.247,104.54,188.6344528867,68.569556,6,P-GPS,
76900,2022-10-29 00:32:11,-34.9062546796878,-56.1635323547786,68.241472,72.9658816,116.0950804867,188.3063688867,43.307088,16.5086172,149.464571712,172.708666944,23,5,7.854,190.2748728867,70.209976,16.5086172,149.464571712,13.869028,-8.94776,-0.223694,311.4, -12.9, 5.5,0,0,1684,1281,1033,1043,100,39,1,3,322.7,0,0,63,3.936,3.93,0,0,0,0,4.247,104.54,188.3063688867,68.241472,6,P-GPS,
77000,2022-10-29 00:32:11,-34.9062494065517,-56.1635365663549,68.241472,72.9330732,116.1278888867,188.3063688867,43.307088,16.5086172,151.621724012,175.008535784,23,5,7.854,190.2748728867,70.209976,16.5086172,151.621724012,13.869028,-8.94776,-0.223694,311.4, -13.4, 4.5,0,0,1684,1281,1033,1043,100,39,1,3,322.7,0,0,63,3.936,3.93,0,0,0,0,4.247,104.54,188.3063688867,68.241472,6,P-GPS,
77100,2022-10-29 00:32:11,-34.9062438610354,-56.1635410037827,68.241472,72.9002648,116.1606972867,188.3063688867,43.307088,16.5086172,153.896330384,177.428483368,24,5,7.854,190.2748728867,70.209976,16.5086172,153.896330384,13.869028,-8.94776,-0.223694,311.5, -13, 4.1,0,0,1684,1260,1051,1248,100,36,4,34,322.8,0,0,63,3.936,3.93,0,0,0,0,4.247,104.54,188.3063688867,68.241472,6,P-GPS,
77200,2022-10-29 00:32:11,-34.9062376733391,-56.1635459880176,68.569556,73.1955404,116.1935056867,188.6344528867,43.307088,16.8217888,156.447511568,180.134192116,24,5,7.854,190.2748728867,70.209976,16.8217888,156.447511568,14.092722,-9.171454,-0.447388,311.7, -12.5, 4.4,0,0,1682,1075,1082,1439,100,8,9,63,323.1,0,0,63,3.936,3.93,0,0,0,0,4.247,104.54,188.6344528867,68.569556,6,P-GPS,
77300,2022-10-29 00:32:12,-34.9062320641181,-56.1635504955618,68.569556,73.162732,116.2263140867,188.6344528867,43.307088,16.8217888,158.762144188,182.58530768,24,5,7.854,190.2748728867,70.209976,16.8217888,158.762144188,14.092722,-9.171454,-0.447388,312.4, -12.7, 3.3,0,0,1545,1024,1083,1556,79,0,9,81,324.2,0,0,63,3.936,3.93,0,0,0,0,4.247,104.54,188.6344528867,68.569556,6,P-GPS,
77400,2022-10-29 00:32:12,-34.9062265016922,-56.1635550488194,68.569556,73.162732,116.2263140867,188.6344528867,43.307088,16.8217888,161.0810419,185.02953348,24,5,7.854,190.2748728867,70.209976,16.8217888,161.0810419,14.092722,-9.171454,-0.223694,313.9, -11.6, 0.7,0,0,1467,1024,1083,1684,67,0,9,100,326.1,0,0,63,3.936,3.93,0,0,0,0,4.247,104.54,188.6344528867,68.569556,6,P-GPS,
77500,2022-10-29 00:32:12,-34.9062206434886,-56.1635598322743,68.569556,73.1299236,116.2591224867,188.6344528867,43.307088,16.7546806,163.524611532,187.60171204,24,5,7.854,190.2748728867,70.209976,16.8217888,163.524611532,13.869028,-9.395148,-0.223694,316.3, -8.4, -0.1,0,0,1437,982,1103,1684,63,-6,12,100,328.7,0,0,63,3.936,3.93,0,0,0,0,4.247,104.54,188.6344528867,68.569556,6,P-GPS,
77600,2022-10-29 00:32:12,-34.9062148585,-56.1635646535033,68.569556,73.1299236,116.2591224867,188.6344528867,43.307088,16.441509,165.964244156,190.158470652,24,5,7.854,190.2748728867,70.209976,16.8217888,165.964244156,13.645334,-9.171454,-0.223694,319.2, -5.3, 0.2,0,0,1432,726,1111,1684,62,-45,13,100,331.8,0,0,63,3.936,3.93,0,0,0,0,4.247,104.54,188.6344528867,68.569556,6,P-GPS,
77700,2022-10-29 00:32:12,-34.9062094702003,-56.1635692283224,68.569556,73.0643068,116.3247392867,188.6344528867,43.307088,16.2625538,168.259191736,192.553811936,24,5,7.854,190.2748728867,70.209976,16.8217888,168.259191736,13.42164,-9.171454,-0.223694,322.3, -4.1, 0.3,0,0,1431,500,1116,1684,62,-79,14,100,335,0,0,63,3.936,3.93,0,0,0,0,4.247,104.54,188.6344528867,68.569556,6,P-GPS,
77800,2022-10-29 00:32:12,-34.9062039436261,-56.1635740047572,68.569556,73.0643068,116.3247392867,188.6344528867,43.307088,16.0612292,170.635504148,195.025268708,24,5,7.856,190.2748728867,70.209976,16.8217888,170.635504148,13.197946,-9.171454,-0.223694,325.6, -3.6, -2.1,0,0,1431,500,1116,1684,62,-79,14,100,338.2,0,0,63,3.929,3.926,0,0,0,0,4.301,104.54,188.6344528867,68.569556,6,P-GPS,
77900,2022-10-29 00:32:12,-34.9061989499049,-56.1635786530355,68.569556,73.0643068,116.3247392867,188.6344528867,43.307088,15.7033188,172.86253834,197.317591616,24,5,7.856,190.2748728867,70.209976,16.8217888,172.86253834,12.750558,-9.171454,-0.447388,328.5, -3.2, -7.4,0,0,1427,364,1116,1684,61,-100,14,100,341.4,0,0,63,3.929,3.926,0,0,0,0,4.301,104.54,188.6344528867,68.569556,6,P-GPS,
78000,2022-10-29 00:32:12,-34.9061936658777,-56.163583506732,68.569556,73.0643068,116.3247392867,188.6344528867,43.307088,15.4796248,175.205714268,199.731305604,24,5,7.856,190.2748728867,70.209976,16.8217888,175.205714268,12.30317,-9.395148,-0.223694,331.6, -3, -11.9,0,0,1425,364,1097,1654,61,-100,11,95,344.6,0,0,63,3.929,3.926,0,0,0,0,4.301,104.54,188.6344528867,68.569556,6,P-GPS,
78100,2022-10-29 00:32:12,-34.9061888304673,-56.1635882715922,68.569556,73.0314984,116.3575476867,188.6344528867,43.307088,15.2559308,177.42618678,201.999350296,24,5,7.856,190.2748728867,70.209976,16.8217888,177.42618678,11.855782,-9.618842,-0.223694,334.7, -1.7, -13.5,0,0,1423,364,1045,1331,60,-100,3,47,347.7,0,0,63,3.929,3.926,0,0,0,0,4.301,104.54,188.6344528867,68.569556,6,P-GPS,
78200,2022-10-29 00:32:12,-34.9061839514667,-56.1635934809682,68.569556,73.0314984,116.3575476867,188.6344528867,43.307088,15.0769756,179.760832524,204.365492104,24,5,7.856,190.2748728867,70.209976,16.8217888,179.760832524,11.408394,-9.842536,-0.223694,338.2, -3.4, -13.2,0,0,1422,364,1024,1222,60,-100,0,30,350.3,0,0,63,3.929,3.926,0,0,0,0,4.301,104.54,188.6344528867,68.569556,6,P-GPS,
78300,2022-10-29 00:32:13,-34.9061797305919,-56.163598492322,68.569556,73.0643068,116.3247392867,188.6344528867,43.307088,15.1888226,181.897643616,206.514770388,24,5,7.856,190.2748728867,70.209976,16.8217888,181.897643616,11.1847,-10.289924,0,340.8, -4.9, -13.4,0,0,1423,364,1024,1129,60,-100,0,16,351.9,0,0,63,3.929,3.926,0,0,0,0,4.301,104.54,188.6344528867,68.569556,6,P-GPS,
