time(millisecond),datetime(utc),latitude,longitude,height_above_takeoff(feet),height_above_ground_at_drone_location(feet),ground_elevation_at_drone_location(feet),altitude_above_seaLevel(feet),height_sonar(feet),speed(mph),distance(feet),mileage(feet),satellites,gpslevel,voltage(v),max_altitude(feet),max_ascent(feet),max_speed(mph),max_distance(feet), xSpeed(mph), ySpeed(mph), zSpeed(mph), compass_heading(degrees), pitch(degrees), roll(degrees),isPhoto,isVideo,rc_elevator,rc_aileron,rc_throttle,rc_rudder,rc_elevator(percent),rc_aileron(percent),rc_throttle(percent),rc_rudder(percent),gimbal_heading(degrees),gimbal_pitch(degrees),gimbal_roll(degrees),battery_percent,voltageCell1,voltageCell2,voltageCell3,voltageCell4,voltageCell5,voltageCell6,current(A),battery_temperature(f),altitude(feet),ascent(feet),flycStateRaw,flycState,message
0,2022-09-03 15:53:55,-34.877559621358,-55.2738303756758,0,0,381.21840425936,381.21840425936,0.328084,0,0,0,20,5,0,381.21840425936,0,0,0,0,0,0,342.7, -8.4, 2.8,0,0,364,364,364,1684,-100,-100,-100,100,353.6,0,0,96,4.264,4.263,0,0,0,0,0,68.72,381.21840425936,0,41,Motors_Started,
100,2022-09-03 15:53:55,-34.8775596307435,-55.2738304206755,0,0,381.21840425936,381.21840425936,0.328084,0,0.013897474198,0.013897474198,20,5,0,381.21840425936,0,0,0.013897474198,0,0,0.223694,343.5, -8, 0.7,0,0,364,364,364,1684,-100,-100,-100,100,354.2,0,0,96,4.264,4.263,0,0,0,0,0,68.72,381.21840425936,0,41,Motors_Started,"En vuelo"
200,2022-09-03 15:53:55,-34.8775596167275,-55.2738304850109,0,0,381.21840425936,381.21840425936,0.328084,0,0.0327690627284,0.033821523392,20,5,0,381.21840425936,0,0,0.0327690627284,0,0,0.223694,345, -7.7, -1.5,0,0,364,364,364,1684,-100,-100,-100,100,355.3,0,0,96,4.264,4.263,0,0,0,0,0,68.72,381.21840425936,0,41,Motors_Started,
300,2022-09-03 15:53:55,-34.877559629646,-55.2738305120232,0,0.03280839999997,381.18559585936,381.21840425936,0.328084,0,0.040922573488,0.043180119492,20,5,0,381.21840425936,0,0,0.040922573488,0,0,0.223694,344.9, -6.1, -2.3,0,0,364,364,364,1684,-100,-100,-100,100,355.8,0,0,96,4.264,4.263,0,0,0,0,0,68.72,381.21840425936,0,41,Motors_Started,"Setting new Return-To-Home altitude to 60m (197 ft). Data Recorder File Index is 47. Setting new Maximum Flight Altitude to 120m (394 ft)"
400,2022-09-03 15:53:55,-34.8775596663324,-55.2738305140021,0,0.03280839999997,381.18559585936,381.21840425936,0.328084,0,0.044536090664,0.0565780858,20,5,0,381.21840425936,0,0,0.044536090664,0,0,0.223694,344.6, -6.1, -2.4,0,0,1024,1024,1024,1097,0,0,0,11,355.9,0,0,96,4.264,4.263,0,0,0,0,0,68.72,381.21840425936,0,41,Motors_Started,
500,2022-09-03 15:53:55,-34.8775596926602,-55.2738305552666,0,0.03280839999997,381.18559585936,381.21840425936,0.328084,0,0.059718177764,0.072224739844,20,5,0,381.21840425936,0,0,0.059718177764,0,0,0.223694,344.7, -6, -2.3,0,0,1024,1024,1024,1024,0,0,0,0,355.8,0,0,96,4.264,4.263,0,0,0,0,0,68.72,381.21840425936,0,41,Motors_Started,
600,2022-09-03 15:53:55,-34.8775597144105,-55.2738306412905,-0.328084,-0.29527560000003,381.18559585936,380.89032025936,0.328084,0,0.086447509328,0.099167982176,19,5,0,381.21840425936,0,0,0.086447509328,0,0,0.223694,345.1, -6.1, -2.4,0,0,1024,1024,1024,1024,0,0,0,0,355.9,0,0,96,4.264,4.263,0,0,0,0,0,68.72,380.89032025936,-0.328084,41,Motors_Started,
700,2022-09-03 15:53:55,-34.8775596992595,-55.2738305197037,-0.328084,-0.29527560000003,381.18559585936,380.89032025936,0.328084,0,0.051635828424,0.135978022724,19,5,0,381.21840425936,0,0,0.086447509328,0,0,0.223694,344.6, -6, -2,0,0,1024,1024,1024,1024,0,0,0,0,355.9,0,0,96,4.264,4.263,0,0,0,0,0,68.72,380.89032025936,-0.328084,41,Motors_Started,
800,2022-09-03 15:53:56,-34.8775597217825,-55.2738305599559,-0.328084,-0.29527560000003,381.18559585936,380.89032025936,0.328084,0,0.066218177972,0.150561684608,19,5,0,381.21840425936,0,0,0.086447509328,0,0,0.223694,345.2, -6.8, -2.1,0,0,1024,1024,1024,1024,0,0,0,0,356,0,0,96,4.264,4.263,0,0,0,0,0,68.72,380.89032025936,-0.328084,41,Motors_Started,
900,2022-09-03 15:53:56,-34.8775597145872,-55.273830614147,-0.328084,-0.29527560000003,381.18559585936,380.89032025936,0.328084,0,0.079068244,0.166992787496,19,5,0,381.21840425936,0,0,0.086447509328,0,0,0.223694,344.7, -7.7, -1.6,0,0,1024,1024,1024,1024,0,0,0,0,356,0,0,96,4.264,4.263,0,0,0,0,0,68.72,380.89032025936,-0.328084,41,Motors_Started,
1000,2022-09-03 15:53:56,-34.8775597091743,-55.2738306842147,-0.328084,-0.29527560000003,381.18559585936,380.89032025936,0.328084,0,0.097750003128,0.188058076884,19,5,0,381.21840425936,0,0,0.097750003128,0,0,0.223694,345.7, -7.4, -2.2,0,0,1024,1024,1024,1024,0,0,0,0,356.1,0,0,96,4.264,4.263,0,0,0,0,0,68.72,380.89032025936,-0.328084,41,Motors_Started,
1100,2022-09-03 15:53:56,-34.8775594727234,-55.2738304650467,-0.328084,-0.26246720000001,381.15278745936,380.89032025936,0.328084,0,0.060467849704,0.29643537694,19,5,0,381.21840425936,0,0,0.097750003128,0,0,0,346.1, -8.5, -0.9,0,0,1024,1024,1024,1024,0,0,0,0,356.9,0,0,96,4.264,4.263,0,0,0,0,0,68.72,380.89032025936,-0.328084,10,Assisted_Takeoff,
1200,2022-09-03 15:53:56,-34.8775593537916,-55.273830467763,-0.328084,-0.26246720000001,381.15278745936,380.89032025936,0.328084,0,0.101437995372,0.33983596888,19,5,8.543,381.21840425936,0,0,0.101437995372,0,0,0,345.7, -8.7, 0,0,0,1024,1024,1024,1024,0,0,0,0,357,0,0,96,4.264,4.263,0,0,0,0,1.053,68.72,380.89032025936,-0.328084,10,Assisted_Takeoff,
1300,2022-09-03 15:53:56,-34.8775592355625,-55.2738305021909,-0.328084,-0.2296588,381.11997905936,380.89032025936,0.328084,0,0.145762143772,0.384186364,19,5,8.543,381.21840425936,0,0,0.145762143772,0,0,0,346.3, -8.8, -0.5,0,0,1024,1024,1024,1024,0,0,0,0,357,0,0,96,4.264,4.263,0,0,0,0,1.053,68.72,380.89032025936,-0.328084,10,Assisted_Takeoff,
1400,2022-09-03 15:53:56,-34.8775591102668,-55.2738305334475,-0.656168,-0.5577428,381.11997905936,380.56223625936,0.328084,0,0.192357945788,0.43084647048,19,5,8.543,381.21840425936,0,0,0.192357945788,0,0,0.223694,346.8, -8.9, -0.7,0,0,1024,1024,1024,1024,0,0,0,0,357.5,0,0,96,4.264,4.263,0,0,0,0,1.053,68.72,380.56223625936,-0.656168,10,Assisted_Takeoff,
1500,2022-09-03 15:53:56,-34.8775590509825,-55.2738305425814,-0.656168,-0.5577428,381.11997905936,380.56223625936,0.328084,0,0.214013458292,0.45264765228,19,5,8.543,381.21840425936,0,0,0.214013458292,0,0,0.223694,347.1, -9.4, -1.1,0,0,1024,1024,1024,1024,0,0,0,0,357.9,0,0,96,4.264,4.263,0,0,0,0,1.053,68.72,380.56223625936,-0.656168,10,Assisted_Takeoff,
1600,2022-09-03 15:53:56,-34.8775590146616,-55.2738303446621,-0.656168,-0.59055120000001,381.15278745936,380.56223625936,0.328084,0,0.221547251184,0.5133530348,19,5,8.543,381.21840425936,0,0,0.221547251184,0,0,0.223694,346.9, -8.2, -2,0,0,1024,1024,1024,1024,0,0,0,0,358,0,0,96,4.264,4.263,0,0,0,0,1.053,68.72,380.56223625936,-0.656168,10,Assisted_Takeoff,
1700,2022-09-03 15:53:56,-34.8775589758053,-55.2738303267824,-0.656168,-0.59055120000001,381.15278745936,380.56223625936,0.328084,0,0.235983603352,0.52850723476,19,5,8.543,381.21840425936,0,0,0.235983603352,0,0,0.223694,347.7, -8, -2,0,0,1024,1024,1024,1024,0,0,0,0,358.2,0,0,96,4.264,4.263,0,0,0,0,1.053,68.72,380.56223625936,-0.656168,10,Assisted_Takeoff,
1800,2022-09-03 15:53:57,-34.8775589173475,-55.2738303133937,-0.656168,-0.59055120000001,381.15278745936,380.56223625936,0.328084,0,0.257533472808,0.55020671052,19,5,8.543,381.21840425936,0,0,0.257533472808,0,0,0.223694,348.1, -8.4, -1.3,0,0,1024,1024,1024,1024,0,0,0,0,358.6,0,0,96,4.264,4.263,0,0,0,0,1.053,68.72,380.56223625936,-0.656168,10,Assisted_Takeoff,
1900,2022-09-03 15:53:57,-34.877558878952,-55.2738302906466,-0.656168,-0.59055120000001,381.15278745936,380.56223625936,0.328084,0,0.272059391908,0.56578413884,19,5,8.543,381.21840425936,0,0,0.272059391908,0,0,0.223694,348.4, -8.6, -0.9,0,0,1024,1024,1024,1024,0,0,0,0,359.1,0,0,96,4.264,4.263,0,0,0,0,1.053,68.72,380.56223625936,-0.656168,10,Assisted_Takeoff,
2000,2022-09-03 15:53:57,-34.8775588831159,-55.2738302106114,-0.656168,-0.59055120000001,381.15278745936,380.56223625936,0.328084,0,0.273840888028,0.58978676428,19,5,8.543,381.21840425936,0,0,0.273840888028,0,0,0.223694,348.1, -9.2, -0.4,0,0,1024,1024,1024,1024,0,0,0,0,359.2,0,0,96,4.264,4.263,0,0,0,0,1.053,68.72,380.56223625936,-0.656168,10,Assisted_Takeoff,
2100,2022-09-03 15:53:57,-34.8775588600075,-55.2738302080497,-0.656168,-0.59055120000001,381.15278745936,380.56223625936,0.328084,0,0.282272974912,0.59825133148,19,5,8.543,381.21840425936,0,0,0.282272974912,0,0,0.223694,347.6, -9.9, -0.3,0,0,1024,1024,1024,1024,0,0,0,0,359.2,0,0,96,4.264,4.263,0,0,0,0,1.053,68.72,380.56223625936,-0.656168,10,Assisted_Takeoff,
2200,2022-09-03 15:53:57,-34.8775588323492,-55.2738302341901,-0.656168,-0.59055120000001,381.15278745936,380.56223625936,0.328084,0,0.29096785708,0.61102036076,19,5,8.543,381.21840425936,0,0,0.29096785708,0,0,0.223694,347.5, -10.4, -0.4,0,0,1024,1024,1024,1024,0,0,0,0,359,0,0,96,4.264,4.263,0,0,0,0,1.053,68.72,380.56223625936,-0.656168,10,Assisted_Takeoff,
2300,2022-09-03 15:53:57,-34.8775588029395,-55.273830247411,-0.656168,-0.59055120000001,381.15278745936,380.56223625936,0.328084,0,0.301057424332,0.622457369,19,5,8.551,381.21840425936,0,0,0.301057424332,0,0,0.223694,346.3, -10.5, 0,0,0,1024,1024,1024,1024,0,0,0,0,358.1,0,0,96,4.276,4.276,0,0,0,0,1.28,68.72,380.56223625936,-0.656168,10,Assisted_Takeoff,
2400,2022-09-03 15:53:57,-34.8775587245658,-55.2738302111877,-0.656168,-0.59055120000001,381.15278745936,380.56223625936,0.328084,0,0.33087599484,0.65303807864,19,5,8.551,381.21840425936,0,0,0.33087599484,0,0,0.223694,347.6, -12.2, 0.2,0,0,1024,1024,1024,1024,0,0,0,0,358.2,0,0,96,4.276,4.276,0,0,0,0,1.28,68.72,380.56223625936,-0.656168,10,Assisted_Takeoff,
2500,2022-09-03 15:53:57,-34.8775586579624,-55.2738302441895,-0.656168,-0.59055120000001,381.15278745936,380.56223625936,0.328084,0,0.3536909562,0.67927167528,19,5,8.551,381.21840425936,0,0,0.3536909562,0,0,0.223694,346.4, -12.8, 1.5,0,0,1024,1024,1205,1024,0,0,27,0,358.4,0,0,96,4.276,4.276,0,0,0,0,1.28,68.72,380.56223625936,-0.656168,10,Assisted_Takeoff,
2600,2022-09-03 15:53:57,-34.8775585836329,-55.2738303025511,-0.984252,-0.91863520000001,381.15278745936,380.23415225936,0.328084,0,0.37924541896,0.71152889416,19,5,8.551,381.21840425936,0,0,0.37924541896,0,0,0.223694,347, -14.3, 0.9,0,0,1024,1024,1024,1024,0,0,0,0,358.1,0,0,96,4.276,4.276,0,0,0,0,1.28,68.72,380.23415225936,-0.984252,10,Assisted_Takeoff,
2700,2022-09-03 15:53:57,-34.8775585459759,-55.2738303441993,-0.656168,-0.59055120000001,381.15278745936,380.56223625936,0.328084,0,0.39246720416,0.73007876352,19,5,8.551,381.21840425936,0,0,0.39246720416,0,0,0.223694,347.4, -14, 0.8,0,0,1024,1024,1024,1024,0,0,0,0,358.6,0,0,96,4.276,4.276,0,0,0,0,1.28,68.72,380.56223625936,-0.656168,10,Assisted_Takeoff,
2800,2022-09-03 15:53:58,-34.8775585663412,-55.273830384505,-0.656168,-0.59055120000001,381.15278745936,380.56223625936,0.328084,0,0.38493111468,0.74424871148,19,5,8.551,381.21840425936,0,0,0.39246720416,0,0,0,347.9, -12.8, 0.1,0,0,1024,1024,1024,1024,0,0,0,0,358.7,0,0,96,4.276,4.276,0,0,0,0,1.28,68.72,380.56223625936,-0.656168,10,Assisted_Takeoff,
2900,2022-09-03 15:53:58,-34.8775585677417,-55.2738304048674,-0.656168,-0.59055120000001,381.15278745936,380.56223625936,0.328084,0,0.38451116716,0.75036419724,19,5,8.551,381.21840425936,0,0,0.39246720416,0,0,0,347.4, -12.2, 0.7,0,0,1024,1024,1024,1024,0,0,0,0,358.8,0,0,96,4.276,4.276,0,0,0,0,1.28,68.72,380.56223625936,-0.656168,10,Assisted_Takeoff,
3000,2022-09-03 15:53:58,-34.8775585532917,-55.2738304114129,-0.656168,-0.59055120000001,381.15278745936,380.56223625936,0.328084,0,0.3898294088,0.755987557,19,5,8.551,381.21840425936,0,0,0.39246720416,0,0,0,347.7, -12.4, 0.4,0,0,1024,1024,1024,1024,0,0,0,0,358.8,0,0,96,4.276,4.276,0,0,0,0,1.28,68.72,380.56223625936,-0.656168,10,Assisted_Takeoff,
3100,2022-09-03 15:53:58,-34.8775585452415,-55.2738304723669,-0.656168,-0.59055120000001,381.15278745936,380.56223625936,0.328084,0,0.3936843958,0.77446852872,19,5,8.551,381.21840425936,0,0,0.3936843958,0,0,0.223694,347.5, -12.5, 0,0,0,1024,1024,1078,1024,0,0,8,0,358.8,0,0,96,4.276,4.276,0,0,0,0,1.28,68.72,380.56223625936,-0.656168,10,Assisted_Takeoff,
3200,2022-09-03 15:53:58,-34.8775585354643,-55.2738305428817,-0.656168,-0.5577428,381.11997905936,380.56223625936,0.328084,0,0.39933728312,0.79587272888,19,5,8.551,381.21840425936,0,0,0.39933728312,0,0,0.223694,347.7, -12.9, 0.3,0,0,1024,1024,1283,1024,0,0,39,0,358.8,0,0,96,4.276,4.276,0,0,0,0,1.28,68.72,380.56223625936,-0.656168,10,Assisted_Takeoff,
3300,2022-09-03 15:53:58,-34.8775585266984,-55.2738305725484,-0.656168,-0.5577428,381.11997905936,380.56223625936,0.328084,0,0.40371064284,0.80531170556,19,5,8.549,381.21840425936,0,0,0.40371064284,0,0,0,347.5, -12.1, 0,0,0,1024,1024,1024,1024,0,0,0,0,358.8,0,0,96,4.27,4.268,0,0,0,0,1.121,68.72,380.56223625936,-0.656168,10,Assisted_Takeoff,
3400,2022-09-03 15:53:58,-34.8775585228561,-55.2738305517141,-0.656168,-0.5577428,381.11997905936,380.56223625936,0.328084,0,0.40423557724,0.81170278188,20,5,8.549,381.21840425936,0,0,0.40423557724,0,0,0,346.9, -11.2, 0.2,0,0,1024,1024,1024,1024,0,0,0,0,358.7,0,0,96,4.27,4.268,0,0,0,0,1.121,68.72,380.56223625936,-0.656168,10,Assisted_Takeoff,
3500,2022-09-03 15:53:58,-34.877558522563,-55.273830566602,-0.328084,-0.2296588,381.11997905936,380.89032025936,0.328084,0,0.40494751952,0.81616144344,20,5,8.549,381.21840425936,0,0,0.40494751952,0,0,0,348, -11.2, 0.4,0,0,1024,1024,1024,1024,0,0,0,0,358.7,0,0,96,4.27,4.268,0,0,0,0,1.121,68.72,380.89032025936,-0.328084,10,Assisted_Takeoff,
3600,2022-09-03 15:53:58,-34.8775585113373,-55.2738305931222,-0.328084,-0.2296588,381.11997905936,380.89032025936,0.328084,0,0.410187021,0.82509188992,20,5,8.549,381.21840425936,0,0,0.410187021,0,0,0,347.6, -11.1, 1.2,0,0,1024,1024,1024,1024,0,0,0,0,358.8,0,0,96,4.27,4.268,0,0,0,0,1.121,68.72,380.89032025936,-0.328084,10,Assisted_Takeoff,
3700,2022-09-03 15:53:58,-34.8775584533451,-55.273830578175,-0.328084,-0.13123360000004,381.02155385936,380.89032025936,0.328084,0,0.43043636548,0.8467191872,20,5,8.549,381.21840425936,0,0,0.43043636548,0,0,0,347.4, -11.3, 0.9,0,0,1024,1024,1119,1024,0,0,14,0,358.9,0,0,96,4.27,4.268,0,0,0,0,1.121,68.72,380.89032025936,-0.328084,10,Assisted_Takeoff,
3800,2022-09-03 15:53:58,-34.8775583457758,-55.2738305356998,-0.328084,-0.13123360000004,381.02155385936,380.89032025936,0.328084,0,0.46785434568,0.88797246936,20,5,8.549,381.21840425936,0,0,0.46785434568,0,0,0,345.7, -11.1, 0.6,0,0,1024,1024,1525,1024,0,0,76,0,358.2,0,0,96,4.27,4.268,0,0,0,0,1.121,68.72,380.89032025936,-0.328084,10,Assisted_Takeoff,
3900,2022-09-03 15:53:59,-34.8775582724788,-55.2738305436557,-0.328084,-0.13123360000004,381.02155385936,380.89032025936,0.328084,0,0.49469817856,0.91482286392,20,5,8.549,381.21840425936,0,0,0.49469817856,0,0,0,346.2, -11.6, 0.5,0,0,1024,1024,1525,1024,0,0,76,0,357.9,0,0,96,4.27,4.268,0,0,0,0,1.121,68.72,380.89032025936,-0.328084,10,Assisted_Takeoff,
4000,2022-09-03 15:53:59,-34.8775582460931,-55.2738305851643,-0.328084,-0.13123360000004,381.02155385936,380.89032025936,0.328084,0,0.50566602668,0.93053808752,20,5,8.549,381.21840425936,0,0,0.50566602668,0,0,0,345.8, -9.7, 0,0,0,1024,1024,1455,1024,0,0,65,0,357.7,0,0,96,4.27,4.268,0,0,0,0,1.121,68.72,380.89032025936,-0.328084,10,Assisted_Takeoff,
4100,2022-09-03 15:53:59,-34.8775581696327,-55.2738305783172,0,0.19685039999996,381.02155385936,381.21840425936,0.328084,0,0.53312337664,0.95851052936,20,5,8.549,381.21840425936,0,0,0.53312337664,0,0,0,346.5, -7.6, -0.3,0,0,1024,1024,1544,1024,0,0,79,0,357.6,0,0,96,4.27,4.268,0,0,0,0,1.121,68.72,381.21840425936,0,10,Assisted_Takeoff,
4200,2022-09-03 15:53:59,-34.8775580986391,-55.2738306580293,0,0.19685039999996,381.02155385936,381.21840425936,0.328084,0,0.56195539856,0.99372706592,20,5,8.549,381.21840425936,0,0,0.56195539856,0,0,-0.223694,345.8, -6.6, 0.1,0,0,1024,1024,1076,1024,0,0,8,0,357.6,0,0,96,4.27,4.268,0,0,0,0,1.121,68.72,381.21840425936,0,6,P-GPS,
4300,2022-09-03 15:53:59,-34.8775580658805,-55.2738307738505,0,0.19685039999996,381.02155385936,381.21840425936,0.328084,0,0.57989503168,1.0303970146,20,5,8.528,381.21840425936,0,0,0.57989503168,0,0,-0.447388,345.9, -4.5, 0.6,0,0,1024,1024,1024,1024,0,0,0,0,357.6,0,0,96,4.255,4.255,0,0,0,0,1.385,68.72,381.21840425936,0,6,P-GPS,
4400,2022-09-03 15:53:59,-34.8775580060173,-55.2738308836156,0,0.19685039999996,381.02155385936,381.21840425936,0.328084,0,0.60864831344,1.0698491156,20,5,8.528,381.21840425936,0,0,0.60864831344,0,0,-0.447388,346.3, -0.9, 0.3,0,0,1024,1024,1074,1024,0,0,8,0,357.6,0,0,96,4.255,4.255,0,0,0,0,1.385,68.72,381.21840425936,0,6,P-GPS,
4500,2022-09-03 15:53:59,-34.877557842813,-55.2738308951357,0,0.19685039999996,381.02155385936,381.21840425936,0.656168,0.223694,0.66726708172,1.12949150596,20,5,8.528,381.21840425936,0,0.223694,0.66726708172,0,-0.223694,-0.671082,346.1, 3.2, 1.4,0,0,1024,1024,1417,1024,0,0,60,0,357.6,0,0,96,4.255,4.255,0,0,0,0,1.385,68.72,381.21840425936,0,6,P-GPS,
4600,2022-09-03 15:53:59,-34.8775577759833,-55.2738309858699,0.328084,0.52493439999996,381.02155385936,381.54648825936,0.656168,0.223694,0.69761485172,1.16599085096,20,5,8.528,381.54648825936,0.328084,0.223694,0.69761485172,0,-0.223694,-0.447388,346.3, 2.2, 3,0,0,1024,1024,1604,1024,0,0,88,0,357.6,0,0,96,4.255,4.255,0,0,0,0,1.385,68.72,381.54648825936,0.328084,6,P-GPS,
4700,2022-09-03 15:53:59,-34.8775577388662,-55.273831049272,0.328084,0.52493439999996,381.02155385936,381.54648825936,0.656168,0,0.71580710952,1.1893045,20,5,8.528,381.54648825936,0.328084,0.223694,0.71580710952,0,0,-0.447388,346.2, 1.6, 1.6,0,0,1024,1024,1373,1024,0,0,53,0,357.6,0,0,96,4.255,4.255,0,0,0,0,1.385,68.72,381.54648825936,0.328084,6,P-GPS,
4800,2022-09-03 15:54:00,-34.8775577357917,-55.2738311083274,0.328084,0.52493439999996,381.02155385936,381.54648825936,0.656168,0,0.72205382888,1.20701447432,21,5,8.528,381.54648825936,0.328084,0.223694,0.72205382888,0,0,-0.671082,346.4, 0.9, 0.7,0,0,1024,1024,1373,1024,0,0,53,0,357.6,0,0,96,4.255,4.255,0,0,0,0,1.385,68.72,381.54648825936,0.328084,6,P-GPS,
4900,2022-09-03 15:54:00,-34.8775577301849,-55.2738311089194,0.656168,0.85301839999996,381.02155385936,381.87457225936,0.656168,0,0.72405514128,1.20906828016,21,5,8.528,381.87457225936,0.656168,0.223694,0.72405514128,0,0,-1.11847,346.5, 0.1, 0.4,0,0,1024,1024,1024,1024,0,0,0,0,357.6,0,0,96,4.255,4.255,0,0,0,0,1.385,68.72,381.87457225936,0.656168,6,P-GPS,
5000,2022-09-03 15:54:00,-34.877557612095,-55.2738309775492,0.984252,1.1811024,381.02155385936,382.20265625936,0.984252,0,0.7548884756,1.26739833452,21,5,8.528,382.20265625936,0.984252,0.223694,0.7548884756,0,0,-1.11847,346.4, 0, 0.5,0,0,1024,1024,1024,1024,0,0,0,0,357.6,0,0,96,4.255,4.255,0,0,0,0,1.385,68.72,382.20265625936,0.984252,6,P-GPS,
5100,2022-09-03 15:54:00,-34.8775576018,-55.2738310006325,0.984252,1.1811024,381.02155385936,382.20265625936,1.312336,0,0.76020671724,1.275262508,21,5,8.528,382.20265625936,0.984252,0.223694,0.76020671724,0,0,-1.11847,346.3, 0, 0.8,0,0,1024,1024,1024,1024,0,0,0,0,357.6,0,0,96,4.255,4.255,0,0,0,0,1.385,68.72,382.20265625936,0.984252,6,P-GPS,
5200,2022-09-03 15:54:00,-34.8775576032477,-55.2738310770264,1.312336,1.5091864,381.02155385936,382.53074025936,1.312336,0,0.76564634996,1.29813652448,21,5,8.528,382.53074025936,1.312336,0.223694,0.76564634996,0,0,-1.11847,346.2, -0.3, 1.3,0,0,1024,1024,1024,1024,0,0,0,0,357.6,0,0,96,4.255,4.255,0,0,0,0,1.385,68.72,382.53074025936,1.312336,6,P-GPS,
5300,2022-09-03 15:54:00,-34.8775576240462,-55.2738310942874,1.64042,1.8372704,381.02155385936,382.85882425936,1.64042,0,0.75979989308,1.3073163148,21,5,8.528,382.85882425936,1.64042,0.223694,0.76564634996,0,0,-0.894776,346.2, -0.5, 1,0,0,1024,1024,1024,1024,0,0,0,0,357.6,0,0,96,4.255,4.255,0,0,0,0,1.385,68.72,382.85882425936,1.64042,6,P-GPS,"Punto de origen actualizado. Altitud de RPO establecida en 60m (Code: 3000001)"
5400,2022-09-03 15:54:00,-34.877557691967,-55.2738309824206,1.64042,1.8372704,381.02155385936,382.85882425936,3.937008,0,0.7269849314,1.34896985944,21,5,8.41,382.85882425936,1.64042,0.223694,0.76564634996,0,0,-0.447388,346.2, 0.4, 0.6,0,0,1024,1024,1024,1024,0,0,0,0,357.6,0,0,96,4.186,4.172,0,0,0,0,2.706,68.72,382.85882425936,1.64042,6,P-GPS,
5500,2022-09-03 15:54:00,-34.8775576959941,-55.2738309655063,1.64042,1.8372704,381.02155385936,382.85882425936,3.937008,0,0.72431432764,1.35424216932,21,5,8.41,382.85882425936,1.64042,0.223694,0.76564634996,0,0,-0.223694,346.3, 0.6, 0.9,0,0,1024,1024,1024,1024,0,0,0,0,357.6,0,0,96,4.186,4.172,0,0,0,0,2.706,68.72,382.85882425936,1.64042,6,P-GPS,
5600,2022-09-03 15:54:00,-34.8775576734972,-55.2738309632089,1.64042,1.8372704,381.02155385936,382.85882425936,4.265092,0,0.73210960348,1.36248035856,21,5,8.41,382.85882425936,1.64042,0.223694,0.76564634996,0,0,0,346.3, 0.5, 0.9,0,0,1024,1024,1024,1024,0,0,0,0,357.6,0,0,96,4.186,4.172,0,0,0,0,2.706,68.72,382.85882425936,1.64042,6,P-GPS,
5700,2022-09-03 15:54:00,-34.8775576419786,-55.2738310119274,1.64042,1.8372704,381.02155385936,382.85882425936,4.265092,0,0.74686354096,1.38104991296,21,5,8.41,382.85882425936,1.64042,0.223694,0.76564634996,0,0,0,346.3, 0.2, 1,0,0,1024,1024,1135,1024,0,0,17,0,357.6,0,0,96,4.186,4.172,0,0,0,0,2.706,68.72,382.85882425936,1.64042,6,P-GPS,
5800,2022-09-03 15:54:01,-34.8775573966617,-55.2738312041739,1.64042,1.9028872,380.95593705936,382.85882425936,4.265092,0,0.84871393792,1.48745411584,21,5,8.41,382.85882425936,1.64042,0.223694,0.84871393792,0,0,0,346.2, 0, 1.3,0,0,1024,1024,1656,1024,0,0,96,0,357.6,0,0,96,4.186,4.172,0,0,0,0,2.706,68.72,382.85882425936,1.64042,6,P-GPS,
5900,2022-09-03 15:54:01,-34.8775573322681,-55.273831282473,1.968504,2.2309712,380.95593705936,383.18690825936,4.265092,0,0.87816931944,1.52063981244,21,5,8.41,383.18690825936,1.968504,0.223694,0.87816931944,0,0,0,346, 0.2, 1.6,0,0,1024,1024,1656,1024,0,0,96,0,357.6,0,0,96,4.186,4.172,0,0,0,0,2.706,68.72,383.18690825936,1.968504,6,P-GPS,
6000,2022-09-03 15:54:01,-34.8775572471461,-55.2738313309069,1.968504,2.2309712,380.95593705936,383.18690825936,4.265092,0,0.91219491108,1.55491474792,21,5,8.41,383.18690825936,1.968504,0.223694,0.91219491108,0,0,0,345.8, 0.2, 1.4,0,0,1024,1024,1671,1024,0,0,98,0,357.6,0,0,96,4.186,4.172,0,0,0,0,2.706,68.72,383.18690825936,1.968504,6,P-GPS,
6100,2022-09-03 15:54:01,-34.8775571776327,-55.273831345956,1.968504,2.2309712,380.95593705936,383.18690825936,4.265092,0,0.93770016124,1.58067262276,21,5,8.41,383.18690825936,1.968504,0.223694,0.93770016124,0,0,-0.671082,345.9, -0.3, 0.5,0,0,1024,1024,1024,1024,0,0,0,0,357.6,0,0,96,4.186,4.172,0,0,0,0,2.706,68.72,383.18690825936,1.968504,6,P-GPS,
6200,2022-09-03 15:54:01,-34.8775569175735,-55.2738313995401,2.296588,2.5590552,380.95593705936,383.51499225936,4.265092,0,1.03297903568,1.67689965996,21,5,8.41,383.51499225936,2.296588,0.223694,1.03297903568,0,0,-0.894776,345.9, -0.6, 0.2,0,0,1024,1024,1024,1024,0,0,0,0,357.6,0,0,96,4.186,4.172,0,0,0,0,2.706,68.72,383.51499225936,2.296588,6,P-GPS,
6300,2022-09-03 15:54:01,-34.877556873086,-55.2738313680126,2.296588,2.5590552,380.95593705936,383.51499225936,4.593176,0,1.04577103084,1.69567590728,21,5,8.41,383.51499225936,2.296588,0.223694,1.04577103084,0,0,-0.894776,346.1, -0.1, 0.1,0,0,1024,1024,1024,1024,0,0,0,0,357.6,0,0,96,4.186,4.172,0,0,0,0,2.706,68.72,383.51499225936,2.296588,6,P-GPS,
6400,2022-09-03 15:54:01,-34.8775568548865,-55.2738313041876,2.296588,2.5590552,380.95593705936,383.51499225936,4.593176,0,1.04690620148,1.71589900504,21,5,8.376,383.51499225936,2.296588,0.223694,1.04690620148,0,0,-0.447388,346.1, 0.3, -0.2,0,0,1024,1024,1024,1024,0,0,0,0,357.6,0,0,96,4.138,4.134,0,0,0,0,3.945,68.72,383.51499225936,2.296588,6,P-GPS,
6500,2022-09-03 15:54:01,-34.8775568559776,-55.2738312283987,2.624672,2.8871392,380.95593705936,383.84307625936,4.593176,0,1.04072837976,1.73858929448,21,5,8.376,383.84307625936,2.624672,0.223694,1.04690620148,0,0,-0.223694,346, 0.5, -0.2,0,0,1024,1024,1024,1024,0,0,0,0,357.6,0,0,96,4.138,4.134,0,0,0,0,3.945,68.72,383.84307625936,2.624672,6,P-GPS,
6600,2022-09-03 15:54:01,-34.8775568801453,-55.2738311302509,2.624672,2.8871392,380.95593705936,383.84307625936,4.593176,0,1.02531499344,1.76926186764,21,5,8.376,383.84307625936,2.624672,0.223694,1.04690620148,0,0,0,346, 0.3, 0,0,0,1024,1024,1024,1024,0,0,0,0,357.6,0,0,96,4.138,4.134,0,0,0,0,3.945,68.72,383.84307625936,2.624672,6,P-GPS,
6700,2022-09-03 15:54:01,-34.8775570173173,-55.2738308154798,2.624672,2.8871392,380.95593705936,383.84307625936,4.593176,0,0.95916013568,1.87594166108,21,5,8.376,383.84307625936,2.624672,0.223694,1.04690620148,0,0,0,346.1, -0.4, -0.7,0,0,1024,1024,1024,1024,0,0,0,0,357.6,0,0,96,4.138,4.134,0,0,0,0,3.945,68.72,383.84307625936,2.624672,6,P-GPS,
6800,2022-09-03 15:54:02,-34.8775570872215,-55.2738306866674,2.624672,2.8871392,380.95593705936,383.84307625936,4.593176,0,0.92925199824,1.92217197752,21,5,8.376,383.84307625936,2.624672,0.223694,1.04690620148,0,0,0,346.3, -0.8, -1.1,0,0,1024,1024,1024,1024,0,0,0,0,357.6,0,0,96,4.138,4.134,0,0,0,0,3.945,68.72,383.84307625936,2.624672,6,P-GPS,
6900,2022-09-03 15:54:02,-34.8775571452332,-55.2738305750944,2.624672,2.8871392,380.95593705936,383.84307625936,4.593176,0,0.90538388724,1.96170938036,21,5,8.376,383.84307625936,2.624672,0.223694,1.04690620148,0,0,0,346.6, -1.3, -1.1,0,0,1024,1024,1024,1024,0,0,0,0,357.6,0,0,96,4.138,4.134,0,0,0,0,3.945,68.72,383.84307625936,2.624672,6,P-GPS,
7000,2022-09-03 15:54:02,-34.877557192616,-55.273830470935,2.624672,2.8543308,380.98874545936,383.84307625936,4.593176,0,0.88658467404,1.99735570696,21,5,8.376,383.84307625936,2.624672,0.223694,1.04690620148,0,0,0,346.9, -1.4, -0.9,0,0,1024,1024,1024,1024,0,0,0,0,357.6,0,0,96,4.138,4.134,0,0,0,0,3.945,68.72,383.84307625936,2.624672,6,P-GPS,
7100,2022-09-03 15:54:02,-34.8775572419986,-55.2738303808978,2.624672,2.8543308,380.98874545936,383.84307625936,4.593176,0,0.868110264,2.029773687,21,5,8.376,383.84307625936,2.624672,0.223694,1.04690620148,0,0,0,347.3, -1.5, -1.8,0,0,1024,1024,1024,1024,0,0,0,0,357.6,0,0,96,4.138,4.134,0,0,0,0,3.945,68.72,383.84307625936,2.624672,6,P-GPS,
7200,2022-09-03 15:54:02,-34.8775572966801,-55.2738303018625,2.624672,2.8543308,380.98874545936,383.84307625936,4.593176,0,0.84844490904,2.06071856988,21,5,8.376,383.84307625936,2.624672,0.223694,1.04690620148,0,0,0,347.8, -1.6, -1.4,0,0,1024,1024,1024,1024,0,0,0,0,357.6,0,0,96,4.138,4.134,0,0,0,0,3.945,68.72,383.84307625936,2.624672,6,P-GPS,
7300,2022-09-03 15:54:02,-34.8775573507233,-55.2738302442039,2.624672,2.8543308,380.98874545936,383.84307625936,4.593176,0,0.82937338612,2.08692263896,21,5,8.376,383.84307625936,2.624672,0.223694,1.04690620148,0,0,0,348.2, -2.1, -2,0,0,1024,1024,1024,1024,0,0,0,0,357.6,0,0,96,4.138,4.134,0,0,0,0,3.945,68.72,383.84307625936,2.624672,6,P-GPS,
7400,2022-09-03 15:54:02,-34.8775574009249,-55.2738302115186,2.624672,2.8543308,380.98874545936,383.84307625936,4.593176,0,0.81161091836,2.10769035616,21,5,8.355,383.84307625936,2.624672,0.223694,1.04690620148,0,0,0,348.4, -1.7, -2.5,0,0,1024,1024,1024,1024,0,0,0,0,357.6,0,0,95,4.161,4.158,0,0,0,0,4.327,68.72,383.84307625936,2.624672,6,P-GPS,
7500,2022-09-03 15:54:02,-34.8775573236683,-55.2738302143002,2.624672,2.8543308,380.98874545936,383.84307625936,4.593176,0,0.83970147044,2.13588917596,21,5,8.355,383.84307625936,2.624672,0.223694,1.04690620148,0,0,0,348.7, -0.7, -2.1,0,0,1024,1024,1024,1024,0,0,0,0,357.6,0,0,95,4.161,4.158,0,0,0,0,4.327,68.72,383.84307625936,2.624672,6,P-GPS,
7600,2022-09-03 15:54:02,-34.8775572794512,-55.2738302595238,2.624672,2.8543308,380.98874545936,383.84307625936,4.593176,0,0.855150946,2.15694888792,21,5,8.355,383.84307625936,2.624672,0.223694,1.04690620148,0,0,0,348.9, 0, -1.7,0,0,1024,1024,1024,1024,0,0,0,0,357.6,0,0,95,4.161,4.158,0,0,0,0,4.327,68.72,383.84307625936,2.624672,6,P-GPS,
7700,2022-09-03 15:54:02,-34.877557255158,-55.2738302881612,2.624672,2.8543308,380.98874545936,383.84307625936,4.593176,0,0.86370409588,2.16927828464,21,5,8.355,383.84307625936,2.624672,0.223694,1.04690620148,0,0,0,349.1, 0.4, -1.3,0,0,1024,1024,1024,1024,0,0,0,0,357.6,0,0,95,4.161,4.158,0,0,0,0,4.327,68.72,383.84307625936,2.624672,6,P-GPS,
7800,2022-09-03 15:54:02,-34.8775572569054,-55.2738302996069,2.624672,2.8543308,380.98874545936,383.84307625936,4.593176,0,0.86296918772,2.17276253672,21,5,8.355,383.84307625936,2.624672,0.223694,1.04690620148,0,0,0,349.3, 0.4, -0.8,0,0,1024,1024,1024,1024,0,0,0,0,357.6,0,0,95,4.161,4.158,0,0,0,0,4.327,68.72,383.84307625936,2.624672,6,P-GPS,
7900,2022-09-03 15:54:03,-34.8775572155657,-55.2738301951988,2.624672,2.8543308,380.98874545936,383.84307625936,4.593176,0,0.8794127578,2.20746070056,21,5,8.355,383.84307625936,2.624672,0.223694,1.04690620148,0,0,0,349.5, 0.3, -0.7,0,0,1024,1024,1024,1024,0,0,0,0,357.6,0,0,95,4.161,4.158,0,0,0,0,4.327,68.72,383.84307625936,2.624672,6,P-GPS,
8000,2022-09-03 15:54:03,-34.8775572238642,-55.2738302076464,2.624672,2.8543308,380.98874545936,383.84307625936,4.593176,0,0.87616800704,2.21226385032,21,5,8.355,383.84307625936,2.624672,0.223694,1.04690620148,0,0,0,349.5, 0.1, -0.9,0,0,1024,1024,1024,1024,0,0,0,0,357.6,0,0,95,4.161,4.158,0,0,0,0,4.327,68.72,383.84307625936,2.624672,6,P-GPS,
8100,2022-09-03 15:54:03,-34.8775572237714,-55.2738301949156,2.296588,2.5262468,380.98874545936,383.51499225936,4.593176,0,0.87643047424,2.21607290556,21,5,8.355,383.84307625936,2.624672,0.223694,1.04690620148,0,0,0,349.7, -0.1, -1.3,0,0,1024,1024,1024,1024,0,0,0,0,357.6,0,0,95,4.161,4.158,0,0,0,0,4.327,68.72,383.51499225936,2.296588,6,P-GPS,
8200,2022-09-03 15:54:03,-34.877557216191,-55.2738301623217,2.296588,2.5262468,380.98874545936,383.51499225936,4.593176,0,0.87984582868,2.226213982,21,5,8.355,383.84307625936,2.624672,0.223694,1.04690620148,0,0,0,350, 0, -1.2,0,0,1024,1024,1024,1024,0,0,0,0,357.6,0,0,95,4.161,4.158,0,0,0,0,4.327,68.72,383.51499225936,2.296588,6,P-GPS,
8300,2022-09-03 15:54:03,-34.8775572066206,-55.2738301378241,2.296588,2.5262468,380.98874545936,383.51499225936,4.593176,0,0.88388782356,2.234334061,21,5,8.355,383.84307625936,2.624672,0.223694,1.04690620148,0,0,0,350.3, 0, -1.1,0,0,1024,1024,1024,1024,0,0,0,0,357.6,0,0,95,4.161,4.158,0,0,0,0,4.327,68.72,383.51499225936,2.296588,6,P-GPS,
8400,2022-09-03 15:54:03,-34.8775570601584,-55.2738299634612,2.296588,2.5262468,380.98874545936,383.51499225936,4.593176,0,0.94256236612,2.30902894528,21,5,8.328,383.84307625936,2.624672,0.223694,1.04690620148,0,0,0,350.3, -0.4, -1.3,0,0,1024,1024,1024,1024,0,0,0,0,357.6,0,0,95,4.166,4.164,0,0,0,0,4.244,68.9,383.51499225936,2.296588,6,P-GPS,
8500,2022-09-03 15:54:03,-34.8775570781559,-55.2738299758669,2.296588,2.5262468,380.98874545936,383.51499225936,4.593176,0,0.93557089608,2.31657159644,21,5,8.328,383.84307625936,2.624672,0.223694,1.04690620148,0,0,0,350.5, -0.2, -1.1,0,0,1024,1024,1024,1024,0,0,0,0,357.6,0,0,95,4.166,4.164,0,0,0,0,4.244,68.9,383.51499225936,2.296588,6,P-GPS,
8600,2022-09-03 15:54:03,-34.8775571293119,-55.2738300196781,2.296588,2.5262468,380.98874545936,383.51499225936,4.593176,0,0.91544294268,2.33938327696,21,5,8.328,383.84307625936,2.624672,0.223694,1.04690620148,0,0,0,350.7, -0.4, 0,0,0,1024,1024,1024,1024,0,0,0,0,357.6,0,0,95,4.166,4.164,0,0,0,0,4.244,68.9,383.51499225936,2.296588,6,P-GPS,
8700,2022-09-03 15:54:03,-34.8775571861283,-55.2738300335628,2.296588,2.5262468,380.98874545936,383.51499225936,4.593176,0,0.8943733882,2.36052500992,21,5,8.328,383.84307625936,2.624672,0.223694,1.04690620148,0,0,0,350.8, -0.6, -0.1,0,0,1024,1024,1024,1024,0,0,0,0,357.6,0,0,95,4.166,4.164,0,0,0,0,4.244,68.9,383.51499225936,2.296588,6,P-GPS,
8800,2022-09-03 15:54:04,-34.8775572320064,-55.2738300821247,2.296588,2.5262468,380.98874545936,383.51499225936,4.593176,0,0.87617128788,2.3826936458,21,5,8.328,383.84307625936,2.624672,0.223694,1.04690620148,0,0,0,350.7, -1.6, -1.9,0,0,1024,1024,1024,1024,0,0,0,0,357.6,0,0,95,4.166,4.164,0,0,0,0,4.244,68.9,383.51499225936,2.296588,6,P-GPS,
8900,2022-09-03 15:54:04,-34.8775572624144,-55.2738300441229,2.296588,2.5262468,380.98874545936,383.51499225936,4.593176,0,0.86636157628,2.39858275392,21,5,8.328,383.84307625936,2.624672,0.223694,1.04690620148,0,0,0,350.8, -1.2, -2.1,0,0,1024,1024,1024,1024,0,0,0,0,357.6,0,0,95,4.166,4.164,0,0,0,0,4.244,68.9,383.51499225936,2.296588,6,P-GPS,
9000,2022-09-03 15:54:04,-34.8775572742581,-55.2738300095416,1.968504,2.1981628,380.98874545936,383.18690825936,4.593176,0,0.8633202376,2.40979994588,21,5,8.328,383.84307625936,2.624672,0.223694,1.04690620148,0,0,0,351.1, -0.5, -2.3,0,0,1024,1024,1024,1024,0,0,0,0,357.6,0,0,95,4.166,4.164,0,0,0,0,4.244,68.9,383.18690825936,1.968504,6,P-GPS,
9100,2022-09-03 15:54:04,-34.877557269617,-55.273829990993,1.968504,2.1981628,380.98874545936,383.18690825936,4.593176,0,0.86572181248,2.41560375184,21,5,8.328,383.84307625936,2.624672,0.223694,1.04690620148,0,0,0,351.2, -0.5, -2.7,0,0,1024,1024,1024,1024,0,0,0,0,357.6,0,0,95,4.166,4.164,0,0,0,0,4.244,68.9,383.18690825936,1.968504,6,P-GPS,
9200,2022-09-03 15:54:04,-34.8775571500436,-55.2738299560156,1.968504,2.1981628,380.98874545936,383.18690825936,4.593176,0,0.91036420236,2.46046923884,21,5,8.328,383.84307625936,2.624672,0.223694,1.04690620148,0,0,0,351.4, -1.2, -2.3,0,0,1024,1024,1024,1024,0,0,0,0,357.6,0,0,95,4.166,4.164,0,0,0,0,4.244,68.9,383.18690825936,1.968504,6,P-GPS,
9300,2022-09-03 15:54:04,-34.8775571169048,-55.2738299987532,1.968504,2.1981628,380.98874545936,383.18690825936,4.593176,0,0.920685725,2.47807094544,21,5,8.328,383.84307625936,2.624672,0.223694,1.04690620148,0,0,0,351.6, -1.4, -2.4,0,0,1024,1024,1024,1024,0,0,0,0,357.6,0,0,95,4.166,4.164,0,0,0,0,4.244,68.9,383.18690825936,1.968504,6,P-GPS,
9400,2022-09-03 15:54:04,-34.8775570578281,-55.2738300915987,1.968504,2.1981628,380.98874545936,383.18690825936,4.593176,0,0.93916013504,2.5132382694,21,5,8.324,383.84307625936,2.624672,0.223694,1.04690620148,0,0,0,351.6, -0.8, -1.4,0,0,1024,1024,1024,1024,0,0,0,0,357.6,0,0,95,4.161,4.162,0,0,0,0,4.085,68.9,383.18690825936,1.968504,6,P-GPS,
9500,2022-09-03 15:54:04,-34.8775570051919,-55.2738301644102,1.968504,2.1981628,380.98874545936,383.18690825936,4.593176,0,0.95659779964,2.54228682676,21,5,8.324,383.84307625936,2.624672,0.223694,1.04690620148,0,0,0,351.7, -0.8, -1,0,0,1024,1024,1024,1024,0,0,0,0,357.6,0,0,95,4.161,4.162,0,0,0,0,4.085,68.9,383.18690825936,1.968504,6,P-GPS,
9600,2022-09-03 15:54:04,-34.8775568714152,-55.2738302330127,1.968504,2.1981628,380.98874545936,383.18690825936,4.593176,0,1.00422247308,2.59523958436,21,5,8.324,383.84307625936,2.624672,0.223694,1.04690620148,0,0,0,351.5, -0.5, -0.9,0,0,1024,1024,1024,1024,0,0,0,0,357.6,0,0,95,4.161,4.162,0,0,0,0,4.085,68.9,383.18690825936,1.968504,6,P-GPS,
9700,2022-09-03 15:54:04,-34.8775568383497,-55.2738302863494,1.968504,2.1981628,380.98874545936,383.18690825936,4.593176,0,1.0157316598,2.61524942752,21,5,8.324,383.84307625936,2.624672,0.223694,1.04690620148,0,0,0,351.4, -0.4, -1.7,0,0,1172,1024,1024,1024,22,0,0,0,357.6,0,0,95,4.161,4.162,0,0,0,0,4.085,68.9,383.18690825936,1.968504,6,P-GPS,
9800,2022-09-03 15:54:05,-34.8775568192171,-55.2738303525397,1.968504,2.1981628,380.98874545936,383.18690825936,4.593176,0,1.02238192248,2.6362533652,21,5,8.324,383.84307625936,2.624672,0.223694,1.04690620148,0,0,0,351.5, 0.7, -1.3,0,0,1446,1024,1024,1024,64,0,0,0,357.6,0,0,95,4.161,4.162,0,0,0,0,4.085,68.9,383.18690825936,1.968504,6,P-GPS,
9900,2022-09-03 15:54:05,-34.877556754431,-55.2738304317505,1.968504,2.1981628,380.98874545936,383.18690825936,4.593176,0,1.04613192324,2.66973105656,21,5,8.324,383.84307625936,2.624672,0.223694,1.04690620148,0,0,0,351.6, -2.2, -0.5,0,0,1525,1024,1024,1024,76,0,0,0,357.6,0,0,95,4.161,4.162,0,0,0,0,4.085,68.9,383.18690825936,1.968504,6,P-GPS,
10000,2022-09-03 15:54:05,-34.8775566098024,-55.2738305166545,1.968504,2.2309712,380.95593705936,383.18690825936,4.593176,0.223694,1.099573526,2.72830061224,21,5,8.324,383.84307625936,2.624672,0.223694,1.099573526,0.223694,0,0,351.7, -8.4, -0.7,0,0,1253,1024,1024,1024,35,0,0,0,357.6,0,0,95,4.161,4.162,0,0,0,0,4.085,68.9,383.18690825936,1.968504,6,P-GPS,
10100,2022-09-03 15:54:05,-34.8775563987707,-55.2738305280199,1.968504,2.3293964,380.85751185936,383.18690825936,4.265092,0.671082,1.17664373844,2.80537082468,21,5,8.324,383.84307625936,2.624672,0.671082,1.17664373844,0.671082,0,0,352, -11.9, 0.4,0,0,1181,1024,1024,1024,24,0,0,0,357.6,0,0,95,4.161,4.162,0,0,0,0,4.085,68.9,383.18690825936,1.968504,6,P-GPS,
10200,2022-09-03 15:54:05,-34.8775559443469,-55.27383056809,1.968504,2.3293964,380.85751185936,383.18690825936,4.265092,1.11847,1.34279203772,2.97160114496,21,5,8.324,383.84307625936,2.624672,1.11847,1.34279203772,1.11847,0,0,352, -7.8, -0.5,0,0,1268,1024,1024,1024,37,0,0,0,357.6,0,0,95,4.161,4.162,0,0,0,0,4.085,68.9,383.18690825936,1.968504,6,P-GPS,
10300,2022-09-03 15:54:05,-34.8775553868638,-55.2738305921295,1.968504,2.3950132,380.79189505936,383.18690825936,4.265092,1.342164,1.5463091046,3.17512477352,21,5,8.324,383.84307625936,2.624672,1.342164,1.5463091046,1.342164,0,0,351.8, -3.1, -1.1,0,0,1268,1024,1024,1024,37,0,0,0,357.6,0,0,95,4.161,4.162,0,0,0,0,4.085,68.9,383.18690825936,1.968504,6,P-GPS,
10400,2022-09-03 15:54:05,-34.877554705785,-55.2738306123378,1.968504,2.3950132,380.79189505936,383.18690825936,4.593176,1.565858,1.79484257712,3.4236877736,21,5,8.324,383.84307625936,2.624672,1.565858,1.79484257712,1.565858,0,0,351.8, -2.4, -1,0,0,1397,1024,1024,1024,57,0,0,0,357.6,0,0,95,4.161,4.162,0,0,0,0,4.085,68.9,383.18690825936,1.968504,6,P-GPS,
10500,2022-09-03 15:54:05,-34.8775540117943,-55.2738306316488,1.968504,2.46063,380.72627825936,383.18690825936,4.593176,1.789552,2.0480807742,3.6769686216,21,5,8.314,383.84307625936,2.624672,1.789552,2.0480807742,1.789552,0,0,351.9, -3.9, -1.9,0,0,1428,1024,1024,1024,61,0,0,0,357.6,0,0,95,4.149,4.148,0,0,0,0,4.072,68.9,383.18690825936,1.968504,6,P-GPS,
10600,2022-09-03 15:54:05,-34.8775531177639,-55.2738306696114,1.968504,2.5590552,380.62785305936,383.18690825936,4.593176,2.013246,2.37446201824,4.0033465848,21,5,8.314,383.84307625936,2.624672,2.013246,2.37446201824,2.013246,0,0,352, -7.4, -2.6,0,0,1429,1024,1024,1024,61,0,0,0,357.6,0,0,95,4.149,4.148,0,0,0,0,4.072,68.9,383.18690825936,1.968504,6,P-GPS,
10700,2022-09-03 15:54:05,-34.8775521792688,-55.2738307519237,1.968504,2.624672,380.56223625936,383.18690825936,4.593176,2.23694,2.71757554628,4.346620874,21,5,8.314,383.84307625936,2.624672,2.23694,2.71757554628,2.23694,-0.223694,0,352.2, -9.3, -2.8,0,0,1452,1024,1133,1024,65,0,17,0,357.6,0,0,95,4.149,4.148,0,0,0,0,4.072,68.9,383.18690825936,1.968504,6,P-GPS,
10800,2022-09-03 15:54:06,-34.8775510775075,-55.2738309024377,1.968504,2.7230972,380.46381105936,383.18690825936,4.593176,2.460634,3.12120416812,4.7511156376,21,5,8.314,383.84307625936,2.624672,2.460634,3.12120416812,2.460634,-0.223694,0,352, -9, -2,0,0,1467,1024,1283,1024,67,0,39,0,357.6,0,0,95,4.149,4.148,0,0,0,0,4.072,68.9,383.18690825936,1.968504,6,P-GPS,
10900,2022-09-03 15:54:06,-34.8775496974924,-55.2738311335077,1.968504,2.788714,380.39819425936,383.18690825936,4.92126,2.9527608,3.6278216384,5.259350562,21,5,8.314,383.84307625936,2.624672,2.9527608,3.6278216384,2.908022,-0.447388,0,351.4, -9.7, -2.5,0,0,1487,1024,1501,1024,70,0,72,0,357.6,0,0,95,4.149,4.148,0,0,0,0,4.072,68.9,383.18690825936,1.968504,6,P-GPS,
11000,2022-09-03 15:54:06,-34.8775481988794,-55.2738314491814,1.968504,2.952756,380.23415225936,383.18690825936,4.92126,3.3777794,4.1798557768,5.8142390312,21,5,8.314,383.84307625936,2.624672,3.3777794,4.1798557768,3.35541,-0.447388,-0.671082,351.5, -8.9, -1.3,0,0,1498,1024,1684,1024,72,0,100,0,357.6,0,0,95,4.149,4.148,0,0,0,0,4.072,68.9,383.18690825936,1.968504,6,P-GPS,
11100,2022-09-03 15:54:06,-34.8775468077583,-55.2738317717603,2.296588,3.4120736,380.10291865936,383.51499225936,5.249344,3.8699062,4.6936681292,6.330872906,21,5,8.314,383.84307625936,2.624672,3.8699062,4.6936681292,3.802798,-0.671082,-1.342164,351.8, -9.9, 0,0,0,1498,1024,1684,1024,72,0,100,0,357.6,0,0,95,4.149,4.148,0,0,0,0,4.072,68.9,383.51499225936,2.296588,6,P-GPS,
11200,2022-09-03 15:54:06,-34.877545125947,-55.2738321450817,2.624672,3.8713912,379.97168505936,383.84307625936,5.577428,4.2949248,5.3150920336,6.9545933984,21,5,8.314,383.84307625936,2.624672,4.2949248,5.3150920336,4.250186,-0.671082,-2.23694,351.8, -10.4, -0.6,0,0,1495,1024,1682,1024,71,0,100,0,357.6,0,0,95,4.149,4.148,0,0,0,0,4.072,68.9,383.84307625936,2.624672,6,P-GPS,
11300,2022-09-03 15:54:06,-34.8775432768732,-55.2738326816824,2.952756,4.3963256,379.77483465936,384.17116025936,6.233596,4.2949248,6.0030841816,7.6480645492,21,5,8.314,384.17116025936,2.952756,4.2949248,6.0030841816,4.697574,-0.671082,-2.908022,351.8, -10.3, -0.9,0,0,1495,1024,1684,1024,71,0,100,0,357.6,0,0,95,4.149,4.148,0,0,0,0,4.072,68.9,384.17116025936,2.952756,6,P-GPS,
11400,2022-09-03 15:54:06,-34.8775412851625,-55.2738330989669,3.608924,5.2165356,379.61079265936,384.82732825936,6.56168,5.1897008,6.7394359112,8.3854005308,21,5,8.314,384.82732825936,3.608924,5.1897008,6.7394359112,5.144962,-0.671082,-3.802798,351.8, -9.5, -1.1,0,0,1506,1024,1680,1024,73,0,99,0,357.6,0,0,95,4.149,4.148,0,0,0,0,4.072,68.9,384.82732825936,3.608924,6,P-GPS,
11500,2022-09-03 15:54:06,-34.877539083643,-55.2738335412112,4.265092,6.069554,379.41394225936,385.48349625936,7.217848,5.6370888,7.5528545724,9.1994425516,21,5,8.307,385.48349625936,4.265092,5.6370888,7.5528545724,5.59235,-0.671082,-4.697574,352, -8.9, 0,0,0,1517,1024,1465,1024,75,0,67,0,357.6,0,0,95,4.119,4.105,0,0,0,0,4.417,68.9,385.48349625936,4.265092,6,P-GPS,
11600,2022-09-03 15:54:06,-34.8775365727256,-55.2738339945931,4.92126,6.889764,379.24990025936,386.13966425936,8.2021,6.0844768,8.4787404288,10.1255580668,21,5,8.307,386.13966425936,4.92126,6.0844768,8.4787404288,6.039738,-0.671082,-5.368656,352.2, -8.5, -0.8,0,0,1534,1024,1323,1024,77,0,45,0,357.6,0,0,95,4.119,4.105,0,0,0,0,4.417,68.9,386.13966425936,4.92126,6,P-GPS,
11700,2022-09-03 15:54:06,-34.8775340607009,-55.2738343965603,5.905512,8.1036748,379.02024145936,387.12391625936,8.858268,6.3081708,9.4031170988,11.0499347368,21,5,8.307,387.12391625936,5.905512,6.3081708,9.4031170988,6.263432,-0.671082,-5.144962,352.3, -9.9, -2.4,0,0,1546,1024,1325,1024,79,0,46,0,357.6,0,0,95,4.119,4.105,0,0,0,0,4.417,68.9,387.12391625936,5.905512,6,P-GPS,
11800,2022-09-03 15:54:06,-34.8775311782378,-55.273834806806,6.56168,9.0551184,378.72496585936,387.78008425936,9.186352,6.7331894,10.4618769752,12.1087274216,21,5,8.307,387.78008425936,6.56168,6.7331894,10.4618769752,6.71082,-0.671082,-4.697574,352.2, -11, -2.1,0,0,1542,1024,1277,1024,78,0,38,0,357.6,0,0,95,4.119,4.105,0,0,0,0,4.417,68.9,387.78008425936,6.56168,6,P-GPS,
11900,2022-09-03 15:54:07,-34.8775284261805,-55.2738351858204,7.217848,9.9409452,378.49530705936,388.43625225936,9.84252,6.9568834,11.4722444616,13.1192261416,21,5,8.307,388.43625225936,7.217848,6.9568834,11.4722444616,6.934514,-0.671082,-4.026492,352, -11.1, -3.6,0,0,1542,1024,1251,1024,78,0,34,0,357.6,0,0,95,4.119,4.105,0,0,0,0,4.417,68.9,388.43625225936,7.217848,6,P-GPS,
12000,2022-09-03 15:54:07,-34.8775254086966,-55.2738355843247,7.874016,10.8923888,378.20003145936,389.09242025936,10.498688,7.1805774,12.5794623448,14.2265752584,21,5,8.307,389.09242025936,7.874016,7.1805774,12.5794623448,7.158208,-0.671082,-3.35541,352, -11.9, -2.6,0,0,1542,1024,1251,1024,78,0,34,0,357.6,0,0,95,4.119,4.105,0,0,0,0,4.417,68.9,389.09242025936,7.874016,6,P-GPS,
12100,2022-09-03 15:54:07,-34.8775223772276,-55.2738359830756,8.2021,11.4501316,377.97037265936,389.42050425936,10.826772,7.4042714,13.69176553,15.3390424856,21,5,8.307,389.42050425936,8.2021,7.4042714,13.69176553,7.381902,-0.671082,-2.460634,352, -13.2, -3,0,0,1544,1024,1263,1024,79,0,36,0,357.6,0,0,95,4.119,4.105,0,0,0,0,4.417,68.9,389.42050425936,8.2021,6,P-GPS,
12200,2022-09-03 15:54:07,-34.8775186790931,-55.2738363592131,8.530184,12.0078744,377.74071385936,389.74858825936,9.84252,7.4266408,15.0447511376,16.6929795368,21,5,8.307,389.74858825936,8.530184,7.4266408,15.0447511376,7.381902,-0.894776,-1.789552,352.1, -12.9, -2.9,0,0,1548,1024,1335,1024,79,0,47,0,357.6,0,0,95,4.119,4.105,0,0,0,0,4.417,68.9,389.74858825936,8.530184,6,P-GPS,
12300,2022-09-03 15:54:07,-34.8775155575614,-55.2738368424549,8.858268,12.631234,377.44543825936,390.07667225936,10.170604,7.8740288,16.192749862,17.8410110696,21,5,8.307,390.07667225936,8.858268,7.8740288,16.192749862,7.82929,-0.894776,-1.565858,352.3, -13.1, -2.7,0,0,1548,1024,1312,1024,79,0,44,0,357.6,0,0,95,4.119,4.105,0,0,0,0,4.417,68.9,390.07667225936,8.858268,6,P-GPS,
12400,2022-09-03 15:54:07,-34.8775122662416,-55.2738374028216,9.186352,13.287402,377.11735425936,390.40475625936,10.826772,8.0977228,17.4050530504,19.0535111084,21,5,8.307,390.40475625936,9.186352,8.0977228,17.4050530504,8.052984,-0.894776,-1.789552,352.1, -12.9, -2.4,0,0,1551,1024,1468,1024,80,0,67,0,357.6,0,0,95,4.119,4.105,0,0,0,0,4.417,68.9,390.40475625936,9.186352,6,P-GPS,
12500,2022-09-03 15:54:07,-34.8775089871156,-55.2738379259045,9.514436,13.8779532,376.85488705936,390.73284025936,11.154856,8.3214168,18.6115819604,20.2601056352,21,5,8.302,390.73284025936,9.514436,8.3214168,18.6115819604,8.276678,-0.894776,-1.789552,351.7, -12.7, -3.2,0,0,1549,1024,1423,1024,80,0,60,0,357.6,0,0,95,4.183,4.183,0,0,0,0,5.288,68.9,390.73284025936,9.514436,6,P-GPS,
12600,2022-09-03 15:54:07,-34.8775056453009,-55.2738385389344,9.514436,14.1404204,376.59241985936,390.73284025936,11.48294,8.7911742,19.8441279316,21.493110924,21,5,8.302,390.73284025936,9.514436,8.7911742,19.8441279316,8.724066,-1.11847,-2.23694,352, -12.4, -2.3,0,0,1549,1024,1387,1024,80,0,55,0,357.6,0,0,95,4.183,4.183,0,0,0,0,5.288,68.9,390.73284025936,9.514436,6,P-GPS,
12700,2022-09-03 15:54:07,-34.8775021205665,-55.2738391293379,9.84252,14.7965884,376.26433585936,391.06092425936,11.811024,9.0148682,21.1420938524,22.79117527,21,5,8.302,391.06092425936,9.84252,9.0148682,21.1420938524,8.94776,-1.11847,-2.684328,352.2, -14.2, -3.2,0,0,1548,1024,1337,1024,79,0,47,0,357.6,0,0,95,4.183,4.183,0,0,0,0,5.288,68.9,391.06092425936,9.84252,6,P-GPS,
12800,2022-09-03 15:54:08,-34.8774983326299,-55.2738398148692,10.498688,15.8464572,375.87063505936,391.71709225936,12.467192,9.2385622,22.5389442908,24.1883537924,21,5,8.302,391.71709225936,10.498688,9.2385622,22.5389442908,9.171454,-1.11847,-2.684328,352.5, -17, -2.8,0,0,1548,1024,1337,1024,79,0,47,0,357.6,0,0,95,4.183,4.183,0,0,0,0,5.288,68.9,391.71709225936,10.498688,6,P-GPS,
12900,2022-09-03 15:54:08,-34.8774945222859,-55.2738404985223,10.826772,16.4698168,375.57535945936,392.04517625936,14.76378,9.4622562,23.9438327872,25.5935375644,21,5,8.302,392.04517625936,10.826772,9.4622562,23.9438327872,9.395148,-1.11847,-2.460634,352.5, -17.4, -2.4,0,0,1550,1024,1411,1024,80,0,59,0,357.6,0,0,95,4.183,4.183,0,0,0,0,5.288,68.9,392.04517625936,10.826772,6,P-GPS,
13000,2022-09-03 15:54:08,-34.8774900675471,-55.2738413728998,11.48294,17.6181108,375.08323345936,392.70134425936,15.419948,9.9096442,25.589239664,27.2397646512,21,5,8.302,392.70134425936,11.48294,9.9096442,25.589239664,9.842536,-1.11847,-2.460634,352.6, -16.7, -2.7,0,0,1561,1024,1455,1024,81,0,65,0,357.6,0,0,95,4.183,4.183,0,0,0,0,5.288,68.9,392.70134425936,11.48294,6,P-GPS,
13100,2022-09-03 15:54:08,-34.8774860355783,-55.273842009851,11.811024,18.372704,374.65672425936,393.02942825936,16.076116,10.3570322,27.0726058532,28.7231308404,21,5,8.302,393.02942825936,11.811024,10.3570322,27.0726058532,10.289924,-1.11847,-2.908022,352.5, -13.2, -2.9,0,0,1559,1024,1479,1024,81,0,69,0,357.6,0,0,95,4.183,4.183,0,0,0,0,5.288,68.9,393.02942825936,11.811024,6,P-GPS,
13200,2022-09-03 15:54:08,-34.8774817807799,-55.2738426523747,12.467192,19.4225728,374.26302345936,393.68559625936,16.4042,10.5807262,28.63681194,30.2873697356,21,5,8.302,393.68559625936,12.467192,10.5807262,28.63681194,10.513618,-1.11847,-3.131716,352.6, -14.9, -5.2,0,0,1558,1024,1466,1024,81,0,67,0,357.6,0,0,95,4.183,4.183,0,0,0,0,5.288,68.9,393.68559625936,12.467192,6,P-GPS,
13300,2022-09-03 15:54:08,-34.8774776479974,-55.2738432866082,13.12336,20.4724416,373.86932265936,394.34176425936,17.060368,10.8044202,30.1565626448,31.8071204404,21,5,8.302,394.34176425936,13.12336,10.8044202,30.1565626448,10.737312,-1.11847,-3.35541,352.6, -14.7, -4.7,0,0,1553,1024,1409,1024,80,0,58,0,357.6,0,0,95,4.183,4.183,0,0,0,0,5.288,68.9,394.34176425936,13.12336,6,P-GPS,
13400,2022-09-03 15:54:08,-34.8774729483928,-55.2738439938249,13.779528,21.6207356,373.37719665936,394.99793225936,19.68504,11.0281142,31.884187372,33.534777976,21,5,8.302,394.99793225936,13.779528,11.0281142,31.884187372,10.961006,-1.11847,-3.579104,352.6, -14.5, -6.1,0,0,1553,1024,1433,1024,80,0,62,0,357.6,0,0,95,4.183,4.183,0,0,0,0,5.288,68.9,394.99793225936,13.779528,6,P-GPS,
13500,2022-09-03 15:54:08,-34.8774691211455,-55.2738446159725,14.435696,22.7034128,372.95068745936,395.65410025936,20.341208,11.2294388,33.292980068,34.943570672,21,5,8.272,395.65410025936,14.435696,11.2294388,33.292980068,11.1847,-0.894776,-3.35541,352.8, -13.8, -6.1,0,0,1553,1024,1440,1024,80,0,63,0,357.6,0,0,95,4.091,4.085,0,0,0,0,4.332,69.08,395.65410025936,14.435696,6,P-GPS,
13600,2022-09-03 15:54:08,-34.8774643222448,-55.2738451615839,15.091864,23.8188984,372.49136985936,396.31026825936,20.997376,11.4531328,35.050197972,36.702100912,21,5,8.272,396.31026825936,15.091864,11.4531328,35.050197972,11.408394,-0.894776,-3.35541,352.7, -13.6, -6.4,0,0,1553,1024,1444,1024,80,0,64,0,357.6,0,0,95,4.091,4.085,0,0,0,0,4.332,69.08,396.31026825936,15.091864,6,P-GPS,
13700,2022-09-03 15:54:08,-34.8774596355634,-55.273845664412,15.748032,24.9015756,372.06486065936,396.96643625936,21.653544,11.6768268,36.765749208,38.4186364,21,5,8.272,396.96643625936,15.748032,11.6768268,36.765749208,11.632088,-1.11847,-3.35541,352.6, -13.2, -7.1,0,0,1553,1024,1444,1024,80,0,64,0,357.6,0,0,95,4.091,4.085,0,0,0,0,4.332,69.08,396.96643625936,15.748032,6,P-GPS,
13800,2022-09-03 15:54:09,-34.8774546111232,-55.2738461929459,16.4042,26.0170612,371.60554305936,397.62260425936,21.653544,11.6768268,38.604331944,40.258531472,21,5,8.272,397.62260425936,16.4042,11.6768268,38.604331944,11.632088,-1.11847,-3.35541,352.5, -13, -6.4,0,0,1556,1024,1448,1024,81,0,64,0,357.6,0,0,95,4.091,4.085,0,0,0,0,4.332,69.08,397.62260425936,16.4042,6,P-GPS,
13900,2022-09-03 15:54:09,-34.8774497181962,-55.273846690759,16.732284,26.8700796,371.08060865936,397.95068825936,21.981628,11.9005208,40.394358248,42.049870112,21,5,8.272,397.95068825936,16.732284,11.9005208,40.394358248,11.855782,-1.11847,-3.579104,352.7, -13.5, -6.6,0,0,1559,1024,1435,1024,81,0,62,0,357.6,0,0,95,4.091,4.085,0,0,0,0,4.332,69.08,397.95068825936,16.732284,6,P-GPS,
14000,2022-09-03 15:54:09,-34.8774444662689,-55.2738472084417,17.388452,28.0839904,370.52286585936,398.60685625936,22.96588,12.1242148,42.315290068,43.972442352,22,5,8.272,398.60685625936,17.388452,12.1242148,42.315290068,12.079476,-1.11847,-3.579104,352.7, -13.7, -6.4,0,0,1559,1024,1435,1024,81,0,62,0,357.6,0,0,95,4.091,4.085,0,0,0,0,4.332,69.08,398.60685625936,17.388452,6,P-GPS,
14100,2022-09-03 15:54:09,-34.8774394710625,-55.2738477428273,18.04462,29.2650928,369.99793145936,399.26302425936,23.293964,12.3479088,44.144030284,45.801838736,22,5,8.272,399.26302425936,18.04462,12.3479088,44.144030284,12.30317,-1.11847,-3.35541,352.5, -13.4, -6.8,0,0,1536,1024,1353,1024,78,0,50,0,357.6,0,0,95,4.091,4.085,0,0,0,0,4.332,69.08,399.26302425936,18.04462,6,P-GPS,
14200,2022-09-03 15:54:09,-34.8774342299481,-55.2738483701544,18.372704,30.0524944,369.53861385936,399.59110825936,23.950132,12.5939722,46.064962104,47.72309864,22,5,8.272,399.59110825936,18.372704,12.5939722,46.064962104,12.526864,-1.342164,-3.35541,352.5, -13.3, -6.8,0,0,1217,1024,1024,1024,29,0,0,0,357.6,0,0,95,4.091,4.085,0,0,0,0,4.332,69.08,399.59110825936,18.372704,6,P-GPS,
14300,2022-09-03 15:54:09,-34.8774293097023,-55.2738490086185,19.028872,31.2007884,369.04648785936,400.24727625936,24.278216,12.5939722,47.870080272,49.528544892,22,5,8.272,400.24727625936,19.028872,12.5939722,47.870080272,12.526864,-1.342164,-2.908022,352.4, -13, -7,0,0,1024,1024,1024,1024,0,0,0,0,357.6,0,0,95,4.091,4.085,0,0,0,0,4.332,69.08,400.24727625936,19.028872,6,P-GPS,
14400,2022-09-03 15:54:09,-34.8774237717551,-55.2738497710385,19.356956,32.0538068,368.52155345936,400.57536025936,24.934384,12.5939722,49.903544904,51.562009524,23,5,8.272,400.57536025936,19.356956,12.5939722,49.903544904,12.526864,-1.342164,-2.23694,352, -7.1, -7.2,0,0,1024,1024,1024,1024,0,0,0,0,357.6,0,0,95,4.091,4.085,0,0,0,0,4.332,69.08,400.57536025936,19.356956,6,P-GPS,
14500,2022-09-03 15:54:09,-34.877419232526,-55.2738503862705,19.68504,32.8412084,368.06223585936,400.90344425936,25.262468,12.5939722,51.56988354,53.22834816,23,5,8.214,400.90344425936,19.68504,12.5939722,51.56988354,12.526864,-1.342164,-1.565858,351.2, 4.2, -7.1,0,0,1024,1024,1024,1024,0,0,0,0,357.6,0,0,95,4.125,4.124,0,0,0,0,5.223,69.08,400.90344425936,19.68504,6,P-GPS,
14600,2022-09-03 15:54:09,-34.8774146282895,-55.2738510004635,19.68504,33.2677176,367.63572665936,400.90344425936,25.918636,11.9005208,53.25951614,54.91798076,23,5,8.214,400.90344425936,19.68504,12.5939722,53.25951614,11.855782,-1.11847,-1.11847,350.6, 20.1, -3.1,0,0,1024,1024,1024,1024,0,0,0,0,357.6,0,0,95,4.125,4.124,0,0,0,0,5.223,69.08,400.90344425936,19.68504,6,P-GPS,
14700,2022-09-03 15:54:09,-34.877410475601,-55.2738515538284,19.68504,33.7598436,367.14360065936,400.90344425936,26.24672,11.0057448,54.783794404,56.442259024,23,5,8.214,400.90344425936,19.68504,12.5939722,54.783794404,10.961006,-0.894776,-0.671082,351, 19.6, -2,0,0,1024,1024,1024,1024,0,0,0,0,357.6,0,0,95,4.125,4.124,0,0,0,0,5.223,69.08,400.90344425936,19.68504,6,P-GPS,
14800,2022-09-03 15:54:10,-34.8774057561619,-55.2738520791447,19.68504,34.1535444,366.74989985936,400.90344425936,26.24672,10.3122934,56.512140916,58.171261704,23,5,8.214,400.90344425936,19.68504,12.5939722,56.512140916,10.289924,-0.671082,-0.223694,351.2, 20.4, -1.7,0,0,1024,1024,1024,1024,0,0,0,0,357.6,0,0,95,4.125,4.124,0,0,0,0,5.223,69.08,400.90344425936,19.68504,6,P-GPS,
14900,2022-09-03 15:54:10,-34.8774016223893,-55.2738524474568,20.013124,34.8425208,366.38900745936,401.23152825936,26.24672,9.395148,58.02329582,59.68340086,23,5,8.214,401.23152825936,20.013124,12.5939722,58.02329582,9.395148,-0.447388,0,351.4, 19.9, -2,0,0,1024,1024,1024,1024,0,0,0,0,357.6,0,0,95,4.125,4.124,0,0,0,0,5.223,69.08,401.23152825936,20.013124,6,P-GPS,
15000,2022-09-03 15:54:10,-34.8773976703382,-55.2738526951546,20.013124,35.26903,365.96249825936,401.23152825936,26.24672,8.500372,59.464240748,61.127298544,23,5,8.214,401.23152825936,20.013124,12.5939722,59.464240748,8.500372,-0.223694,0,351.3, 19.8, -2,0,0,1024,1024,1024,1024,0,0,0,0,357.6,0,0,95,4.125,4.124,0,0,0,0,5.223,69.08,401.23152825936,20.013124,6,P-GPS,
15100,2022-09-03 15:54:10,-34.8773943395579,-55.2738527801285,20.013124,35.6627308,365.56879745936,401.23152825936,26.24672,7.605596,60.674542624,62.342849764,23,5,8.214,401.23152825936,20.013124,12.5939722,60.674542624,7.605596,0,0,350.9, 19.8, -2.3,0,0,1024,1024,1024,1024,0,0,0,0,357.6,0,0,95,4.125,4.124,0,0,0,0,5.223,69.08,401.23152825936,20.013124,6,P-GPS,
15200,2022-09-03 15:54:10,-34.877391234011,-55.2738525182261,20.013124,35.925198,365.30633025936,401.23152825936,26.24672,6.934514,61.792324812,63.478676572,23,5,8.214,401.23152825936,20.013124,12.5939722,61.792324812,6.934514,0,0,350.6, 19.6, -3.4,0,0,1024,1024,1024,1024,0,0,0,0,357.6,0,0,95,4.125,4.124,0,0,0,0,5.223,69.08,401.23152825936,20.013124,6,P-GPS,
15300,2022-09-03 15:54:10,-34.8773887784868,-55.2738523794052,20.341208,36.417324,365.14228825936,401.55961225936,26.24672,6.039738,62.67880778,64.375330144,23,5,8.214,401.55961225936,20.341208,12.5939722,62.67880778,6.039738,0,0,350.5, 19.3, -4.1,0,0,1024,1024,1024,1024,0,0,0,0,357.6,0,0,95,4.125,4.124,0,0,0,0,5.223,69.08,401.55961225936,20.341208,6,P-GPS,
15400,2022-09-03 15:54:10,-34.8773865354159,-55.2738521640428,20.341208,36.6141744,364.94543785936,401.55961225936,26.24672,5.144962,63.486222504,65.196524396,23,5,8.214,401.55961225936,20.341208,12.5939722,63.486222504,5.144962,0.223694,0,350.5, 18.4, -4.8,0,0,1024,1024,1024,1024,0,0,0,0,357.6,0,0,95,4.125,4.124,0,0,0,0,5.223,69.08,401.55961225936,20.341208,6,P-GPS,
15500,2022-09-03 15:54:10,-34.8773849617007,-55.2738519173344,20.341208,36.7782164,364.78139585936,401.55961225936,26.24672,4.250186,64.049870816,65.775264572,23,5,8.214,401.55961225936,20.341208,12.5939722,64.049870816,4.250186,0.223694,0,350.4, 17.9, -5.8,0,0,1024,1024,1024,1024,0,0,0,0,357.6,0,0,95,4.125,4.124,0,0,0,0,5.223,69.08,401.55961225936,20.341208,6,P-GPS,
15600,2022-09-03 15:54:10,-34.877384224719,-55.2738514506141,20.341208,36.8438332,364.71577905936,401.55961225936,26.24672,4.250186,64.303479748,66.078414188,23,5,8.318,401.55961225936,20.341208,12.5939722,64.303479748,3.35541,0.447388,0,350.2, 17.7, -7,0,0,1024,1024,1024,1024,0,0,0,0,357.6,0,0,95,4.141,4.137,0,0,0,0,3.624,69.08,401.55961225936,20.341208,6,P-GPS,
15700,2022-09-03 15:54:10,-34.8773832617354,-55.2738511201719,20.669292,37.2703424,364.61735385936,401.88769625936,26.24672,2.7290668,64.643702856,66.443243596,23,5,8.318,401.88769625936,20.669292,12.5939722,64.643702856,2.684328,0.447388,0,350.6, 17.2, -7.7,0,0,1024,1024,1024,1024,0,0,0,0,357.6,0,0,95,4.141,4.137,0,0,0,0,3.624,69.08,401.88769625936,20.669292,6,P-GPS,
15800,2022-09-03 15:54:10,-34.8773825919238,-55.2738507701891,20.669292,37.2703424,364.61735385936,401.88769625936,26.24672,2.0356154,64.87697058,66.70931972,23,5,8.318,401.88769625936,20.669292,12.5939722,64.87697058,2.013246,0.223694,0,351, 14.9, -8.4,0,0,1024,1024,1024,1024,0,0,0,0,357.6,0,0,95,4.141,4.137,0,0,0,0,3.624,69.08,401.88769625936,20.669292,6,P-GPS,
15900,2022-09-03 15:54:11,-34.8773821912093,-55.2738505041672,20.669292,37.3687676,364.51892865936,401.88769625936,26.24672,1.3645334,65.015093944,66.875658308,23,5,8.318,401.88769625936,20.669292,12.5939722,65.015093944,1.342164,0.223694,0,351.3, 10.6, -7.3,0,0,1024,1024,1024,1024,0,0,0,0,357.6,0,0,95,4.141,4.137,0,0,0,0,3.624,69.08,401.88769625936,20.669292,6,P-GPS,
16000,2022-09-03 15:54:11,-34.8773824866221,-55.2738502500472,20.997376,37.6640432,364.55173705936,402.21578025936,26.24672,0.9171454,64.900592628,67.007548076,23,5,8.318,402.21578025936,20.997376,12.5939722,65.015093944,0.894776,0.223694,0,351.4, 8, -6.4,0,0,1024,1024,1024,1024,0,0,0,0,357.6,0,0,95,4.141,4.137,0,0,0,0,3.624,69.08,402.21578025936,20.997376,6,P-GPS,
16100,2022-09-03 15:54:11,-34.8773823318678,-55.2738500802144,20.997376,37.6640432,364.55173705936,402.21578025936,26.24672,0.7158208,64.9524299,67.083663564,23,5,8.318,402.21578025936,20.997376,12.5939722,65.015093944,0.671082,0.223694,0,351.5, 5.6, -6,0,0,1024,1024,1024,1024,0,0,0,0,357.6,0,0,95,4.141,4.137,0,0,0,0,3.624,69.08,402.21578025936,20.997376,6,P-GPS,
16200,2022-09-03 15:54:11,-34.8773822193489,-55.2738499220877,21.32546,37.9921272,364.55173705936,402.54386425936,26.24672,0.4921268,64.988847224,67.146327608,24,5,8.318,402.54386425936,21.32546,12.5939722,65.015093944,0.447388,0.223694,0,351.4, 5.1, -5.9,0,0,1024,1024,1024,1024,0,0,0,0,357.6,0,0,95,4.141,4.137,0,0,0,0,3.624,69.08,402.54386425936,21.32546,6,P-GPS,
16300,2022-09-03 15:54:11,-34.8773821483357,-55.2738497887204,21.32546,37.9921272,364.55173705936,402.54386425936,26.24672,0.447388,65.011156936,67.193899788,24,5,8.318,402.54386425936,21.32546,12.5939722,65.015093944,0.447388,0,0,351.5, 4.2, -5.4,0,0,1024,1024,1024,1024,0,0,0,0,357.6,0,0,95,4.141,4.137,0,0,0,0,3.624,69.08,402.54386425936,21.32546,6,P-GPS,
16400,2022-09-03 15:54:11,-34.8773820519578,-55.273849797607,21.32546,37.9921272,364.55173705936,402.54386425936,26.24672,0.223694,65.046261924,67.229004776,24,5,8.318,402.54386425936,21.32546,12.5939722,65.046261924,0.223694,0,0,351.6, 3.6, -5.2,0,0,1024,1024,1024,1024,0,0,0,0,357.6,0,0,95,4.141,4.137,0,0,0,0,3.624,69.08,402.54386425936,21.32546,6,P-GPS,
