time(millisecond),datetime(utc),latitude,longitude,height_above_takeoff(feet),height_above_ground_at_drone_location(feet),ground_elevation_at_drone_location(feet),altitude_above_seaLevel(feet),height_sonar(feet),speed(mph),distance(feet),mileage(feet),satellites,gpslevel,voltage(v),max_altitude(feet),max_ascent(feet),max_speed(mph),max_distance(feet), xSpeed(mph), ySpeed(mph), zSpeed(mph), compass_heading(degrees), pitch(degrees), roll(degrees),isPhoto,isVideo,rc_elevator,rc_aileron,rc_throttle,rc_rudder,rc_elevator(percent),rc_aileron(percent),rc_throttle(percent),rc_rudder(percent),gimbal_heading(degrees),gimbal_pitch(degrees),gimbal_roll(degrees),battery_percent,voltageCell1,voltageCell2,voltageCell3,voltageCell4,voltageCell5,voltageCell6,current(A),battery_temperature(f),altitude(feet),ascent(feet),flycStateRaw,flycState,message
104500,2022-08-15 23:34:15,0,0,0,,,3.28084E-5,0.328084,0,0,0,0,0,0,3.28084E-5,0,0,0,0,0,0,328.8, 2.8, -0.5,0,0,364,364,364,1684,-100,-100,-100,100,328.7,0,0,85,4.191,4.183,0,0,0,0,0,90.5,3.28084E-5,0,41,Motors_Started,"En vuelo"
104600,2022-08-15 23:34:15,0,0,0,,,3.28084E-5,0.328084,0,0,0,0,0,0,3.28084E-5,0,0,0,0,0,0,328.8, 2.8, -0.5,0,0,364,364,364,1684,-100,-100,-100,100,328.8,0,0,85,4.191,4.183,0,0,0,0,0,90.5,3.28084E-5,0,41,Motors_Started,
104700,2022-08-15 23:34:15,0,0,0,,,3.28084E-5,0.328084,0,0,0,0,0,0,3.28084E-5,0,0,0,0,0,0,328.8, 2.7, -0.5,0,0,364,364,364,1684,-100,-100,-100,100,328.8,0,0,85,4.191,4.183,0,0,0,0,0,90.5,3.28084E-5,0,41,Motors_Started,
104800,2022-08-15 23:34:15,0,0,0,,,3.28084E-5,0.328084,0,0,0,0,0,0,3.28084E-5,0,0,0,0,0,0,328.8, 2.8, -0.5,0,0,837,884,860,1028,-28,-21,-25,1,328.8,0,0,85,4.191,4.183,0,0,0,0,0,90.5,3.28084E-5,0,41,Motors_Started,"Setting new Return-To-Home altitude to 15m (49 ft). Data Recorder File Index is 73. Setting new Maximum Flight Altitude to 30m (98 ft)"
104900,2022-08-15 23:34:15,0,0,0,,,3.28084E-5,0.328084,0,0,0,0,0,0,3.28084E-5,0,0,0,0,0,0,328.7, 2.8, -0.5,0,0,837,884,860,1028,-28,-21,-25,1,328.8,0,0,85,4.191,4.183,0,0,0,0,0,90.5,3.28084E-5,0,41,Motors_Started,
105000,2022-08-15 23:34:15,0,0,0,,,3.28084E-5,0.328084,0,0,0,0,0,0,3.28084E-5,0,0,0,0,0,0,328.8, 2.7, -0.5,0,0,1024,1024,1024,1024,0,0,0,0,328.8,0,0,85,4.191,4.183,0,0,0,0,0,90.5,3.28084E-5,0,41,Motors_Started,
105100,2022-08-15 23:34:15,0,0,0,,,3.28084E-5,0.328084,0,0,0,0,0,0,3.28084E-5,0,0,0,0,0,0,328.7, 2.8, -0.5,0,0,1024,1024,1024,1024,0,0,0,0,328.8,0,0,85,4.191,4.183,0,0,0,0,0,90.5,3.28084E-5,0,41,Motors_Started,
105200,2022-08-15 23:34:15,0,0,0,,,3.28084E-5,0.328084,0,0,0,0,0,0,3.28084E-5,0,0,0,0,0,0,328.8, 2.7, -0.5,0,0,1024,1024,1024,1024,0,0,0,0,328.8,0,0,85,4.191,4.183,0,0,0,0,0,90.5,3.28084E-5,0,41,Motors_Started,
105300,2022-08-15 23:34:16,0,0,0,,,3.28084E-5,0.328084,0,0,0,0,0,0,3.28084E-5,0,0,0,0,0,0,328.7, 2.8, -0.5,0,0,1024,1024,1024,1024,0,0,0,0,328.8,0,0,85,4.191,4.183,0,0,0,0,0,90.5,3.28084E-5,0,41,Motors_Started,
105400,2022-08-15 23:34:16,0,0,0,,,3.28084E-5,0.328084,0,0,0,0,0,0,3.28084E-5,0,0,0,0,0,0,328.8, 2.7, -0.5,0,0,1024,1024,1136,1043,0,0,17,3,328.8,0,0,85,4.191,4.183,0,0,0,0,0,90.5,3.28084E-5,0,41,Motors_Started,
105500,2022-08-15 23:34:16,0,0,0,,,3.28084E-5,0.328084,0,0,0,0,0,0,3.28084E-5,0,0,0,0,0,0,328.7, 2.8, -0.5,0,0,1024,1024,1559,1024,0,0,81,0,328.8,0,0,85,4.191,4.183,0,0,0,0,0,90.5,3.28084E-5,0,41,Motors_Started,
105600,2022-08-15 23:34:16,0,0,0,,,3.28084E-5,0.328084,0,0,0,0,0,0,3.28084E-5,0,0,0,0,0,0,328.8, 2.7, -0.5,0,0,1024,1024,1639,1024,0,0,93,0,328.8,0,0,85,4.191,4.183,0,0,0,0,0,90.5,3.28084E-5,0,10,Assisted_Takeoff,
105700,2022-08-15 23:34:16,0,0,0,,,3.28084E-5,0.328084,0,0,0,0,0,0,3.28084E-5,0,0,0,0,0,0,328.9, 2.8, -0.5,0,0,1024,1024,1684,1024,0,0,100,0,328.8,0,0,85,4.191,4.183,0,0,0,0,0,90.5,3.28084E-5,0,10,Assisted_Takeoff,
105800,2022-08-15 23:34:16,0,0,0,,,3.28084E-5,0.328084,0,0,0,0,0,0,3.28084E-5,0,0,0,0,0,0,329, 2.7, -0.5,0,0,1024,1024,1684,1024,0,0,100,0,328.9,0,0,85,4.191,4.183,0,0,0,0,0,90.5,3.28084E-5,0,10,Assisted_Takeoff,
105900,2022-08-15 23:34:16,0,0,0,,,3.28084E-5,0.328084,0,0,0,0,0,8.372,3.28084E-5,0,0,0,0,0,0,329.2, 2.7, -0.5,0,0,1024,1024,1684,1024,0,0,100,0,329,0,0,85,4.174,4.165,0,0,0,0,0.548,90.5,3.28084E-5,0,10,Assisted_Takeoff,
106000,2022-08-15 23:34:16,0,0,0,,,3.28084E-5,0.328084,0,0,0,0,0,8.372,3.28084E-5,0,0,0,0,0,0,329.5, 2.6, -0.4,0,0,1024,1024,1684,1024,0,0,100,0,329.1,0,0,85,4.174,4.165,0,0,0,0,0.548,90.5,3.28084E-5,0,10,Assisted_Takeoff,
106100,2022-08-15 23:34:16,0,0,0,,,3.28084E-5,0.328084,0,0,0,0,0,8.372,3.28084E-5,0,0,0,0,0,0,330.6, -0.2, -0.1,0,0,1024,1024,1684,1024,0,0,100,0,329.8,0,0,85,4.174,4.165,0,0,0,0,0.548,90.5,3.28084E-5,0,10,Assisted_Takeoff,
106200,2022-08-15 23:34:16,0,0,0,,,3.28084E-5,0.328084,0,0,0,0,0,8.372,3.28084E-5,0,0,0,0,0,-0.223694,331.4, -1.3, 0.4,0,0,1024,1024,1684,1024,0,0,100,0,330.7,0,0,85,4.174,4.165,0,0,0,0,0.548,90.5,3.28084E-5,0,10,Assisted_Takeoff,
106300,2022-08-15 23:34:17,0,0,0,,,3.28084E-5,0.328084,0,0,0,0,0,8.372,3.28084E-5,0,0,0,0,0,-0.671082,331.3, -0.6, 0.4,0,0,1024,1024,1410,1024,0,0,58,0,330.9,0,0,85,4.174,4.165,0,0,0,0,0.548,90.5,3.28084E-5,0,38,Tripod,
106400,2022-08-15 23:34:17,0,0,0,,,3.28084E-5,0.656168,0,0,0,0,0,8.372,3.28084E-5,0,0,0,0,0,-1.11847,331, -0.1, 0.2,0,0,1024,1024,1024,1024,0,0,0,0,330.9,0,0,85,4.174,4.165,0,0,0,0,0.548,90.5,3.28084E-5,0,38,Tripod,
106500,2022-08-15 23:34:17,0,0,0.328084,,,0.3281168084,0.656168,0,0,0,0,0,8.372,0.3281168084,0.328084,0,0,0,0,-1.11847,331, 0.3, -0.1,0,0,1024,1024,1024,1024,0,0,0,0,330.9,0,0,85,4.174,4.165,0,0,0,0,0.548,90.5,0.3281168084,0.328084,38,Tripod,
106600,2022-08-15 23:34:17,0,0,0.328084,,,0.3281168084,0.984252,0,0,0,0,0,8.372,0.3281168084,0.328084,0,0,0,0,-1.11847,330.9, 0.4, -0.4,0,0,1024,1024,1024,1024,0,0,0,0,330.9,0,0,85,4.174,4.165,0,0,0,0,0.548,90.5,0.3281168084,0.328084,38,Tripod,
106700,2022-08-15 23:34:17,0,0,0.328084,,,0.3281168084,0.984252,0,0,0,0,0,8.372,0.3281168084,0.328084,0,0,0,0,-1.11847,330.9, 0.3, -0.2,0,0,1024,1024,1024,1024,0,0,0,0,330.9,0,0,85,4.174,4.165,0,0,0,0,0.548,90.5,0.3281168084,0.328084,38,Tripod,
106800,2022-08-15 23:34:17,0,0,0.656168,,,0.6562008084,1.312336,0,0,0,0,0,8.372,0.6562008084,0.656168,0,0,0,0,-1.11847,330.9, 0.2, 0,0,0,1024,1024,1024,1024,0,0,0,0,330.9,0,0,85,4.174,4.165,0,0,0,0,0.548,90.5,0.6562008084,0.656168,38,Tripod,
106900,2022-08-15 23:34:17,0,0,0.656168,,,0.6562008084,1.312336,0,0,0,0,0,8.342,0.6562008084,0.656168,0,0,0,0,-0.894776,330.9, 0.2, 0,0,0,1024,1024,1024,1024,0,0,0,0,330.9,0,0,85,4.13,4.126,0,0,0,0,1.314,90.5,0.6562008084,0.656168,38,Tripod,
107000,2022-08-15 23:34:17,0,0,0.984252,,,0.9842848084,1.312336,0,0,0,0,0,8.342,0.9842848084,0.984252,0,0,0,0,-0.671082,330.9, 0.2, 0,0,0,1024,1024,1024,1024,0,0,0,0,330.9,0,0,85,4.13,4.126,0,0,0,0,1.314,90.5,0.9842848084,0.984252,38,Tripod,
107100,2022-08-15 23:34:17,0,0,0.984252,,,0.9842848084,1.312336,0,0,0,0,0,8.342,0.9842848084,0.984252,0,0,0,0,-0.447388,330.9, 0.3, 0,0,0,1024,1024,1024,1024,0,0,0,0,330.9,0,0,85,4.13,4.126,0,0,0,0,1.314,90.5,0.9842848084,0.984252,38,Tripod,
107200,2022-08-15 23:34:17,0,0,0.984252,,,0.9842848084,1.64042,0,0,0,0,0,8.342,0.9842848084,0.984252,0,0,0,0,-0.447388,330.9, 0.3, 0.1,0,0,1024,1024,1024,1024,0,0,0,0,330.9,0,0,85,4.13,4.126,0,0,0,0,1.314,90.5,0.9842848084,0.984252,38,Tripod,
107300,2022-08-15 23:34:18,0,0,0.984252,,,0.9842848084,1.64042,0,0,0,0,0,8.342,0.9842848084,0.984252,0,0,0,0,-0.223694,330.9, 0.3, 0,0,0,1024,1024,1024,665,0,0,0,-54,330.9,0,0,85,4.13,4.126,0,0,0,0,1.314,90.5,0.9842848084,0.984252,38,Tripod,
107400,2022-08-15 23:34:18,0,0,0.984252,,,0.9842848084,1.64042,0,0,0,0,0,8.342,0.9842848084,0.984252,0,0,0,0,0,330.9, 0.3, 0,0,0,1024,1024,1024,364,0,0,0,-100,330.9,0,0,85,4.13,4.126,0,0,0,0,1.314,90.5,0.9842848084,0.984252,38,Tripod,
107500,2022-08-15 23:34:18,0,0,0.984252,,,0.9842848084,1.64042,0,0,0,0,0,8.342,0.9842848084,0.984252,0,0,0,0,0,330.9, 0.3, -0.1,0,0,1024,1024,1024,364,0,0,0,-100,330.8,0,0,85,4.13,4.126,0,0,0,0,1.314,90.5,0.9842848084,0.984252,38,Tripod,
107600,2022-08-15 23:34:18,0,0,0.984252,,,0.9842848084,1.64042,0,0,0,0,0,8.342,0.9842848084,0.984252,0,0,0,0,0,330.9, 0.3, -0.2,0,0,1024,1024,1024,364,0,0,0,-100,330.8,0,0,85,4.13,4.126,0,0,0,0,1.314,90.5,0.9842848084,0.984252,38,Tripod,
107700,2022-08-15 23:34:18,0,0,0.984252,,,0.9842848084,1.64042,0,0,0,0,0,8.342,0.9842848084,0.984252,0,0,0,0,0,330.8, 0.4, -0.2,0,0,1024,1024,1024,364,0,0,0,-100,330.7,0,0,85,4.13,4.126,0,0,0,0,1.314,90.5,0.9842848084,0.984252,38,Tripod,
107800,2022-08-15 23:34:18,0,0,0.984252,,,0.9842848084,1.64042,0,0,0,0,0,8.342,0.9842848084,0.984252,0,0,0,0,0,330.7, 0.3, -0.2,0,0,1024,1024,1024,364,0,0,0,-100,330.5,0,0,85,4.13,4.126,0,0,0,0,1.314,90.5,0.9842848084,0.984252,38,Tripod,
107900,2022-08-15 23:34:18,0,0,0.984252,,,0.9842848084,1.64042,0,0,0,0,0,8.265,0.9842848084,0.984252,0,0,0,0,0,330.5, 0.3, -0.2,0,0,1024,1024,1024,364,0,0,0,-100,330.3,0,0,85,4.128,4.115,0,0,0,0,2.872,90.5,0.9842848084,0.984252,38,Tripod,
108000,2022-08-15 23:34:18,0,0,0.984252,,,0.9842848084,1.64042,0,0,0,0,0,8.265,0.9842848084,0.984252,0,0,0,0,0,330.3, 0.3, -0.2,0,0,1024,1024,1024,364,0,0,0,-100,330.1,0,0,85,4.128,4.115,0,0,0,0,2.872,90.5,0.9842848084,0.984252,38,Tripod,
108100,2022-08-15 23:34:18,0,0,0.984252,,,0.9842848084,1.64042,0,0,0,0,0,8.265,0.9842848084,0.984252,0,0,0,0,0,330, 0.3, -0.2,0,0,1024,1024,1024,364,0,0,0,-100,329.8,0,0,85,4.128,4.115,0,0,0,0,2.872,90.5,0.9842848084,0.984252,38,Tripod,
108200,2022-08-15 23:34:18,0,0,0.984252,,,0.9842848084,1.64042,0,0,0,0,0,8.265,0.9842848084,0.984252,0,0,0,0,0,329.7, 0.2, -0.1,0,0,1024,1024,1024,364,0,0,0,-100,329.5,0,0,85,4.128,4.115,0,0,0,0,2.872,90.5,0.9842848084,0.984252,38,Tripod,
108300,2022-08-15 23:34:19,0,0,0.984252,,,0.9842848084,1.64042,0,0,0,0,0,8.265,0.9842848084,0.984252,0,0,0,0,0,329.4, 0.2, -0.1,0,0,1024,1024,1024,364,0,0,0,-100,329.1,0,0,85,4.128,4.115,0,0,0,0,2.872,90.5,0.9842848084,0.984252,38,Tripod,
108400,2022-08-15 23:34:19,0,0,0.984252,,,0.9842848084,1.64042,0,0,0,0,0,8.265,0.9842848084,0.984252,0,0,0,0,0,329, 0.3, -0.2,0,0,1024,1024,1024,364,0,0,0,-100,328.8,0,0,85,4.128,4.115,0,0,0,0,2.872,90.5,0.9842848084,0.984252,38,Tripod,
108500,2022-08-15 23:34:19,0,0,0.984252,,,0.9842848084,1.64042,0,0,0,0,0,8.265,0.9842848084,0.984252,0,0,0,0,0,328.7, 0.2, -0.2,0,0,1024,1024,1024,406,0,0,0,-94,328.4,0,0,85,4.128,4.115,0,0,0,0,2.872,90.5,0.9842848084,0.984252,38,Tripod,
108600,2022-08-15 23:34:19,0,0,0.984252,,,0.9842848084,1.64042,0,0,0,0,0,8.265,0.9842848084,0.984252,0,0,0,0,0,328.3, 0.2, -0.2,0,0,1024,1024,1024,1024,0,0,0,0,328,0,0,85,4.128,4.115,0,0,0,0,2.872,90.5,0.9842848084,0.984252,38,Tripod,
108700,2022-08-15 23:34:19,0,0,0.984252,,,0.9842848084,1.64042,0,0,0,0,0,8.265,0.9842848084,0.984252,0,0,0,0,0,327.9, 0.2, -0.2,0,0,1024,1024,1024,1024,0,0,0,0,327.7,0,0,85,4.128,4.115,0,0,0,0,2.872,90.5,0.9842848084,0.984252,38,Tripod,
108800,2022-08-15 23:34:19,0,0,0.984252,,,0.9842848084,1.64042,0,0,0,0,0,8.265,0.9842848084,0.984252,0,0,0,0,0,327.6, 0.3, -0.2,0,0,1024,1024,1024,1024,0,0,0,0,327.3,0,0,84,4.128,4.115,0,0,0,0,2.872,90.5,0.9842848084,0.984252,38,Tripod,
108900,2022-08-15 23:34:19,0,0,0.984252,,,0.9842848084,1.64042,0,0,0,0,0,8.254,0.9842848084,0.984252,0,0,0,0,0,327.2, 0.3, -0.2,0,0,1024,1024,1024,1024,0,0,0,0,327,0,0,84,4.123,4.111,0,0,0,0,3.961,90.5,0.9842848084,0.984252,38,Tripod,
109000,2022-08-15 23:34:19,0,0,0.984252,,,0.9842848084,1.64042,0,0,0,0,0,8.254,0.9842848084,0.984252,0,0,0,0,0,326.9, 0.2, -0.2,0,0,1024,1024,1024,1024,0,0,0,0,326.7,0,0,84,4.123,4.111,0,0,0,0,3.961,90.5,0.9842848084,0.984252,38,Tripod,
109100,2022-08-15 23:34:19,0,0,0.984252,,,0.9842848084,1.64042,0,0,0,0,0,8.254,0.9842848084,0.984252,0,0,0,0,0,326.6, 0.2, -0.1,0,0,1024,1024,1024,1024,0,0,0,0,326.4,0,0,84,4.123,4.111,0,0,0,0,3.961,90.5,0.9842848084,0.984252,38,Tripod,
109200,2022-08-15 23:34:19,0,0,0.984252,,,0.9842848084,1.64042,0,0,0,0,0,8.254,0.9842848084,0.984252,0,0,0,0,0,326.3, 0.2, -0.1,0,0,1024,1024,1024,1024,0,0,0,0,326.1,0,0,84,4.123,4.111,0,0,0,0,3.961,90.5,0.9842848084,0.984252,38,Tripod,
109300,2022-08-15 23:34:20,0,0,0.984252,,,0.9842848084,1.64042,0,0,0,0,0,8.254,0.9842848084,0.984252,0,0,0,0,0,326.1, 0.2, -0.1,0,0,1024,1024,1024,1024,0,0,0,0,325.9,0,0,84,4.123,4.111,0,0,0,0,3.961,90.5,0.9842848084,0.984252,6,P-GPS,
109400,2022-08-15 23:34:20,0,0,0.984252,,,0.9842848084,1.64042,0,0,0,0,0,8.254,0.9842848084,0.984252,0,0,0,0,0,325.9, 0.2, -0.1,0,0,1024,1024,1024,1024,0,0,0,0,325.7,0,0,84,4.123,4.111,0,0,0,0,3.961,90.5,0.9842848084,0.984252,6,P-GPS,
109500,2022-08-15 23:34:20,0,0,0.984252,,,0.9842848084,1.64042,0,0,0,0,0,8.254,0.9842848084,0.984252,0,0,0,0,0,325.7, 0.1, -0.1,0,0,1024,1024,1024,1024,0,0,0,0,325.5,0,0,84,4.123,4.111,0,0,0,0,3.961,90.5,0.9842848084,0.984252,6,P-GPS,
109600,2022-08-15 23:34:20,0,0,0.984252,,,0.9842848084,1.64042,0,0,0,0,0,8.254,0.9842848084,0.984252,0,0,0,0,0,325.5, 0.1, -0.1,0,0,1024,1024,1024,1024,0,0,0,0,325.3,0,0,84,4.123,4.111,0,0,0,0,3.961,90.5,0.9842848084,0.984252,6,P-GPS,
109700,2022-08-15 23:34:20,0,0,0.984252,,,0.9842848084,1.64042,0,0,0,0,0,8.254,0.9842848084,0.984252,0,0,0,0,0,325.3, 0.2, -0.2,0,0,1024,1024,1024,1024,0,0,0,0,325.2,0,0,84,4.123,4.111,0,0,0,0,3.961,90.5,0.9842848084,0.984252,6,P-GPS,
109800,2022-08-15 23:34:20,0,0,0.984252,,,0.9842848084,1.64042,0,0,0,0,0,8.254,0.9842848084,0.984252,0,0,0,0,0,325.2, 0.2, -0.3,0,0,1024,1024,1024,1024,0,0,0,0,325.1,0,0,84,4.123,4.111,0,0,0,0,3.961,90.5,0.9842848084,0.984252,6,P-GPS,
109900,2022-08-15 23:34:20,0,0,0.984252,,,0.9842848084,1.64042,0,0,0,0,0,8.237,0.9842848084,0.984252,0,0,0,0,0,325.1, 0.2, -0.3,0,0,1024,1024,1024,1024,0,0,0,0,325,0,0,84,4.119,4.107,0,0,0,0,4.131,90.5,0.9842848084,0.984252,6,P-GPS,
110000,2022-08-15 23:34:20,0,0,0.984252,,,0.9842848084,1.64042,0,0,0,0,0,8.237,0.9842848084,0.984252,0,0,0,0,0,325, 0.2, -0.2,0,0,1024,1024,1024,1024,0,0,0,0,324.9,0,0,84,4.119,4.107,0,0,0,0,4.131,90.5,0.9842848084,0.984252,6,P-GPS,
110100,2022-08-15 23:34:20,0,0,0.984252,,,0.9842848084,1.64042,0,0,0,0,0,8.237,0.9842848084,0.984252,0,0,0,0,0,324.9, 0.2, -0.2,0,0,1024,1024,1024,1024,0,0,0,0,324.9,0,0,84,4.119,4.107,0,0,0,0,4.131,90.5,0.9842848084,0.984252,38,Tripod,
110200,2022-08-15 23:34:20,0,0,0.984252,,,0.9842848084,1.64042,0,0,0,0,0,8.237,0.9842848084,0.984252,0,0,0,0,0,324.9, 0.2, 0,0,0,1024,1024,1024,1024,0,0,0,0,324.9,0,0,84,4.119,4.107,0,0,0,0,4.131,90.5,0.9842848084,0.984252,38,Tripod,
110300,2022-08-15 23:34:21,0,0,0.984252,,,0.9842848084,1.64042,0,0,0,0,0,8.237,0.9842848084,0.984252,0,0,0,0,0,324.9, 0.1, -0.1,0,0,1024,1024,1024,1024,0,0,0,0,324.9,0,0,84,4.119,4.107,0,0,0,0,4.131,90.5,0.9842848084,0.984252,38,Tripod,
110400,2022-08-15 23:34:21,0,0,0.984252,,,0.9842848084,1.64042,0,0,0,0,0,8.237,0.9842848084,0.984252,0,0,0,0,0,324.9, 0.1, -0.2,0,0,1024,1024,1024,1326,0,0,0,46,324.9,0,0,84,4.119,4.107,0,0,0,0,4.131,90.5,0.9842848084,0.984252,38,Tripod,
110500,2022-08-15 23:34:21,0,0,0.984252,,,0.9842848084,1.64042,0,0,0,0,0,8.237,0.9842848084,0.984252,0,0,0,0,0,324.9, 0.2, -0.3,0,0,1024,1024,1024,1684,0,0,0,100,324.9,0,0,84,4.119,4.107,0,0,0,0,4.131,90.5,0.9842848084,0.984252,38,Tripod,
110600,2022-08-15 23:34:21,0,0,0.984252,,,0.9842848084,1.64042,0,0,0,0,0,8.237,0.9842848084,0.984252,0,0,0,0,0,324.9, 0.2, -0.3,0,0,1024,1024,1024,1684,0,0,0,100,324.9,0,0,84,4.119,4.107,0,0,0,0,4.131,90.5,0.9842848084,0.984252,38,Tripod,
110700,2022-08-15 23:34:21,0,0,0.984252,,,0.9842848084,1.64042,0,0,0,0,0,8.237,0.9842848084,0.984252,0,0,0,0,0,324.9, 0.3, -0.3,0,0,1024,1024,1024,1684,0,0,0,100,325,0,0,84,4.119,4.107,0,0,0,0,4.131,90.5,0.9842848084,0.984252,38,Tripod,
110800,2022-08-15 23:34:21,0,0,0.984252,,,0.9842848084,1.64042,0,0,0,0,0,8.237,0.9842848084,0.984252,0,0,0,0,0,325, 0.3, -0.4,0,0,1024,1024,1024,1684,0,0,0,100,325.1,0,0,84,4.119,4.107,0,0,0,0,4.131,90.5,0.9842848084,0.984252,38,Tripod,
110900,2022-08-15 23:34:21,0,0,0.984252,,,0.9842848084,1.64042,0,0,0,0,0,8.23,0.9842848084,0.984252,0,0,0,0,0,325.1, 0.3, -0.3,0,0,1024,1024,1024,1684,0,0,0,100,325.2,0,0,84,4.117,4.104,0,0,0,0,4.167,90.68,0.9842848084,0.984252,38,Tripod,
111000,2022-08-15 23:34:21,0,0,0.984252,,,0.9842848084,1.64042,0,0,0,0,0,8.23,0.9842848084,0.984252,0,0,0,0,0,325.3, 0.4, -0.2,0,0,1024,1024,1024,1684,0,0,0,100,325.5,0,0,84,4.117,4.104,0,0,0,0,4.167,90.68,0.9842848084,0.984252,38,Tripod,
111100,2022-08-15 23:34:21,0,0,0.984252,,,0.9842848084,1.64042,0,0,0,0,0,8.23,0.9842848084,0.984252,0,0,0,0,0,325.6, 0.2, -0.2,0,0,1024,1024,1024,1684,0,0,0,100,325.7,0,0,84,4.117,4.104,0,0,0,0,4.167,90.68,0.9842848084,0.984252,38,Tripod,
111200,2022-08-15 23:34:21,0,0,0.984252,,,0.9842848084,1.64042,0,0,0,0,0,8.23,0.9842848084,0.984252,0,0,0,0,0,325.9, 0.1, -0.2,0,0,1024,1024,1024,1684,0,0,0,100,326,0,0,84,4.117,4.104,0,0,0,0,4.167,90.68,0.9842848084,0.984252,38,Tripod,
111300,2022-08-15 23:34:22,0,0,0.984252,,,0.9842848084,1.64042,0,0,0,0,0,8.23,0.9842848084,0.984252,0,0,0,0,0,326.1, 0.1, -0.3,0,0,1024,1024,1024,1684,0,0,0,100,326.3,0,0,84,4.117,4.104,0,0,0,0,4.167,90.68,0.9842848084,0.984252,38,Tripod,
111400,2022-08-15 23:34:22,0,0,0.984252,,,0.9842848084,1.64042,0,0,0,0,0,8.23,0.9842848084,0.984252,0,0,0,0,0,326.5, 0.2, -0.3,0,0,1024,1024,1024,1684,0,0,0,100,326.7,0,0,84,4.117,4.104,0,0,0,0,4.167,90.68,0.9842848084,0.984252,38,Tripod,
111500,2022-08-15 23:34:22,0,0,0.984252,,,0.9842848084,1.64042,0,0,0,0,0,8.23,0.9842848084,0.984252,0,0,0,0,0,326.8, 0.1, -0.4,0,0,1024,1024,1024,1684,0,0,0,100,327,0,0,84,4.117,4.104,0,0,0,0,4.167,90.68,0.9842848084,0.984252,38,Tripod,
111600,2022-08-15 23:34:22,0,0,0.984252,,,0.9842848084,1.64042,0,0,0,0,0,8.23,0.9842848084,0.984252,0,0,0,0,0,327.2, 0.3, -0.4,0,0,1024,1024,1024,1684,0,0,0,100,327.4,0,0,84,4.117,4.104,0,0,0,0,4.167,90.68,0.9842848084,0.984252,38,Tripod,
111700,2022-08-15 23:34:22,0,0,0.984252,,,0.9842848084,1.64042,0,0,0,0,0,8.23,0.9842848084,0.984252,0,0,0,0,0,327.5, 0.4, -0.3,0,0,1024,1024,1024,1684,0,0,0,100,327.8,0,0,84,4.117,4.104,0,0,0,0,4.167,90.68,0.9842848084,0.984252,38,Tripod,
111800,2022-08-15 23:34:22,0,0,0.984252,,,0.9842848084,1.64042,0,0,0,0,0,8.23,0.9842848084,0.984252,0,0,0,0,0,327.9, 0.5, -0.4,0,0,1024,1024,1024,1684,0,0,0,100,328.1,0,0,84,4.117,4.104,0,0,0,0,4.167,90.68,0.9842848084,0.984252,38,Tripod,
111900,2022-08-15 23:34:22,0,0,0.984252,,,0.9842848084,1.64042,0,0,0,0,0,8.23,0.9842848084,0.984252,0,0,0,0,0,328.3, 0.4, -0.3,0,0,1024,1024,1024,1684,0,0,0,100,328.5,0,0,84,4.117,4.104,0,0,0,0,4.167,90.68,0.9842848084,0.984252,38,Tripod,
112000,2022-08-15 23:34:22,0,0,0.984252,,,0.9842848084,1.64042,0,0,0,0,0,8.23,0.9842848084,0.984252,0,0,0,0,0,328.7, 0.3, -0.1,0,0,1024,1024,1024,1684,0,0,0,100,328.9,0,0,84,4.117,4.104,0,0,0,0,4.167,90.68,0.9842848084,0.984252,38,Tripod,
112100,2022-08-15 23:34:22,0,0,0.984252,,,0.9842848084,1.64042,0,0,0,0,0,8.218,0.9842848084,0.984252,0,0,0,0,0,329.1, 0.1, -0.1,0,0,1024,1024,1024,1684,0,0,0,100,329.3,0,0,84,4.114,4.101,0,0,0,0,4.206,90.68,0.9842848084,0.984252,38,Tripod,
112200,2022-08-15 23:34:22,0,0,0.984252,,,0.9842848084,1.64042,0,0,0,0,0,8.218,0.9842848084,0.984252,0,0,0,0,0,329.5, 0, -0.2,0,0,1024,1024,1024,1684,0,0,0,100,329.7,0,0,84,4.114,4.101,0,0,0,0,4.206,90.68,0.9842848084,0.984252,38,Tripod,
112300,2022-08-15 23:34:23,0,0,0.984252,,,0.9842848084,1.64042,0,0,0,0,0,8.218,0.9842848084,0.984252,0,0,0,0,0,329.8, 0, -0.2,0,0,1024,1024,1024,1684,0,0,0,100,330.1,0,0,84,4.114,4.101,0,0,0,0,4.206,90.68,0.9842848084,0.984252,38,Tripod,
112400,2022-08-15 23:34:23,0,0,0.984252,,,0.9842848084,1.64042,0,0,0,0,0,8.218,0.9842848084,0.984252,0,0,0,0,0,330.2, 0.4, 0.2,0,0,1024,1024,1024,1684,0,0,0,100,330.5,0,0,84,4.114,4.101,0,0,0,0,4.206,90.68,0.9842848084,0.984252,38,Tripod,
112500,2022-08-15 23:34:23,0,0,1.312336,,,1.3123688084,1.64042,0,0,0,0,0,8.218,1.3123688084,1.312336,0,0,0,0,0,330.7, 0.5, 0.1,0,0,1024,1024,1024,1684,0,0,0,100,330.9,0,0,84,4.114,4.101,0,0,0,0,4.206,90.68,1.3123688084,1.312336,38,Tripod,
112600,2022-08-15 23:34:23,0,0,1.312336,,,1.3123688084,1.64042,0,0,0,0,0,8.218,1.3123688084,1.312336,0,0,0,0,0,331, 0.5, 0,0,0,1024,1024,1024,1684,0,0,0,100,331.3,0,0,84,4.114,4.101,0,0,0,0,4.206,90.68,1.3123688084,1.312336,38,Tripod,
112700,2022-08-15 23:34:23,0,0,1.312336,,,1.3123688084,1.64042,0,0,0,0,0,8.218,1.3123688084,1.312336,0,0,0,0,0,331.4, 0.4, -0.2,0,0,1024,1024,1024,1684,0,0,0,100,331.7,0,0,84,4.114,4.101,0,0,0,0,4.206,90.68,1.3123688084,1.312336,38,Tripod,
112800,2022-08-15 23:34:23,0,0,1.312336,,,1.3123688084,1.64042,0,0,0,0,0,8.218,1.3123688084,1.312336,0,0,0,0,0,331.8, 0.4, -0.3,0,0,1024,1024,1024,1684,0,0,0,100,332.1,0,0,84,4.114,4.101,0,0,0,0,4.206,90.68,1.3123688084,1.312336,38,Tripod,
112900,2022-08-15 23:34:23,0,0,1.312336,,,1.3123688084,1.64042,0,0,0,0,0,8.218,1.3123688084,1.312336,0,0,0,0,0,332.2, 0.3, -0.3,0,0,1024,1024,1024,1684,0,0,0,100,332.5,0,0,84,4.114,4.101,0,0,0,0,4.206,90.68,1.3123688084,1.312336,38,Tripod,
113000,2022-08-15 23:34:23,0,0,1.312336,,,1.3123688084,1.64042,0,0,0,0,0,8.218,1.3123688084,1.312336,0,0,0,0,0,332.6, 0.3, -0.2,0,0,1024,1024,1024,1684,0,0,0,100,332.9,0,0,84,4.114,4.101,0,0,0,0,4.206,90.68,1.3123688084,1.312336,38,Tripod,
113100,2022-08-15 23:34:23,0,0,1.312336,,,1.3123688084,1.64042,0,0,0,0,0,8.212,1.3123688084,1.312336,0,0,0,0,0,333.1, 0.3, 0.1,0,0,1024,1024,1024,1684,0,0,0,100,333.3,0,0,84,4.113,4.101,0,0,0,0,4.231,90.68,1.3123688084,1.312336,38,Tripod,
113200,2022-08-15 23:34:23,0,0,1.312336,,,1.3123688084,1.64042,0,0,0,0,0,8.212,1.3123688084,1.312336,0,0,0,0,0,333.5, 0.4, 0.2,0,0,1024,1024,1024,1684,0,0,0,100,333.7,0,0,84,4.113,4.101,0,0,0,0,4.231,90.68,1.3123688084,1.312336,38,Tripod,
113300,2022-08-15 23:34:24,0,0,1.312336,,,1.3123688084,1.64042,0,0,0,0,0,8.212,1.3123688084,1.312336,0,0,0,0,0,333.9, 0.4, 0.1,0,0,1024,1024,1024,1684,0,0,0,100,334.1,0,0,84,4.113,4.101,0,0,0,0,4.231,90.68,1.3123688084,1.312336,38,Tripod,
113400,2022-08-15 23:34:24,0,0,1.312336,,,1.3123688084,1.64042,0,0,0,0,0,8.212,1.3123688084,1.312336,0,0,0,0,0,334.3, 0.4, 0,0,0,1024,1024,1024,1684,0,0,0,100,334.5,0,0,84,4.113,4.101,0,0,0,0,4.231,90.68,1.3123688084,1.312336,38,Tripod,
113500,2022-08-15 23:34:24,0,0,1.64042,,,1.6404528084,1.64042,0,0,0,0,0,8.212,1.6404528084,1.64042,0,0,0,0,0,334.7, 0.3, -0.1,0,0,1024,1024,1024,1684,0,0,0,100,334.9,0,0,84,4.113,4.101,0,0,0,0,4.231,90.68,1.6404528084,1.64042,38,Tripod,
113600,2022-08-15 23:34:24,0,0,1.64042,,,1.6404528084,1.64042,0,0,0,0,0,8.212,1.6404528084,1.64042,0,0,0,0,0,335, 0.2, -0.1,0,0,1024,1024,1024,1684,0,0,0,100,335.3,0,0,84,4.113,4.101,0,0,0,0,4.231,90.68,1.6404528084,1.64042,38,Tripod,
113700,2022-08-15 23:34:24,0,0,1.64042,,,1.6404528084,1.64042,0,0,0,0,0,8.212,1.6404528084,1.64042,0,0,0,0,0,335.4, 0.2, -0.1,0,0,1024,1024,1024,1684,0,0,0,100,335.7,0,0,84,4.113,4.101,0,0,0,0,4.231,90.68,1.6404528084,1.64042,38,Tripod,
113800,2022-08-15 23:34:24,0,0,1.64042,,,1.6404528084,1.64042,0,0,0,0,0,8.212,1.6404528084,1.64042,0,0,0,0,0,335.8, 0.2, 0,0,0,1024,1024,1024,1684,0,0,0,100,336.1,0,0,84,4.113,4.101,0,0,0,0,4.231,90.68,1.6404528084,1.64042,38,Tripod,
113900,2022-08-15 23:34:24,0,0,1.64042,,,1.6404528084,1.64042,0,0,0,0,0,8.212,1.6404528084,1.64042,0,0,0,0,0,336.2, 0.3, 0,0,0,1024,1024,1024,1684,0,0,0,100,336.5,0,0,84,4.113,4.101,0,0,0,0,4.231,90.68,1.6404528084,1.64042,38,Tripod,
114000,2022-08-15 23:34:24,0,0,1.64042,,,1.6404528084,1.64042,0,0,0,0,0,8.212,1.6404528084,1.64042,0,0,0,0,0,336.6, 0.3, 0,0,0,1024,1024,1024,1684,0,0,0,100,336.9,0,0,84,4.113,4.101,0,0,0,0,4.231,90.68,1.6404528084,1.64042,38,Tripod,
114100,2022-08-15 23:34:24,0,0,1.968504,,,1.9685368084,1.64042,0,0,0,0,0,8.21,1.9685368084,1.968504,0,0,0,0,0,337, 0.1, 0,0,0,1024,1024,1024,1684,0,0,0,100,337.3,0,0,84,4.111,4.098,0,0,0,0,4.184,90.68,1.9685368084,1.968504,38,Tripod,
114200,2022-08-15 23:34:24,0,0,1.968504,,,1.9685368084,1.64042,0,0,0,0,0,8.21,1.9685368084,1.968504,0,0,0,0,0,337.3, 0.2, -0.1,0,0,1024,1024,1024,1684,0,0,0,100,337.7,0,0,84,4.111,4.098,0,0,0,0,4.184,90.68,1.9685368084,1.968504,38,Tripod,
114300,2022-08-15 23:34:25,0,0,1.968504,,,1.9685368084,1.64042,0,0,0,0,0,8.21,1.9685368084,1.968504,0,0,0,0,0,337.8, 0.6, -0.4,0,0,1024,1024,1024,1684,0,0,0,100,338.1,0,0,84,4.111,4.098,0,0,0,0,4.184,90.68,1.9685368084,1.968504,38,Tripod,
114400,2022-08-15 23:34:25,0,0,1.968504,,,1.9685368084,1.64042,0,0,0,0,0,8.21,1.9685368084,1.968504,0,0,0,0,0,338.2, 0.5, -0.3,0,0,1024,1024,1024,1684,0,0,0,100,338.5,0,0,84,4.111,4.098,0,0,0,0,4.184,90.68,1.9685368084,1.968504,38,Tripod,
114500,2022-08-15 23:34:25,0,0,1.968504,,,1.9685368084,1.64042,0,0,0,0,0,8.21,1.9685368084,1.968504,0,0,0,0,0,338.6, 0.4, -0.2,0,0,1024,1024,1024,1684,0,0,0,100,338.9,0,0,84,4.111,4.098,0,0,0,0,4.184,90.68,1.9685368084,1.968504,38,Tripod,
114600,2022-08-15 23:34:25,0,0,1.968504,,,1.9685368084,1.64042,0,0,0,0,0,8.21,1.9685368084,1.968504,0,0,0,0,0,339, 0.4, 0,0,0,1024,1024,1024,1377,0,0,0,53,339.3,0,0,84,4.111,4.098,0,0,0,0,4.184,90.68,1.9685368084,1.968504,38,Tripod,
114700,2022-08-15 23:34:25,0,0,1.968504,,,1.9685368084,1.64042,0,0,0,0,0,8.21,1.9685368084,1.968504,0,0,0,0,0,339.4, 0.5, 0,0,0,1024,1024,1024,1377,0,0,0,53,339.7,0,0,84,4.111,4.098,0,0,0,0,4.184,90.68,1.9685368084,1.968504,38,Tripod,
114800,2022-08-15 23:34:25,0,0,1.968504,,,1.9685368084,1.64042,0,0,0,0,0,8.21,1.9685368084,1.968504,0,0,0,0,0,339.9, 0.4, -0.1,0,0,1024,1024,1024,1024,0,0,0,0,340.1,0,0,84,4.111,4.098,0,0,0,0,4.184,90.68,1.9685368084,1.968504,38,Tripod,
114900,2022-08-15 23:34:25,0,0,2.296588,,,2.2966208084,1.64042,0,0,0,0,0,8.21,2.2966208084,2.296588,0,0,0,0,0,340.3, 0.3, -0.1,0,0,1024,1024,1024,1024,0,0,0,0,340.5,0,0,84,4.111,4.098,0,0,0,0,4.184,90.68,2.2966208084,2.296588,38,Tripod,
115000,2022-08-15 23:34:25,0,0,2.296588,,,2.2966208084,1.64042,0,0,0,0,0,8.21,2.2966208084,2.296588,0,0,0,0,0,340.6, 0.2, -0.3,0,0,1024,1024,1024,1024,0,0,0,0,340.8,0,0,84,4.111,4.098,0,0,0,0,4.184,90.68,2.2966208084,2.296588,38,Tripod,
115100,2022-08-15 23:34:25,0,0,2.296588,,,2.2966208084,1.64042,0,0,0,0,0,8.205,2.2966208084,2.296588,0,0,0,0,0,340.9, 0.2, -0.2,0,0,1024,1024,1024,1024,0,0,0,0,341.1,0,0,84,4.107,4.095,0,0,0,0,4.195,90.68,2.2966208084,2.296588,38,Tripod,
115200,2022-08-15 23:34:25,0,0,2.296588,,,2.2966208084,1.64042,0,0,0,0,0,8.205,2.2966208084,2.296588,0,0,0,0,0,341.2, 0.2, -0.2,0,0,1024,1024,886,1024,0,0,-21,0,341.4,0,0,84,4.107,4.095,0,0,0,0,4.195,90.68,2.2966208084,2.296588,38,Tripod,
115300,2022-08-15 23:34:26,0,0,2.296588,,,2.2966208084,1.64042,0,0,0,0,0,8.205,2.2966208084,2.296588,0,0,0,0,0,341.6, 0.4, -0.3,0,0,1024,1024,364,1024,0,0,-100,0,341.7,0,0,84,4.107,4.095,0,0,0,0,4.195,90.68,2.2966208084,2.296588,38,Tripod,
115400,2022-08-15 23:34:26,0,0,2.296588,,,2.2966208084,1.64042,0,0,0,0,0,8.205,2.2966208084,2.296588,0,0,0,0,0,341.8, 0.3, 0,0,0,1024,1024,364,1024,0,0,-100,0,341.9,0,0,84,4.107,4.095,0,0,0,0,4.195,90.68,2.2966208084,2.296588,38,Tripod,
115500,2022-08-15 23:34:26,0,0,2.296588,,,2.2966208084,1.64042,0,0,0,0,0,8.205,2.2966208084,2.296588,0,0,0,0,0,342.1, 0.4, -0.1,0,0,1024,1024,364,1024,0,0,-100,0,342.2,0,0,84,4.107,4.095,0,0,0,0,4.195,90.68,2.2966208084,2.296588,38,Tripod,
115600,2022-08-15 23:34:26,0,0,2.296588,,,2.2966208084,1.64042,0,0,0,0,0,8.205,2.2966208084,2.296588,0,0,0,0,0,342.3, 0.4, -0.3,0,0,1024,1024,364,1024,0,0,-100,0,342.3,0,0,84,4.107,4.095,0,0,0,0,4.195,90.68,2.2966208084,2.296588,38,Tripod,
115700,2022-08-15 23:34:26,0,0,2.296588,,,2.2966208084,1.64042,0,0,0,0,0,8.205,2.2966208084,2.296588,0,0,0,0,0,342.4, 0.4, -0.2,0,0,1024,1024,364,1024,0,0,-100,0,342.5,0,0,84,4.107,4.095,0,0,0,0,4.195,90.68,2.2966208084,2.296588,38,Tripod,
115800,2022-08-15 23:34:26,0,0,2.296588,,,2.2966208084,1.64042,0,0,0,0,0,8.205,2.2966208084,2.296588,0,0,0,0,0,342.5, 0.5, -0.2,0,0,1024,1024,364,1024,0,0,-100,0,342.6,0,0,84,4.107,4.095,0,0,0,0,4.195,90.68,2.2966208084,2.296588,38,Tripod,
115900,2022-08-15 23:34:26,0,0,2.624672,,,2.6247048084,1.64042,0,0,0,0,0,8.205,2.6247048084,2.624672,0,0,0,0,0,342.6, 0.4, -0.2,0,0,1024,1024,364,1024,0,0,-100,0,342.7,0,0,84,4.107,4.095,0,0,0,0,4.195,90.68,2.6247048084,2.624672,38,Tripod,
116000,2022-08-15 23:34:26,0,0,2.624672,,,2.6247048084,1.64042,0,0,0,0,0,8.205,2.6247048084,2.624672,0,0,0,0,0,342.8, 0.6, 0,0,0,1024,1024,364,1024,0,0,-100,0,342.8,0,0,84,4.107,4.095,0,0,0,0,4.195,90.68,2.6247048084,2.624672,38,Tripod,
116100,2022-08-15 23:34:26,0,0,2.624672,,,2.6247048084,1.64042,0,0,0,0,0,8.205,2.6247048084,2.624672,0,0,0,0,0,342.9, 0.5, 0,0,0,1024,1024,364,1024,0,0,-100,0,342.9,0,0,84,4.107,4.095,0,0,0,0,4.195,90.68,2.6247048084,2.624672,38,Tripod,
116200,2022-08-15 23:34:26,0,0,2.624672,,,2.6247048084,1.64042,0,0,0,0,0,8.205,2.6247048084,2.624672,0,0,0,0,0,343, 0.4, 0,0,0,1024,1024,364,1024,0,0,-100,0,342.9,0,0,84,4.107,4.095,0,0,0,0,4.195,90.68,2.6247048084,2.624672,38,Tripod,
116300,2022-08-15 23:34:27,0,0,2.624672,,,2.6247048084,1.64042,0,0,0,0,0,8.205,2.6247048084,2.624672,0,0,0,0,0,342.9, 0.3, 0,0,0,1024,1024,364,1024,0,0,-100,0,342.9,0,0,84,4.107,4.095,0,0,0,0,4.195,90.68,2.6247048084,2.624672,38,Tripod,
116400,2022-08-15 23:34:27,0,0,2.624672,,,2.6247048084,1.64042,0,0,0,0,0,8.201,2.6247048084,2.624672,0,0,0,0,0,342.9, 0.3, -0.4,0,0,1024,1024,364,1024,0,0,-100,0,342.9,0,0,84,4.106,4.094,0,0,0,0,4.207,90.68,2.6247048084,2.624672,38,Tripod,
116500,2022-08-15 23:34:27,0,0,2.624672,,,2.6247048084,1.64042,0,0,0,0,0,8.201,2.6247048084,2.624672,0,0,0,0,0,342.9, 0, -1,0,0,1024,1024,364,1024,0,0,-100,0,342.9,0,0,84,4.106,4.094,0,0,0,0,4.207,90.68,2.6247048084,2.624672,33,Confirm_Landing,
116600,2022-08-15 23:34:27,0,0,2.624672,,,2.6247048084,1.64042,0,0,0,0,0,8.201,2.6247048084,2.624672,0,0,0,0,0.223694,342.9, 0.1, -0.8,0,0,1024,1024,364,1024,0,0,-100,0,342.9,0,0,84,4.106,4.094,0,0,0,0,4.207,90.68,2.6247048084,2.624672,33,Confirm_Landing,
116700,2022-08-15 23:34:27,0,0,2.296588,,,2.2966208084,1.64042,0,0,0,0,0,8.201,2.6247048084,2.624672,0,0,0,0,0.447388,343, 0, -0.5,0,0,1024,1024,364,1024,0,0,-100,0,342.9,0,0,84,4.106,4.094,0,0,0,0,4.207,90.68,2.2966208084,2.296588,33,Confirm_Landing,
116800,2022-08-15 23:34:27,0,0,2.296588,,,2.2966208084,1.312336,0,0,0,0,0,8.201,2.6247048084,2.624672,0,0,0,0,0.447388,342.9, 0, 0.1,0,0,1024,1024,364,1024,0,0,-100,0,342.9,0,0,84,4.106,4.094,0,0,0,0,4.207,90.68,2.2966208084,2.296588,33,Confirm_Landing,
116900,2022-08-15 23:34:27,0,0,2.296588,,,2.2966208084,1.312336,0,0,0,0,0,8.201,2.6247048084,2.624672,0,0,0,0,0.671082,342.9, 0.1, 0.2,0,0,1024,1024,364,1024,0,0,-100,0,342.9,0,0,84,4.106,4.094,0,0,0,0,4.207,90.68,2.2966208084,2.296588,33,Confirm_Landing,
117000,2022-08-15 23:34:27,0,0,1.968504,,,1.9685368084,1.312336,0,0,0,0,0,8.201,2.6247048084,2.624672,0,0,0,0,0.671082,342.9, 0.2, 0.1,0,0,1024,1024,364,1024,0,0,-100,0,342.9,0,0,84,4.106,4.094,0,0,0,0,4.207,90.68,1.9685368084,1.968504,33,Confirm_Landing,
117100,2022-08-15 23:34:27,0,0,1.968504,,,1.9685368084,0.984252,0,0,0,0,0,8.201,2.6247048084,2.624672,0,0,0,0,0.671082,342.8, 0.3, -0.1,0,0,1024,1024,364,1024,0,0,-100,0,342.9,0,0,84,4.106,4.094,0,0,0,0,4.207,90.68,1.9685368084,1.968504,33,Confirm_Landing,
117200,2022-08-15 23:34:27,0,0,1.968504,,,1.9685368084,0.984252,0,0,0,0,0,8.201,2.6247048084,2.624672,0,0,0,0,0.671082,342.9, 0.2, -0.1,0,0,1024,1024,364,1024,0,0,-100,0,342.9,0,0,84,4.106,4.094,0,0,0,0,4.207,90.68,1.9685368084,1.968504,33,Confirm_Landing,
117300,2022-08-15 23:34:28,0,0,1.64042,,,1.6404528084,0.984252,0,0,0,0,0,8.201,2.6247048084,2.624672,0,0,0,0,0.671082,342.8, 0.1, -0.1,0,0,1024,1024,364,1024,0,0,-100,0,342.9,0,0,84,4.106,4.094,0,0,0,0,4.207,90.68,1.6404528084,1.64042,33,Confirm_Landing,
117400,2022-08-15 23:34:28,0,0,1.64042,,,1.6404528084,0.656168,0,0,0,0,0,8.234,2.6247048084,2.624672,0,0,0,0,0.671082,342.8, 0.3, -0.4,0,0,1024,1024,364,1024,0,0,-100,0,342.9,0,0,84,4.107,4.095,0,0,0,0,4.037,90.86,1.6404528084,1.64042,33,Confirm_Landing,
117500,2022-08-15 23:34:28,0,0,1.312336,,,1.3123688084,0.656168,0,0,0,0,0,8.234,2.6247048084,2.624672,0,0,0,0,0.447388,342.8, 0.2, -0.6,0,0,1024,1024,364,1024,0,0,-100,0,342.9,0,0,84,4.107,4.095,0,0,0,0,4.037,90.86,1.3123688084,1.312336,33,Confirm_Landing,
117600,2022-08-15 23:34:28,0,0,1.312336,,,1.3123688084,0.656168,0,0,0,0,0,8.234,2.6247048084,2.624672,0,0,0,0,0.447388,342.8, 0.3, -0.6,0,0,1024,1024,364,1024,0,0,-100,0,342.9,0,0,84,4.107,4.095,0,0,0,0,4.037,90.86,1.3123688084,1.312336,33,Confirm_Landing,
117700,2022-08-15 23:34:28,0,0,1.312336,,,1.3123688084,0.656168,0,0,0,0,0,8.234,2.6247048084,2.624672,0,0,0,0,0.447388,342.9, 0.2, -0.2,0,0,1024,1024,983,1024,0,0,-6,0,342.9,0,0,84,4.107,4.095,0,0,0,0,4.037,90.86,1.3123688084,1.312336,33,Confirm_Landing,
117800,2022-08-15 23:34:28,0,0,0.984252,,,0.9842848084,0.328084,0,0,0,0,0,8.234,2.6247048084,2.624672,0,0,0,0,0.447388,342.8, 0, -0.1,0,0,1024,1024,1024,1024,0,0,0,0,342.9,0,0,84,4.107,4.095,0,0,0,0,4.037,90.86,0.9842848084,0.984252,33,Confirm_Landing,
117900,2022-08-15 23:34:28,0,0,0.984252,,,0.9842848084,0.328084,0,0,0,0,0,8.234,2.6247048084,2.624672,0,0,0,0,0.447388,342.8, -0.3, -0.5,0,0,1024,1024,1024,1024,0,0,0,0,342.9,0,0,84,4.107,4.095,0,0,0,0,4.037,90.86,0.9842848084,0.984252,33,Confirm_Landing,
118000,2022-08-15 23:34:28,0,0,0.656168,,,0.6562008084,0.328084,0,0,0,0,0,8.234,2.6247048084,2.624672,0,0,0,0,0.447388,342.8, 0.4, -1,0,0,1024,1024,1024,1024,0,0,0,0,342.9,0,0,84,4.107,4.095,0,0,0,0,4.037,90.86,0.6562008084,0.656168,33,Confirm_Landing,
118100,2022-08-15 23:34:28,0,0,0.328084,,,0.3281168084,0.328084,0,0,0,0,0,8.234,2.6247048084,2.624672,0,0,0,0,0.223694,342.9, 0.3, 0,0,0,1024,1024,1024,1024,0,0,0,0,342.9,0,0,84,4.107,4.095,0,0,0,0,4.037,90.86,0.3281168084,0.328084,33,Confirm_Landing,
118200,2022-08-15 23:34:28,0,0,0,,,3.28084E-5,0.328084,0,0,0,0,0,8.234,2.6247048084,2.624672,0,0,0,0,0.223694,343, 0, 0.3,0,0,1024,1024,1024,1024,0,0,0,0,342.9,0,0,84,4.107,4.095,0,0,0,0,4.037,90.86,3.28084E-5,0,33,Confirm_Landing,
118300,2022-08-15 23:34:29,0,0,0,,,3.28084E-5,0.328084,0,0,0,0,0,8.234,2.6247048084,2.624672,0,0,0,0,0.223694,343.1, 0.6, -0.5,0,0,1024,1024,1024,1024,0,0,0,0,342.9,0,0,84,4.107,4.095,0,0,0,0,4.037,90.86,3.28084E-5,0,33,Confirm_Landing,
118400,2022-08-15 23:34:29,0,0,-0.656168,,,-0.6561351916,0.328084,0,0,0,0,0,8.197,2.6247048084,2.624672,0,0,0,0,0,343.2, 2.5, -0.4,0,0,1024,1024,1024,1024,0,0,0,0,342.9,0,0,84,4.107,4.096,0,0,0,0,4.094,90.86,-0.6561351916,-0.656168,33,Confirm_Landing,
118500,2022-08-15 23:34:29,0,0,-0.984252,,,-0.9842191916,0.328084,0,0,0,0,0,8.197,2.6247048084,2.624672,0,0,0,0,0,343.2, 2.9, -0.4,0,0,1024,1024,1024,1024,0,0,0,0,342.9,0,0,84,4.107,4.096,0,0,0,0,4.094,90.86,-0.9842191916,-0.984252,33,Confirm_Landing,
118600,2022-08-15 23:34:29,0,0,-1.312336,,,-1.3123031916,0.328084,0,0,0,0,0,8.197,2.6247048084,2.624672,0,0,0,0,0,343.2, 2.9, -0.4,0,0,1024,1024,1024,1024,0,0,0,0,342.9,0,0,84,4.107,4.096,0,0,0,0,4.094,90.86,-1.3123031916,-1.312336,33,Confirm_Landing,
118700,2022-08-15 23:34:29,0,0,-1.312336,,,-1.3123031916,0.328084,0,0,0,0,0,8.197,2.6247048084,2.624672,0,0,0,0,0,343.2, 2.9, -0.4,0,0,1024,1024,1024,1024,0,0,0,0,342.9,0,0,84,4.107,4.096,0,0,0,0,4.094,90.86,-1.3123031916,-1.312336,33,Confirm_Landing,
118800,2022-08-15 23:34:29,0,0,-1.64042,,,-1.6403871916,0.328084,0,0,0,0,0,8.197,2.6247048084,2.624672,0,0,0,0,0,343.2, 2.9, -0.4,0,0,1024,1024,1024,1024,0,0,0,0,342.9,0,0,84,4.107,4.096,0,0,0,0,4.094,90.86,-1.6403871916,-1.64042,33,Confirm_Landing,
118900,2022-08-15 23:34:29,0,0,-1.64042,,,-1.6403871916,0.328084,0,0,0,0,0,8.197,2.6247048084,2.624672,0,0,0,0,0,343.2, 2.9, -0.4,0,0,1024,1024,1024,1024,0,0,0,0,342.9,0,0,84,4.107,4.096,0,0,0,0,4.094,90.86,-1.6403871916,-1.64042,33,Confirm_Landing,
119000,2022-08-15 23:34:29,0,0,-1.64042,,,-1.6403871916,0.328084,0,0,0,0,0,8.197,2.6247048084,2.624672,0,0,0,0,0,343.2, 2.9, -0.4,0,0,1024,1024,1024,1024,0,0,0,0,342.9,0,0,84,4.107,4.096,0,0,0,0,4.094,90.86,-1.6403871916,-1.64042,33,Confirm_Landing,
119100,2022-08-15 23:34:29,0,0,-1.64042,,,-1.6403871916,0.328084,0,0,0,0,0,8.197,2.6247048084,2.624672,0,0,0,0,0,343.2, 2.9, -0.4,0,0,1024,1024,1024,1024,0,0,0,0,342.9,0,0,84,4.107,4.096,0,0,0,0,4.094,90.86,-1.6403871916,-1.64042,33,Confirm_Landing,
