time(millisecond),datetime(utc),latitude,longitude,height_above_takeoff(feet),height_above_ground_at_drone_location(feet),ground_elevation_at_drone_location(feet),altitude_above_seaLevel(feet),height_sonar(feet),speed(mph),distance(feet),mileage(feet),satellites,gpslevel,voltage(v),max_altitude(feet),max_ascent(feet),max_speed(mph),max_distance(feet), xSpeed(mph), ySpeed(mph), zSpeed(mph), compass_heading(degrees), pitch(degrees), roll(degrees),isPhoto,isVideo,rc_elevator,rc_aileron,rc_throttle,rc_rudder,rc_elevator(percent),rc_aileron(percent),rc_throttle(percent),rc_rudder(percent),gimbal_heading(degrees),gimbal_pitch(degrees),gimbal_roll(degrees),battery_percent,voltageCell1,voltageCell2,voltageCell3,voltageCell4,voltageCell5,voltageCell6,current(A),battery_temperature(f),altitude(feet),ascent(feet),flycStateRaw,flycState,message
0,2022-09-03 18:39:08,-34.8657382950676,-55.2576039445988,0,0,444.41204538916,444.41204538916,0.328084,0,0,0,13,4,0,444.41204538916,0,0,0,0.223694,0,0,25, -2.2, 4.8,0,0,364,364,364,1684,-100,-100,-100,100,38.1,0,0,84,4.158,4.155,0,0,0,0,0,73.22,444.41204538916,0,41,Motors_Started,"En vuelo"
100,2022-09-03 18:39:08,-34.8657381273233,-55.2576037557377,0,0,444.41204538916,444.41204538916,0.328084,0.223694,0.083318900304,0.083318900304,13,4,0,444.41204538916,0,0.223694,0.083318900304,0.223694,0,0,23.9, -3.6, 3.5,0,0,364,364,364,1684,-100,-100,-100,100,36.8,0,0,84,4.158,4.155,0,0,0,0,0,73.22,444.41204538916,0,41,Motors_Started,
200,2022-09-03 18:39:08,-34.8657379047219,-55.2576036286233,0,0,444.41204538916,444.41204538916,0.328084,0.223694,0.170967525156,0.173007223384,13,4,0,444.41204538916,0,0.223694,0.170967525156,0.223694,0,0,22.6, -3.4, 1.9,0,0,364,364,364,1684,-100,-100,-100,100,35.5,0,0,84,4.158,4.155,0,0,0,0,0,73.22,444.41204538916,0,41,Motors_Started,
300,2022-09-03 18:39:08,-34.8657377795084,-55.2576034642897,0,-0.06561679999994,444.47766218916,444.41204538916,0.328084,0.223694,0.236761490516,0.240142396136,13,4,0,444.41204538916,0,0.223694,0.236761490516,0.223694,0,0,21.3, -3.7, 1.9,0,0,463,467,364,1636,-85,-84,-100,93,34,0,0,84,4.158,4.155,0,0,0,0,0,73.22,444.41204538916,0,41,Motors_Started,"Setting new Return-To-Home altitude to 60m (197 ft). Data Recorder File Index is 50. Setting new Maximum Flight Altitude to 120m (394 ft)"
400,2022-09-03 18:39:08,-34.8657376614893,-55.2576033293027,0,-0.06561679999994,444.47766218916,444.41204538916,0.328084,0,0.295571203684,0.299193251044,13,4,0,444.41204538916,0,0.223694,0.295571203684,0,0,0,19.7, -3.6, 1.5,0,0,1024,1024,1024,1024,0,0,0,0,32.4,0,0,84,4.158,4.155,0,0,0,0,0,73.22,444.41204538916,0,41,Motors_Started,
500,2022-09-03 18:39:08,-34.8657375292292,-55.2576032130228,0,-0.06561679999994,444.47766218916,444.41204538916,0.328084,0,0.35501313472,0.3586942372,13,4,0,444.41204538916,0,0.223694,0.35501313472,0,0,0,17.1, -2.2, 0.7,0,0,1024,1024,1024,1024,0,0,0,0,30.4,0,0,84,4.158,4.155,0,0,0,0,0,73.22,444.41204538916,0,41,Motors_Started,
600,2022-09-03 18:39:09,-34.8657374265944,-55.2576032689988,0,-0.13123359999997,444.54327898916,444.41204538916,0.328084,0.223694,0.37590552384,0.39971786056,13,4,0,444.41204538916,0,0.223694,0.37590552384,0.223694,0,0,15.3, -2.5, 0.2,0,0,1024,1024,1024,1024,0,0,0,0,27.9,0,0,84,4.158,4.155,0,0,0,0,0,73.22,444.41204538916,0,41,Motors_Started,
700,2022-09-03 18:39:09,-34.8657373790622,-55.2576032605148,0,-0.13123359999997,444.54327898916,444.41204538916,0.328084,0,0.39195539312,0.41724410784,13,4,0,444.41204538916,0,0.223694,0.39195539312,0,0,0,13.3, -1.8, 0.4,0,0,1024,1024,1024,1024,0,0,0,0,25.5,0,0,84,4.158,4.155,0,0,0,0,0,73.22,444.41204538916,0,41,Motors_Started,
800,2022-09-03 18:39:09,-34.8657373857384,-55.2576032436733,0,-0.13123359999997,444.54327898916,444.41204538916,0.328084,0,0.392552506,0.42284450172,13,4,0,444.41204538916,0,0.223694,0.392552506,0,0,0,11, -0.2, 1.6,0,0,1024,1024,1024,1024,0,0,0,0,23.7,0,0,84,4.158,4.155,0,0,0,0,0,73.22,444.41204538916,0,41,Motors_Started,
900,2022-09-03 18:39:09,-34.8657374487409,-55.2576032270021,0,-0.13123359999997,444.54327898916,444.41204538916,0.328084,0,0.37615486768,0.44636484368,13,4,0,444.41204538916,0,0.223694,0.392552506,0,0,0,8.6, 1.2, 3,0,0,1024,1024,1024,1024,0,0,0,0,21.2,0,0,84,4.158,4.155,0,0,0,0,0,73.22,444.41204538916,0,41,Motors_Started,
1000,2022-09-03 18:39:09,-34.8657376965713,-55.2576030983744,0,-0.06561679999994,444.47766218916,444.41204538916,0.328084,0,0.33444554876,0.54464240588,14,4,0,444.41204538916,0,0.223694,0.392552506,0,0,0,4.6, 3.1, 3.8,0,0,1024,1024,1024,1024,0,0,0,0,17.5,0,0,84,4.158,4.155,0,0,0,0,0,73.22,444.41204538916,0,41,Motors_Started,
1100,2022-09-03 18:39:09,-34.8657376942528,-55.2576029587888,0,-0.06561679999994,444.47766218916,444.41204538916,0.328084,0.223694,0.36761484116,0.58643702664,14,4,0,444.41204538916,0,0.223694,0.392552506,0.223694,0,0,2.6, 1.8, 4,0,0,1024,1024,1024,1024,0,0,0,0,14.8,0,0,84,4.158,4.155,0,0,0,0,0,73.22,444.41204538916,0,10,Assisted_Takeoff,
1200,2022-09-03 18:39:09,-34.865737675759,-55.2576028092339,-0.328084,-0.39370079999994,444.47766218916,444.08396138916,0.328084,0,0.40813321516,0.63171589948,14,4,0,444.41204538916,0,0.223694,0.40813321516,0,0,0,0.9, 1.9, 4.8,0,0,1024,1024,1024,1024,0,0,0,0,13,0,0,84,4.158,4.155,0,0,0,0,0,73.22,444.08396138916,-0.328084,10,Assisted_Takeoff,
1300,2022-09-03 18:39:09,-34.8657376582956,-55.257602605072,-0.328084,-0.39370079999994,444.47766218916,444.08396138916,0.328084,0,0.4634350542,0.69316275184,14,4,0,444.41204538916,0,0.223694,0.4634350542,0,0,0,359.4, 1.7, 6,0,0,1024,1024,1024,1024,0,0,0,0,11.3,0,0,84,4.158,4.155,0,0,0,0,0,73.22,444.08396138916,-0.328084,10,Assisted_Takeoff,
1400,2022-09-03 18:39:09,-34.865737649583,-55.2576023975514,-0.328084,-0.45931759999997,444.54327898916,444.08396138916,0.328084,0,0.51956038408,0.75536747824,14,4,8.354,444.41204538916,0,0.223694,0.51956038408,0,0,0,358, 0.4, 6.2,0,0,1024,1024,1684,1024,0,0,100,0,9.7,0,0,84,4.158,4.155,0,0,0,0,0.564,73.22,444.08396138916,-0.328084,10,Assisted_Takeoff,
1500,2022-09-03 18:39:10,-34.8657376254262,-55.2576019550279,-0.328084,-0.45931759999997,444.54327898916,444.08396138916,0.328084,0,0.64375658228,0.88813323052,14,4,8.354,444.41204538916,0,0.223694,0.64375658228,0,0,0,357.8, -0.2, 6,0,0,1024,1024,1684,1024,0,0,100,0,9.4,0,0,84,4.158,4.155,0,0,0,0,0.564,73.22,444.08396138916,-0.328084,10,Assisted_Takeoff,
1600,2022-09-03 18:39:10,-34.8657375933903,-55.257601808574,-0.328084,-0.45931759999997,444.54327898916,444.08396138916,0.328084,0,0.68877626876,0.93350396688,14,4,8.354,444.41204538916,0,0.223694,0.68877626876,0,0,0,357.3, -0.1, 5.6,0,0,1024,1024,1532,1024,0,0,77,0,8.8,0,0,84,4.158,4.155,0,0,0,0,0.564,73.22,444.08396138916,-0.328084,10,Assisted_Takeoff,
1700,2022-09-03 18:39:10,-34.8657375393438,-55.2576017313014,-0.328084,-0.45931759999997,444.54327898916,444.08396138916,0.328084,0,0.71764766076,0.96390094948,13,4,8.354,444.41204538916,0,0.223694,0.71764766076,0,0,0,356.6, 0, 4.3,0,0,1024,1024,1024,1024,0,0,0,0,8.4,0,0,84,4.158,4.155,0,0,0,0,0.564,73.22,444.08396138916,-0.328084,10,Assisted_Takeoff,
1800,2022-09-03 18:39:10,-34.8657374804915,-55.2576017439104,-0.328084,-0.52493440000001,444.60889578916,444.08396138916,0.328084,0,0.72272640108,0.98570213128,13,4,8.354,444.41204538916,0,0.223694,0.72272640108,0,0,0,356.7, -0.4, 2.7,0,0,1024,1024,1024,1024,0,0,0,0,8,0,0,84,4.158,4.155,0,0,0,0,0.564,73.22,444.08396138916,-0.328084,10,Assisted_Takeoff,
1900,2022-09-03 18:39:10,-34.8657372700281,-55.2576022447904,-0.328084,-0.52493440000001,444.60889578916,444.08396138916,0.328084,0.223694,0.63149936404,1.15416342276,14,4,8.354,444.41204538916,0,0.223694,0.72272640108,0.223694,0,0,355.8, -0.8, 2.2,0,0,1024,1024,1315,1024,0,0,44,0,7.7,0,0,84,4.158,4.155,0,0,0,0,0.564,73.22,444.08396138916,-0.328084,10,Assisted_Takeoff,
2000,2022-09-03 18:39:10,-34.8657372011278,-55.2576024409896,-0.328084,-0.52493440000001,444.60889578916,444.08396138916,0.328084,0.223694,0.60158466492,1.21805122008,14,4,8.354,444.41204538916,0,0.223694,0.72272640108,0.223694,0,0,355.1, -1.5, 1.8,0,0,1024,1024,1024,1024,0,0,0,0,7.1,0,0,84,4.158,4.155,0,0,0,0,0.564,73.22,444.08396138916,-0.328084,10,Assisted_Takeoff,
2100,2022-09-03 18:39:10,-34.8657371240939,-55.2576027135125,-0.328084,-0.45931759999997,444.54327898916,444.08396138916,0.328084,0.223694,0.56421917816,1.30433731208,15,4,8.354,444.41204538916,0,0.223694,0.72272640108,0.223694,0,0,355.6, -1.8, 0.6,0,0,1024,1024,1588,1024,0,0,85,0,6.8,0,0,84,4.158,4.155,0,0,0,0,0.564,73.22,444.08396138916,-0.328084,10,Assisted_Takeoff,
2200,2022-09-03 18:39:10,-34.8657370528665,-55.2576031495899,-0.328084,-0.45931759999997,444.54327898916,444.08396138916,0.328084,0.223694,0.51190290352,1.43744099088,15,4,8.354,444.41204538916,0,0.223694,0.72272640108,0.223694,0,0,356.5, -1.8, 0.4,0,0,1024,1024,1024,1024,0,0,0,0,7,0,0,84,4.158,4.155,0,0,0,0,0.564,73.22,444.08396138916,-0.328084,10,Assisted_Takeoff,
2300,2022-09-03 18:39:10,-34.8657369880606,-55.2576047748711,-0.328084,-0.328084,444.41204538916,444.08396138916,0.328084,0.223694,0.5377460802,1.92455386736,16,4,8.354,444.41204538916,0,0.223694,0.72272640108,0.223694,0,0,357.5, -2.1, 0.6,0,0,1024,1024,1471,1020,0,0,68,-1,8,0,0,84,4.158,4.155,0,0,0,0,0.564,73.22,444.08396138916,-0.328084,10,Assisted_Takeoff,
2400,2022-09-03 18:39:10,-34.8657368884332,-55.2576051845133,-0.328084,-0.328084,444.41204538916,444.08396138916,0.328084,0.223694,0.63336944284,2.05245741476,16,4,8.302,444.41204538916,0,0.223694,0.72272640108,0.223694,0,0,358.5, -1.4, -0.1,0,0,1024,1024,1471,1020,0,0,68,-1,8.8,0,0,84,4.134,4.134,0,0,0,0,1.476,73.22,444.08396138916,-0.328084,10,Assisted_Takeoff,
2500,2022-09-03 18:39:11,-34.8657367608849,-55.2576054993837,-0.328084,-0.328084,444.41204538916,444.08396138916,0.328084,0.447388,0.72797246424,2.1575788092,16,4,8.302,444.41204538916,0,0.447388,0.72797246424,0.447388,0,0,359, -1.3, 0.7,0,0,1024,1024,1024,1024,0,0,0,0,9.9,0,0,84,4.134,4.134,0,0,0,0,1.476,73.22,444.08396138916,-0.328084,10,Assisted_Takeoff,
2600,2022-09-03 18:39:11,-34.8657366761785,-55.2576056984725,0,0.065616800000034,444.34642858916,444.41204538916,0.328084,0.223694,0.790272335,2.22471135728,16,4,8.302,444.41204538916,0,0.447388,0.790272335,0.223694,0,0,359.4, -0.5, 1.6,0,0,1024,1024,1024,1024,0,0,0,0,10.2,0,0,84,4.134,4.134,0,0,0,0,1.476,73.22,444.41204538916,0,10,Assisted_Takeoff,
2700,2022-09-03 18:39:11,-34.8657367114946,-55.2576057845035,0,0.065616800000034,444.34642858916,444.41204538916,0.328084,0.223694,0.79823493368,2.2535105708,16,4,8.302,444.41204538916,0,0.447388,0.79823493368,0.223694,0,0,358.6, -0.8, 1.6,0,0,1024,1024,1684,902,0,0,100,-18,10.2,0,0,84,4.134,4.134,0,0,0,0,1.476,73.22,444.41204538916,0,10,Assisted_Takeoff,
2800,2022-09-03 18:39:11,-34.8657367116135,-55.257605925419,0,0.065616800000034,444.34642858916,444.41204538916,0.328084,0,0.82787732308,2.29569561152,16,4,8.302,444.41204538916,0,0.447388,0.82787732308,0,0,0,358.2, -0.5, 1.4,0,0,1024,1024,1684,988,0,0,100,-5,10,0,0,84,4.134,4.134,0,0,0,0,1.476,73.22,444.41204538916,0,10,Assisted_Takeoff,
2900,2022-09-03 18:39:11,-34.8657367119143,-55.2576060273783,0,0.065616800000034,444.34642858916,444.41204538916,0.328084,0,0.84993112956,2.32621726604,16,4,8.302,444.41204538916,0,0.447388,0.84993112956,0,0,0,358, 0.2, 1.2,0,0,1024,1024,1684,936,0,0,100,-13,9.5,0,0,84,4.134,4.134,0,0,0,0,1.476,73.22,444.41204538916,0,10,Assisted_Takeoff,
3000,2022-09-03 18:39:11,-34.8657367530411,-55.2576060438158,0,0.065616800000034,444.34642858916,444.41204538916,0.328084,0,0.84346459392,2.34200794896,16,4,8.302,444.41204538916,0,0.447388,0.84993112956,0,0,0,357.4, 1, 1.2,0,0,1024,1024,1684,975,0,0,100,-7,9.3,0,0,84,4.134,4.134,0,0,0,0,1.476,73.22,444.41204538916,0,10,Assisted_Takeoff,
3100,2022-09-03 18:39:11,-34.8657368242562,-55.2576059267212,0,0.065616800000034,444.34642858916,444.41204538916,0.328084,0,0.80002627232,2.38563984012,16,4,8.302,444.41204538916,0,0.447388,0.84993112956,0,0,0,357.4, 1.2, 1.6,0,0,1024,1024,1684,1024,0,0,100,0,9,0,0,84,4.134,4.134,0,0,0,0,1.476,73.22,444.41204538916,0,10,Assisted_Takeoff,
3200,2022-09-03 18:39:11,-34.8657367597218,-55.2576049383244,0,0,444.41204538916,444.41204538916,0.328084,0,0.63425855048,2.68246071576,16,4,8.302,444.41204538916,0,0.447388,0.84993112956,0,0,0,358.1, 0.9, 2.2,0,0,1024,1024,1684,1024,0,0,100,0,8.9,0,0,84,4.134,4.134,0,0,0,0,1.476,73.22,444.41204538916,0,10,Assisted_Takeoff,
3300,2022-09-03 18:39:11,-34.8657368838389,-55.25760457259,0,0,444.41204538916,444.41204538916,0.328084,0,0.54813321964,2.80093840984,16,4,8.302,444.41204538916,0,0.447388,0.84993112956,-0.223694,0,-0.447388,359.1, 0.9, 2.3,0,0,1024,1024,1024,1024,0,0,0,0,9.3,0,0,84,4.134,4.134,0,0,0,0,1.476,73.22,444.41204538916,0,10,Assisted_Takeoff,
3400,2022-09-03 18:39:11,-34.865737037812,-55.257604205786,0,-0.06561679999994,444.47766218916,444.41204538916,0.656168,0.3131716,0.46532481804,2.92428158964,16,4,8.289,444.41204538916,0,0.447388,0.84993112956,-0.223694,0.223694,-0.894776,359.1, -0.1, 0.8,0,0,1024,1024,1024,1024,0,0,0,0,9.5,0,0,84,4.091,4.082,0,0,0,0,1.534,73.22,444.41204538916,0,6,P-GPS,
3500,2022-09-03 18:39:11,-34.8657372253236,-55.2576038536556,0.328084,0.26246720000006,444.47766218916,444.74012938916,0.656168,0.3131716,0.39124345084,3.04994760416,16,4,8.289,444.74012938916,0.328084,0.447388,0.84993112956,-0.223694,0.223694,-1.565858,358.6, -1.2, -0.7,0,0,1024,1024,1024,1024,0,0,0,0,9.5,0,0,84,4.091,4.082,0,0,0,0,1.534,73.22,444.74012938916,0.328084,6,P-GPS,
3600,2022-09-03 18:39:12,-34.8657373611623,-55.2576027678689,0.656168,0.52493440000003,444.54327898916,445.06821338916,0.984252,0.223694,0.4900918792,3.3787402656,16,4,8.289,445.06821338916,0.656168,0.447388,0.84993112956,0,0.223694,-2.013246,358.4, -1.3, -1.3,0,0,1024,1024,1024,1024,0,0,0,0,9.5,0,0,84,4.091,4.082,0,0,0,0,1.534,73.22,445.06821338916,0.656168,6,P-GPS,
3700,2022-09-03 18:39:12,-34.8657374478464,-55.257602413938,0.656168,0.45931759999999,444.60889578916,445.06821338916,1.312336,0.223694,0.55272639564,3.4893045736,15,4,8.289,445.06821338916,0.656168,0.447388,0.84993112956,0,0.223694,-2.013246,358.3, -1.2, -1.4,0,0,1024,1024,1024,1024,0,0,0,0,9.5,0,0,84,4.091,4.082,0,0,0,0,1.534,73.22,445.06821338916,0.656168,6,P-GPS,
3800,2022-09-03 18:39:12,-34.865737505425,-55.2576021635587,0.984252,0.85301840000003,444.54327898916,445.39629738916,1.64042,0,0.60602692228,3.5671589068,15,4,8.289,445.39629738916,0.984252,0.447388,0.84993112956,0,0,-1.789552,358.3, -0.9, -1.3,0,0,1024,1024,1024,1024,0,0,0,0,9.5,0,0,84,4.091,4.082,0,0,0,0,1.534,73.22,445.39629738916,0.984252,6,P-GPS,
3900,2022-09-03 18:39:12,-34.8657375469951,-55.2576020030276,1.312336,1.1811024,444.54327898916,445.72438138916,1.64042,0,0.64211616228,3.6175526092,15,4,8.289,445.72438138916,1.312336,0.447388,0.84993112956,0,0,-1.342164,358.3, -1.1, -1.4,0,0,1024,1024,1024,1024,0,0,0,0,9.5,0,0,84,4.091,4.082,0,0,0,0,1.534,73.22,445.72438138916,1.312336,6,P-GPS,
4000,2022-09-03 18:39:12,-34.8657373837228,-55.2576018497367,1.64042,1.4435696,444.60889578916,446.05246538916,6.233596,0,0.70980645316,3.692749462,15,4,8.289,446.05246538916,1.64042,0.447388,0.84993112956,0,0,-0.894776,358.3, -0.7, -1.9,0,0,1024,1024,1024,1024,0,0,0,0,9.5,0,0,84,4.091,4.082,0,0,0,0,1.534,73.22,446.05246538916,1.64042,6,P-GPS,
4100,2022-09-03 18:39:12,-34.865737385981,-55.2576017218777,1.64042,1.4435696,444.60889578916,446.05246538916,6.233596,0,0.7434711524,3.7310368648,16,4,8.289,446.05246538916,1.64042,0.447388,0.84993112956,0,0,-0.447388,358.3, 0.1, -0.9,0,0,1024,1024,1024,1024,0,0,0,0,9.5,0,0,84,4.091,4.082,0,0,0,0,1.534,73.22,446.05246538916,1.64042,6,P-GPS,
4200,2022-09-03 18:39:12,-34.8657374014818,-55.2576016949501,1.64042,1.4435696,444.60889578916,446.05246538916,6.233596,0,0.7482119662,3.7408793848,16,4,8.289,446.05246538916,1.64042,0.447388,0.84993112956,0,0,0,358.4, 0.4, -0.1,0,0,1024,1024,1024,1024,0,0,0,0,9.5,0,0,84,4.091,4.082,0,0,0,0,1.534,73.22,446.05246538916,1.64042,6,P-GPS,
4300,2022-09-03 18:39:12,-34.8657374391693,-55.2576017386011,1.64042,1.4435696,444.60889578916,446.05246538916,6.233596,0,0.73049214936,3.75984264,16,4,8.289,446.05246538916,1.64042,0.447388,0.84993112956,0,0,0,358.4, 0.5, -0.1,0,0,1024,1024,1024,1024,0,0,0,0,9.5,0,0,84,4.091,4.082,0,0,0,0,1.534,73.22,446.05246538916,1.64042,6,P-GPS,"Punto de origen actualizado. Altitud de RPO establecida en 60m (Code: 3000001)"
4400,2022-09-03 18:39:12,-34.8657371813206,-55.2576016485519,1.64042,1.4435696,444.60889578916,446.05246538916,6.233596,0,0.79846787332,3.8577100972,16,4,8.289,446.05246538916,1.64042,0.447388,0.84993112956,0,0,0,358.3, 0.6, -0.1,0,0,1024,1024,1024,1024,0,0,0,0,9.5,0,0,84,4.091,4.082,0,0,0,0,1.534,73.22,446.05246538916,1.64042,6,P-GPS,
4500,2022-09-03 18:39:12,-34.8657370877437,-55.257601446721,1.64042,1.3779528000001,444.67451258916,446.05246538916,6.233596,0,0.86785435848,3.9270998632,16,4,8.289,446.05246538916,1.64042,0.447388,0.86785435848,0,0,0,358.1, 1, 0.5,0,0,1024,1024,1024,1024,0,0,0,0,9.5,0,0,84,4.091,4.082,0,0,0,0,1.534,73.22,446.05246538916,1.64042,6,P-GPS,
4600,2022-09-03 18:39:13,-34.865736987673,-55.2576013542031,1.64042,1.3779528000001,444.67451258916,446.05246538916,6.233596,0,0.9104166958,3.972933198,16,4,8.182,446.05246538916,1.64042,0.447388,0.9104166958,0,0,0,357.7, 0.4, 0.6,0,0,1024,1024,1024,1024,0,0,0,0,9.5,0,0,84,4.091,4.085,0,0,0,0,4.343,73.22,446.05246538916,1.64042,6,P-GPS,
4700,2022-09-03 18:39:13,-34.8657368786975,-55.2576013936033,1.968504,1.7060368000001,444.67451258916,446.38054938916,6.233596,0,0.92207023948,4.0144030156,16,4,8.182,446.38054938916,1.968504,0.447388,0.92207023948,0,0,0,357.4, 0.1, 0.3,0,0,1024,1024,1024,1024,0,0,0,0,9.5,0,0,84,4.091,4.085,0,0,0,0,4.343,73.22,446.38054938916,1.968504,6,P-GPS,
4800,2022-09-03 18:39:13,-34.8657367983359,-55.2576013898719,1.968504,1.7060368000001,444.67451258916,446.38054938916,6.233596,0,0.93972772036,4.0437337252,16,4,8.182,446.38054938916,1.968504,0.447388,0.93972772036,0,0,0,357.2, 0, 0,0,0,1024,1024,1024,1024,0,0,0,0,9.5,0,0,84,4.091,4.085,0,0,0,0,4.343,73.22,446.38054938916,1.968504,6,P-GPS,
4900,2022-09-03 18:39:13,-34.8657365194693,-55.2576015440614,1.968504,1.7716536,444.60889578916,446.38054938916,6.233596,0,0.96751643516,4.1554791356,16,4,8.182,446.38054938916,1.968504,0.447388,0.96751643516,0,0,0,356.9, 0, -0.8,0,0,1024,1024,1024,1024,0,0,0,0,9.5,0,0,84,4.091,4.085,0,0,0,0,4.343,73.22,446.38054938916,1.968504,6,P-GPS,
5000,2022-09-03 18:39:13,-34.8657365006986,-55.2576015010558,1.968504,1.7716536,444.60889578916,446.38054938916,6.233596,0,0.98166997892,4.1700460652,16,4,8.182,446.38054938916,1.968504,0.447388,0.98166997892,0,0,0,356.7, 0, -0.5,0,0,1024,1024,1083,1024,0,0,9,0,9.5,0,0,84,4.091,4.085,0,0,0,0,4.343,73.22,446.38054938916,1.968504,6,P-GPS,
5100,2022-09-03 18:39:13,-34.8657365215154,-55.2576014720752,1.968504,1.7060368000001,444.67451258916,446.38054938916,6.233596,0,0.9831365144,4.181594622,16,4,8.182,446.38054938916,1.968504,0.447388,0.9831365144,0,0,0,356.5, 0.2, -0.2,0,0,1024,1024,1107,1024,0,0,13,0,9.5,0,0,84,4.091,4.085,0,0,0,0,4.343,73.22,446.38054938916,1.968504,6,P-GPS,
5200,2022-09-03 18:39:13,-34.8657365467958,-55.2576015043715,1.968504,1.7716536,444.60889578916,446.38054938916,6.233596,0,0.96978677644,4.1949476408,16,4,8.182,446.38054938916,1.968504,0.447388,0.9831365144,0,0,0,356.3, 0.3, 0,0,0,1024,1024,1024,1024,0,0,0,0,9.5,0,0,84,4.091,4.085,0,0,0,0,4.343,73.22,446.38054938916,1.968504,6,P-GPS,
5300,2022-09-03 18:39:13,-34.8657366907226,-55.2576017673611,1.968504,1.7716536,444.60889578916,446.38054938916,6.56168,0,0.8760334926,4.2895670664,15,4,8.182,446.38054938916,1.968504,0.447388,0.9831365144,0,0,-0.223694,356, 0.1, 0,0,0,1024,1024,1024,1024,0,0,0,0,9.5,0,0,84,4.091,4.085,0,0,0,0,4.343,73.22,446.38054938916,1.968504,6,P-GPS,
5400,2022-09-03 18:39:13,-34.8657367199812,-55.2576018774885,1.968504,1.7716536,444.60889578916,446.38054938916,6.56168,0,0.844488216,4.3242127368,15,4,8.182,446.38054938916,1.968504,0.447388,0.9831365144,0,0,0,355.9, 0, -0.3,0,0,1024,1024,1024,1024,0,0,0,0,9.5,0,0,84,4.091,4.085,0,0,0,0,4.343,73.22,446.38054938916,1.968504,6,P-GPS,
5500,2022-09-03 18:39:14,-34.8657367478777,-55.2576020055706,2.296588,2.0997376,444.60889578916,446.70863338916,6.56168,0,0.80968178444,4.3639109008,15,4,8.182,446.70863338916,2.296588,0.447388,0.9831365144,0,0,0,355.7, 0.2, -0.5,0,0,1024,1024,1024,1024,0,0,0,0,9.5,0,0,84,4.091,4.085,0,0,0,0,4.343,73.22,446.70863338916,2.296588,6,P-GPS,
5600,2022-09-03 18:39:14,-34.8657367553453,-55.2576021541298,2.296588,2.0997376,444.60889578916,446.70863338916,6.56168,0,0.7764435944,4.408464708,15,4,8.13,446.70863338916,2.296588,0.447388,0.9831365144,0,0,0,355.5, 0.2, -0.6,0,0,1024,1024,1024,1024,0,0,0,0,9.5,0,0,84,4.069,4.063,0,0,0,0,4.204,73.22,446.70863338916,2.296588,6,P-GPS,
5700,2022-09-03 18:39:14,-34.865736676376,-55.2576026239887,2.296588,2.1653544,444.54327898916,446.70863338916,6.56168,0,0.71068243744,4.5520342664,15,4,8.13,446.70863338916,2.296588,0.447388,0.9831365144,0,0,0,355.4, 0.5, -1,0,0,1024,1024,1024,1024,0,0,0,0,9.5,0,0,84,4.069,4.063,0,0,0,0,4.204,73.22,446.70863338916,2.296588,6,P-GPS,
5800,2022-09-03 18:39:14,-34.8657366399961,-55.2576027695414,2.296588,2.1653544,444.54327898916,446.70863338916,6.56168,0,0.6988353242,4.5975723256,15,4,8.13,446.70863338916,2.296588,0.447388,0.9831365144,0,0,0,355.3, 0.8, -1,0,0,1024,1024,1024,1024,0,0,0,0,9.5,0,0,84,4.069,4.063,0,0,0,0,4.204,73.22,446.70863338916,2.296588,6,P-GPS,
5900,2022-09-03 18:39:14,-34.8657365774305,-55.2576029007174,2.296588,2.1653544,444.54327898916,446.70863338916,6.56168,0,0.70026905128,4.6430119596,16,4,8.13,446.70863338916,2.296588,0.447388,0.9831365144,0,0,0,355.2, 0.7, -0.9,0,0,1024,1024,1024,1024,0,0,0,0,9.5,0,0,84,4.069,4.063,0,0,0,0,4.204,73.22,446.70863338916,2.296588,6,P-GPS,
6000,2022-09-03 18:39:14,-34.8657365468284,-55.2576029832529,2.296588,2.1653544,444.54327898916,446.70863338916,6.56168,0,0.69976052108,4.670111698,16,4,8.13,446.70863338916,2.296588,0.447388,0.9831365144,0,0,0,355, 0.6, -0.7,0,0,1024,1024,1024,1024,0,0,0,0,9.5,0,0,84,4.069,4.063,0,0,0,0,4.204,73.22,446.70863338916,2.296588,6,P-GPS,
6100,2022-09-03 18:39:14,-34.8657362986922,-55.2576028776393,2.296588,2.0669292,444.64170418916,446.70863338916,6.56168,0,0.79533139028,4.7660106512,16,4,8.13,446.70863338916,2.296588,0.447388,0.9831365144,0,0,0,354.9, 0.4, -0.4,0,0,1024,1024,1024,1024,0,0,0,0,9.5,0,0,84,4.069,4.063,0,0,0,0,4.204,73.22,446.70863338916,2.296588,6,P-GPS,
6200,2022-09-03 18:39:14,-34.8657363325345,-55.257602960892,2.296588,2.0669292,444.64170418916,446.70863338916,6.56168,0,0.77421918488,4.7938321744,16,4,8.13,446.70863338916,2.296588,0.447388,0.9831365144,0,0,0,354.8, 0.4, -0.6,0,0,1024,1024,1024,1024,0,0,0,0,9.5,0,0,84,4.069,4.063,0,0,0,0,4.204,73.22,446.70863338916,2.296588,6,P-GPS,
6300,2022-09-03 18:39:14,-34.8657364175141,-55.2576030959658,2.296588,2.0669292,444.64170418916,446.70863338916,6.56168,0,0.73061354044,4.8447836196,15,4,8.13,446.70863338916,2.296588,0.447388,0.9831365144,0,0,0,354.8, 0.1, -0.4,0,0,1024,1024,1024,1024,0,0,0,0,9.5,0,0,84,4.069,4.063,0,0,0,0,4.204,73.22,446.70863338916,2.296588,6,P-GPS,
6400,2022-09-03 18:39:14,-34.8657364757586,-55.2576031749044,2.296588,2.0669292,444.64170418916,446.70863338916,6.56168,0,0.70262797524,4.8765421508,15,4,8.13,446.70863338916,2.296588,0.447388,0.9831365144,0,0,0,354.7, 0, -0.2,0,0,1024,1024,1024,1024,0,0,0,0,9.5,0,0,84,4.069,4.063,0,0,0,0,4.204,73.22,446.70863338916,2.296588,6,P-GPS,
6500,2022-09-03 18:39:15,-34.8657365132161,-55.2576032113888,2.296588,2.1653544,444.54327898916,446.70863338916,6.56168,0,0.68616143928,4.8940618364,15,4,8.13,446.70863338916,2.296588,0.447388,0.9831365144,0,0,0,354.6, -0.1, -0.2,0,0,1024,1024,1024,1024,0,0,0,0,9.5,0,0,84,4.069,4.063,0,0,0,0,4.204,73.22,446.70863338916,2.296588,6,P-GPS,
6600,2022-09-03 18:39:15,-34.8657364798875,-55.257603114534,2.296588,2.0669292,444.64170418916,446.70863338916,6.56168,0,0.707349104,4.9254922836,15,4,8.132,446.70863338916,2.296588,0.447388,0.9831365144,0,0,0,354.5, -0.1, -0.4,0,0,1024,1024,1024,1024,0,0,0,0,9.5,0,0,84,4.069,4.064,0,0,0,0,4.141,73.22,446.70863338916,2.296588,6,P-GPS,
6700,2022-09-03 18:39:15,-34.8657364672158,-55.2576032013986,2.296588,2.0669292,444.64170418916,446.70863338916,6.56168,0,0.70302167604,4.9519030456,15,4,8.132,446.70863338916,2.296588,0.447388,0.9831365144,0,0,0,354.4, -0.1, -0.5,0,0,1024,1024,1024,1024,0,0,0,0,9.5,0,0,84,4.069,4.064,0,0,0,0,4.141,73.22,446.70863338916,2.296588,6,P-GPS,
6800,2022-09-03 18:39:15,-34.8657364391455,-55.2576032924358,2.296588,2.0669292,444.64170418916,446.70863338916,6.56168,0,0.70471458948,4.9810040964,15,4,8.132,446.70863338916,2.296588,0.447388,0.9831365144,0,0,0,354.3, -0.1, -0.5,0,0,1024,1024,1024,1038,0,0,0,2,9.5,0,0,84,4.069,4.064,0,0,0,0,4.141,73.22,446.70863338916,2.296588,6,P-GPS,
6900,2022-09-03 18:39:15,-34.8657363959294,-55.2576034104906,2.296588,2.0669292,444.64170418916,446.70863338916,6.56168,0,0.71110894664,5.0197180084,16,4,8.132,446.70863338916,2.296588,0.447388,0.9831365144,0,0,0,354.3, -0.1, -0.4,0,0,1024,1024,1024,1603,0,0,0,88,9.5,0,0,84,4.069,4.064,0,0,0,0,4.141,73.22,446.70863338916,2.296588,6,P-GPS,
7000,2022-09-03 18:39:15,-34.8657360899074,-55.2576035490289,2.296588,2.1325460000001,444.57608738916,446.70863338916,6.56168,0,0.81321852996,5.1388125004,16,4,8.132,446.70863338916,2.296588,0.447388,0.9831365144,0,0,0,354.6, -0.2, -0.2,0,0,1024,1024,1024,1024,0,0,0,0,10.8,0,0,84,4.069,4.064,0,0,0,0,4.141,73.22,446.70863338916,2.296588,6,P-GPS,
7100,2022-09-03 18:39:15,-34.8657360809057,-55.2576037312521,2.296588,2.1325460000001,444.57608738916,446.70863338916,6.56168,0,0.81035763748,5.1934712948,16,5,8.132,446.70863338916,2.296588,0.447388,0.9831365144,0,0,0,356.4, -0.4, 0,0,0,1024,1024,1024,1024,0,0,0,0,12.8,0,0,84,4.069,4.064,0,0,0,0,4.141,73.22,446.70863338916,2.296588,6,P-GPS,
7200,2022-09-03 18:39:15,-34.865736125405,-55.2576038685361,2.296588,2.1325460000001,444.57608738916,446.70863338916,6.56168,0,0.7919291592,5.2376642096,16,5,8.132,446.70863338916,2.296588,0.447388,0.9831365144,0,0,0,357.8, -0.4, 0,0,0,1024,1024,1024,1024,0,0,0,0,13.7,0,0,84,4.069,4.064,0,0,0,0,4.141,73.22,446.70863338916,2.296588,6,P-GPS,
7300,2022-09-03 18:39:15,-34.865736243008,-55.2576039674322,2.296588,2.1325460000001,444.57608738916,446.70863338916,6.56168,0,0.74872377724,5.2897967572,16,5,8.132,446.70863338916,2.296588,0.447388,0.9831365144,0,0,0,358.3, -0.1, 0,0,0,1024,1024,1024,1024,0,0,0,0,13.7,0,0,84,4.069,4.064,0,0,0,0,4.141,73.22,446.70863338916,2.296588,6,P-GPS,
7400,2022-09-03 18:39:15,-34.8657366155434,-55.2576039254655,2.296588,2.2309712000001,444.47766218916,446.70863338916,6.56168,0,0.61279857604,5.4262797012,16,5,8.132,446.70863338916,2.296588,0.447388,0.9831365144,0,0,0,358.3, 0, 0.1,0,0,1024,1024,1024,1024,0,0,0,0,13.7,0,0,84,4.069,4.064,0,0,0,0,4.141,73.22,446.70863338916,2.296588,6,P-GPS,
7500,2022-09-03 18:39:16,-34.865736767623,-55.2576039622377,2.296588,2.2309712000001,444.47766218916,446.70863338916,6.56168,0,0.55731300996,5.4828413828,16,5,8.132,446.70863338916,2.296588,0.447388,0.9831365144,0,0,0,358.2, -0.1, 0,0,0,1024,1024,1024,1024,0,0,0,0,13.7,0,0,84,4.069,4.064,0,0,0,0,4.141,73.22,446.70863338916,2.296588,6,P-GPS,
7600,2022-09-03 18:39:16,-34.8657369412367,-55.2576040167441,2.296588,2.2309712000001,444.47766218916,446.70863338916,6.56168,0,0.49441602632,5.5482613324,16,5,8.132,446.70863338916,2.296588,0.447388,0.9831365144,0,0,0,358.2, -0.2, 0.2,0,0,1024,1024,1024,1024,0,0,0,0,13.7,0,0,84,4.069,4.064,0,0,0,0,4.141,73.22,446.70863338916,2.296588,6,P-GPS,
7700,2022-09-03 18:39:16,-34.8657371036402,-55.2576040927872,2.296588,2.2309712000001,444.47766218916,446.70863338916,6.56168,0,0.43694883288,5.6117455864,16,5,8.121,446.70863338916,2.296588,0.447388,0.9831365144,0,0,0,358.1, -0.5, 0.2,0,0,1024,1024,1024,1024,0,0,0,0,13.7,0,0,84,4.061,4.057,0,0,0,0,4.174,73.22,446.70863338916,2.296588,6,P-GPS,
7800,2022-09-03 18:39:16,-34.8657373807301,-55.2576041827803,2.296588,2.2309712000001,444.47766218916,446.70863338916,6.56168,0,0.34112861984,5.716371574,16,5,8.121,446.70863338916,2.296588,0.447388,0.9831365144,0,0,0,358, -0.7, 0.3,0,0,1024,1024,1024,1124,0,0,0,15,13.7,0,0,84,4.061,4.057,0,0,0,0,4.174,73.22,446.70863338916,2.296588,6,P-GPS,
7900,2022-09-03 18:39:16,-34.8657375350655,-55.2576042817677,2.296588,2.296588,444.41204538916,446.70863338916,6.56168,0,0.29508531128,5.7799870616,15,5,8.121,446.70863338916,2.296588,0.447388,0.9831365144,0,0,0,358, -0.7, 0.2,0,0,1024,1024,1024,1454,0,0,0,65,13.8,0,0,84,4.061,4.057,0,0,0,0,4.174,73.22,446.70863338916,2.296588,6,P-GPS,
8000,2022-09-03 18:39:16,-34.8657376881169,-55.257604377506,2.296588,2.296588,444.41204538916,446.70863338916,6.56168,0,0.256578748368,5.8427495308,15,5,8.121,446.70863338916,2.296588,0.447388,0.9831365144,0,0,0,358.2, -0.7, 0.4,0,0,1024,1024,1024,1024,0,0,0,0,14.6,0,0,84,4.061,4.057,0,0,0,0,4.174,73.22,446.70863338916,2.296588,6,P-GPS,
8100,2022-09-03 18:39:16,-34.8657378552013,-55.2576044786038,2.296588,2.296588,444.41204538916,446.70863338916,6.56168,0,0.226517067616,5.9108269608,14,5,8.121,446.70863338916,2.296588,0.447388,0.9831365144,0,0,0,359.3, -0.8, 0.7,0,0,1024,1024,1024,1024,0,0,0,0,15.7,0,0,84,4.061,4.057,0,0,0,0,4.174,73.22,446.70863338916,2.296588,6,P-GPS,
8200,2022-09-03 18:39:16,-34.8657380112331,-55.2576045500862,2.296588,2.3622048,444.34642858916,446.70863338916,6.56168,0,0.208753615604,5.971620926,14,5,8.121,446.70863338916,2.296588,0.447388,0.9831365144,0,0,0,0, -0.8, 0.7,0,0,1024,1024,1024,1024,0,0,0,0,16.3,0,0,84,4.061,4.057,0,0,0,0,4.174,73.22,446.70863338916,2.296588,6,P-GPS,
8300,2022-09-03 18:39:16,-34.8657382127457,-55.2576045486127,2.296588,2.3622048,444.34642858916,446.70863338916,6.56168,0,0.183293312952,6.0451445504,14,5,8.121,446.70863338916,2.296588,0.447388,0.9831365144,0,0,0,0.3, -0.4, 1,0,0,1024,1024,1024,1024,0,0,0,0,16.3,0,0,84,4.061,4.057,0,0,0,0,4.174,73.22,446.70863338916,2.296588,6,P-GPS,
8400,2022-09-03 18:39:16,-34.8657382836983,-55.2576045645738,2.296588,2.3622048,444.34642858916,446.70863338916,6.56168,0,0.185640097804,6.0714896956,14,5,8.121,446.70863338916,2.296588,0.447388,0.9831365144,0,0,0,0.3, -0.2, 0.8,0,0,1024,1024,1024,1024,0,0,0,0,16.3,0,0,84,4.061,4.057,0,0,0,0,4.174,73.22,446.70863338916,2.296588,6,P-GPS,
8500,2022-09-03 18:39:16,-34.8657383111929,-55.2576045695464,2.296588,2.3622048,444.34642858916,446.70863338916,6.56168,0,0.187174874756,6.0816274912,15,5,8.121,446.70863338916,2.296588,0.447388,0.9831365144,0,0,0,0.3, -0.1, 0.5,0,0,1024,1024,1024,1024,0,0,0,0,16.3,0,0,84,4.061,4.057,0,0,0,0,4.174,73.22,446.70863338916,2.296588,6,P-GPS,
8600,2022-09-03 18:39:17,-34.8657383238064,-55.2576045968231,2.296588,2.3622048,444.34642858916,446.70863338916,6.56168,0,0.195529205732,6.0910106936,15,5,8.121,446.70863338916,2.296588,0.447388,0.9831365144,0,0,0,0.3, -0.2, 0.4,0,0,1024,1024,1024,1024,0,0,0,0,16.3,0,0,84,4.061,4.057,0,0,0,0,4.174,73.22,446.70863338916,2.296588,6,P-GPS,
8700,2022-09-03 18:39:17,-34.8657380506671,-55.2576046431359,2.296588,2.3622048,444.34642858916,446.70863338916,6.56168,0,0.227330059768,6.191601248,15,5,8.11,446.70863338916,2.296588,0.447388,0.9831365144,0,0,0,0.4, -0.1, 0.9,0,0,1024,1024,1024,1024,0,0,0,0,16.3,0,0,84,4.058,4.052,0,0,0,0,4.24,73.22,446.70863338916,2.296588,6,P-GPS,
8800,2022-09-03 18:39:17,-34.8657380393909,-55.2576047366992,2.296588,2.3622048,444.34642858916,446.70863338916,6.56168,0,0.25480971944,6.2199148972,15,5,8.11,446.70863338916,2.296588,0.447388,0.9831365144,0,0,0,0.4, -0.4, 1.3,0,0,1024,1024,1024,1024,0,0,0,0,16.3,0,0,84,4.058,4.052,0,0,0,0,4.24,73.22,446.70863338916,2.296588,6,P-GPS,
8900,2022-09-03 18:39:17,-34.8657380126035,-55.2576048662261,2.296588,2.3622048,444.34642858916,446.70863338916,6.56168,0,0.294514773204,6.2599083368,15,5,8.11,446.70863338916,2.296588,0.447388,0.9831365144,0,0,0,0.3, -0.6, 1.2,0,0,1024,1024,1024,1024,0,0,0,0,16.3,0,0,84,4.058,4.052,0,0,0,0,4.24,73.22,446.70863338916,2.296588,6,P-GPS,
9000,2022-09-03 18:39:17,-34.8657379609138,-55.2576049894473,2.296588,2.3622048,444.34642858916,446.70863338916,6.56168,0,0.33570211048,6.301345346,15,5,8.11,446.70863338916,2.296588,0.447388,0.9831365144,0,0,0,0.3, -0.6, 1.4,0,0,1024,1024,1024,1024,0,0,0,0,16.3,0,0,84,4.058,4.052,0,0,0,0,4.24,73.22,446.70863338916,2.296588,6,P-GPS,
9100,2022-09-03 18:39:17,-34.865737580162,-55.2576054411593,2.296588,2.3622048,444.34642858916,446.70863338916,6.56168,0,0.5184055284,6.4952101816,16,5,8.11,446.70863338916,2.296588,0.447388,0.9831365144,0,0,0,0.3, -0.5, 1.5,0,0,1024,1024,1024,1024,0,0,0,0,16.3,0,0,84,4.058,4.052,0,0,0,0,4.24,73.22,446.70863338916,2.296588,6,P-GPS,
9200,2022-09-03 18:39:17,-34.8657375205174,-55.25760555314,2.296588,2.4278216,444.28081178916,446.70863338916,6.56168,0,0.55832678952,6.5351708128,16,5,8.11,446.70863338916,2.296588,0.447388,0.9831365144,0,0,0,0.3, -0.3, 1.7,0,0,1024,1024,1024,1024,0,0,0,0,16.3,0,0,84,4.058,4.052,0,0,0,0,4.24,73.22,446.70863338916,2.296588,6,P-GPS,
9300,2022-09-03 18:39:17,-34.8657374741218,-55.2576056618079,2.296588,2.3622048,444.34642858916,446.70863338916,6.56168,0,0.59495408728,6.571850604,16,5,8.11,446.70863338916,2.296588,0.447388,0.9831365144,0,0,0,0.3, -0.1, 1.6,0,0,1024,1024,1024,1024,0,0,0,0,16.3,0,0,84,4.058,4.052,0,0,0,0,4.24,73.22,446.70863338916,2.296588,6,P-GPS,
9400,2022-09-03 18:39:17,-34.8657374417679,-55.2576056706421,1.968504,2.0341208,444.34642858916,446.38054938916,6.56168,0,0.60324476996,6.5839240952,16,5,8.11,446.70863338916,2.296588,0.447388,0.9831365144,0,0,0,0.2, 0, 1.5,0,0,1024,1024,1024,1024,0,0,0,0,16.3,0,0,84,4.058,4.052,0,0,0,0,4.24,73.22,446.38054938916,1.968504,6,P-GPS,
9500,2022-09-03 18:39:17,-34.8657373840823,-55.2576055624042,1.968504,2.0341208,444.34642858916,446.38054938916,6.56168,0,0.58738190856,6.6225723904,15,5,8.11,446.70863338916,2.296588,0.447388,0.9831365144,0,0,0,0.1, 0, 1.4,0,0,1024,1024,1024,1024,0,0,0,0,16.3,0,0,84,4.058,4.052,0,0,0,0,4.24,73.22,446.38054938916,1.968504,6,P-GPS,
9600,2022-09-03 18:39:18,-34.8657373494168,-55.2576054298013,1.968504,1.968504,444.41204538916,446.38054938916,6.233596,0,0.56277232772,6.6642390584,15,5,8.11,446.70863338916,2.296588,0.447388,0.9831365144,0,0,0,0.1, 0, 1.4,0,0,1024,1024,1024,1024,0,0,0,0,16.3,0,0,84,4.058,4.052,0,0,0,0,4.24,73.22,446.38054938916,1.968504,6,P-GPS,
9700,2022-09-03 18:39:18,-34.8657373066225,-55.2576052560198,1.968504,1.968504,444.41204538916,446.38054938916,6.233596,0,0.53308400656,6.7185369604,15,5,8.107,446.70863338916,2.296588,0.447388,0.9831365144,0,0,0,0.1, 0, 1.4,0,0,1024,1448,1024,1024,0,64,0,0,16.3,0,0,84,4.055,4.049,0,0,0,0,4.232,73.22,446.38054938916,1.968504,6,P-GPS,
9800,2022-09-03 18:39:18,-34.865737267101,-55.2576050922868,1.968504,1.968504,444.41204538916,446.38054938916,6.233596,0,0.5086286252,6.7696524476,15,5,8.107,446.70863338916,2.296588,0.447388,0.9831365144,0,0,0,0, -0.2, 1.3,0,0,1024,1684,1024,1024,0,100,0,0,16.3,0,0,84,4.055,4.049,0,0,0,0,4.232,73.22,446.38054938916,1.968504,6,P-GPS,
9900,2022-09-03 18:39:18,-34.8657372335839,-55.257604956013,1.968504,1.968504,444.41204538916,446.38054938916,6.233596,0,0.49158794224,6.8122377508,15,5,8.107,446.70863338916,2.296588,0.447388,0.9831365144,0,0,0,0, -0.4, 6.4,0,0,1024,1684,1024,1024,0,100,0,0,16.3,0,0,84,4.055,4.049,0,0,0,0,4.232,73.22,446.38054938916,1.968504,6,P-GPS,
10000,2022-09-03 18:39:18,-34.8657371425702,-55.2576045073632,1.968504,1.968504,444.41204538916,446.38054938916,6.233596,0.447388,0.45297901712,6.9505907736,15,5,8.107,446.70863338916,2.296588,0.447388,0.9831365144,0,0.447388,0,0.4, -0.6, 17.6,0,0,1024,1051,1024,1024,0,4,0,0,16.3,0,0,84,4.055,4.049,0,0,0,0,4.232,73.22,446.38054938916,1.968504,6,P-GPS,
10100,2022-09-03 18:39:18,-34.8657371666305,-55.2576040053398,1.968504,1.9028872000001,444.47766218916,446.38054938916,6.233596,0.894776,0.41210959324,7.1011157128,15,5,8.107,446.70863338916,2.296588,0.894776,0.9831365144,0,0.894776,0,0.1, -0.3, 9.6,0,0,1024,1024,1024,1024,0,0,0,0,16.4,0,0,84,4.055,4.049,0,0,0,0,4.232,73.22,446.38054938916,1.968504,6,P-GPS,
10200,2022-09-03 18:39:18,-34.8657371720695,-55.2576034217324,1.968504,1.8372704,444.54327898916,446.38054938916,6.233596,1.11847,0.43860565708,7.2758204428,15,5,8.107,446.70863338916,2.296588,1.11847,0.9831365144,0,1.11847,0,359.8, -0.4, -2.9,0,0,1024,1024,1024,1024,0,0,0,0,16.3,0,0,84,4.055,4.049,0,0,0,0,4.232,73.22,446.38054938916,1.968504,6,P-GPS,
10300,2022-09-03 18:39:18,-34.8657371535142,-55.2576028899572,1.968504,1.8372704,444.54327898916,446.38054938916,6.233596,0.894776,0.52263125032,7.4351708416,16,5,8.107,446.70863338916,2.296588,1.11847,0.9831365144,0,0.894776,0,0, -0.4, -4.8,0,0,1024,1024,1024,1024,0,0,0,0,16.3,0,0,84,4.055,4.049,0,0,0,0,4.232,73.22,446.38054938916,1.968504,6,P-GPS,
10400,2022-09-03 18:39:18,-34.8657372003523,-55.2576025995989,1.968504,1.8372704,444.54327898916,446.38054938916,6.233596,0.894776,0.56713256408,7.5237535216,16,5,8.107,446.70863338916,2.296588,1.11847,0.9831365144,0,0.894776,0,0.2, -0.2, -4.4,0,0,1024,1200,1024,1024,0,27,0,0,16.3,0,0,84,4.055,4.049,0,0,0,0,4.232,73.22,446.38054938916,1.968504,6,P-GPS,
10500,2022-09-03 18:39:19,-34.8657372998881,-55.2576024541304,1.968504,1.7716536,444.60889578916,446.38054938916,6.233596,0.671082,0.57524936224,7.5804464368,15,5,8.107,446.70863338916,2.296588,1.11847,0.9831365144,0,0.671082,0,0.3, -0.3, -3.7,0,0,1065,1684,1024,1024,6,100,0,0,16.3,0,0,84,4.055,4.049,0,0,0,0,4.232,73.22,446.38054938916,1.968504,6,P-GPS,
10600,2022-09-03 18:39:19,-34.8657373787544,-55.257602300675,1.968504,1.7716536,444.60889578916,446.38054938916,6.233596,0.447388,0.59493768308,7.634678722,15,5,8.107,446.70863338916,2.296588,1.11847,0.9831365144,0,0.447388,0,0.3, -0.3, 2.6,0,0,1024,1202,1024,1024,0,27,0,0,16.3,0,0,84,4.055,4.049,0,0,0,0,4.232,73.22,446.38054938916,1.968504,6,P-GPS,
10700,2022-09-03 18:39:19,-34.8657374454119,-55.2576020247529,1.968504,1.7716536,444.60889578916,446.38054938916,6.233596,0.447388,0.65299214688,7.7207679636,16,5,8.097,446.70863338916,2.296588,1.11847,0.9831365144,0,0.447388,0,0.6, -0.7, 16,0,0,1024,1024,1024,1024,0,0,0,0,16.3,0,0,84,4.05,4.046,0,0,0,0,4.3,73.22,446.38054938916,1.968504,6,P-GPS,
10800,2022-09-03 18:39:19,-34.8657376505609,-55.2576020953464,1.968504,1.8372704,444.54327898916,446.38054938916,6.233596,1.11847,0.60145671216,7.79855668,16,5,8.097,446.70863338916,2.296588,1.11847,0.9831365144,0,1.11847,0,0.4, -0.5, 14.3,0,0,1024,1024,1024,1024,0,0,0,0,16.3,0,0,84,4.05,4.046,0,0,0,0,4.3,73.22,446.38054938916,1.968504,6,P-GPS,
10900,2022-09-03 18:39:19,-34.8657377127507,-55.2576015692772,1.968504,1.8372704,444.54327898916,446.38054938916,6.233596,1.342164,0.74212928884,7.9576446116,16,5,8.097,446.70863338916,2.296588,1.342164,0.9831365144,0,1.342164,0,359.6, -0.3, -4.1,0,0,1024,1403,1024,1024,0,57,0,0,16.3,0,0,84,4.05,4.046,0,0,0,0,4.3,73.22,446.38054938916,1.968504,6,P-GPS,
11000,2022-09-03 18:39:19,-34.8657377669555,-55.2576010164847,1.968504,1.7716536,444.60889578916,446.38054938916,6.233596,1.11847,0.89747706284,8.1243112836,16,5,8.097,446.70863338916,2.296588,1.342164,0.9831365144,0,1.11847,0,359.9, -0.3, -2.2,0,0,1024,1684,1024,1024,0,100,0,0,16.3,0,0,84,4.05,4.046,0,0,0,0,4.3,73.22,446.38054938916,1.968504,6,P-GPS,
11100,2022-09-03 18:39:19,-34.8657378187571,-55.2576004345335,1.968504,1.7060368000001,444.67451258916,446.38054938916,6.233596,1.11847,1.06503612332,8.299540948,16,5,8.097,446.70863338916,2.296588,1.342164,1.06503612332,0,1.11847,0,0.4, -0.3, 12.4,0,0,1024,1172,1024,1024,0,22,0,0,16.3,0,0,84,4.05,4.046,0,0,0,0,4.3,73.22,446.38054938916,1.968504,6,P-GPS,
11200,2022-09-03 18:39:19,-34.8657376109376,-55.2575990634342,1.968504,1.64042,444.74012938916,446.38054938916,6.233596,1.789552,1.48237537552,8.7169294128,16,5,8.097,446.70863338916,2.296588,1.789552,1.48237537552,0,1.789552,0,0.4, -0.2, 15.6,0,0,1024,1024,1024,1024,0,0,0,0,16.3,0,0,84,4.05,4.046,0,0,0,0,4.3,73.22,446.38054938916,1.968504,6,P-GPS,
11300,2022-09-03 18:39:19,-34.8657375032791,-55.2575977163128,1.968504,1.5748032,444.80574618916,446.38054938916,6.233596,2.23694,1.88672578216,9.1221131528,16,5,8.097,446.70863338916,2.296588,2.23694,1.88672578216,0,2.23694,0,359.9, -0.2, 1.5,0,0,1024,1024,1024,1024,0,0,0,0,16.3,0,0,84,4.05,4.046,0,0,0,0,4.3,73.22,446.38054938916,1.968504,6,P-GPS,
11400,2022-09-03 18:39:19,-34.8657374821085,-55.2575963843089,1.968504,1.3451444,445.03540498916,446.38054938916,6.233596,2.013246,2.28257553236,9.5209320632,16,5,8.097,446.70863338916,2.296588,2.23694,2.28257553236,0,2.013246,0,359.6, -0.3, -8.2,0,0,1141,1024,1024,1024,18,0,0,0,16.3,0,0,84,4.05,4.046,0,0,0,0,4.3,73.22,446.38054938916,1.968504,6,P-GPS,
11500,2022-09-03 18:39:20,-34.8657375536013,-55.2575951292153,1.968504,1.3779528,445.00259658916,446.38054938916,6.233596,1.565858,2.6527723946,9.8975724952,16,5,8.097,446.70863338916,2.296588,2.23694,2.6527723946,0,1.565858,0,359.9, -0.2, -9.1,0,0,1379,1024,1024,1024,54,0,0,0,16.3,0,0,84,4.05,4.046,0,0,0,0,4.3,73.22,446.38054938916,1.968504,6,P-GPS,
11600,2022-09-03 18:39:20,-34.865737584455,-55.2575943228354,1.968504,1.312336,445.06821338916,446.38054938916,6.233596,1.342164,2.89198500068,10.1392063612,16,5,8.097,446.70863338916,2.296588,2.23694,2.89198500068,0,1.342164,0,0.1, -1.1, -5.9,0,0,1470,1024,1024,1024,68,0,0,0,16.3,0,0,84,4.05,4.046,0,0,0,0,4.3,73.22,446.38054938916,1.968504,6,P-GPS,
11700,2022-09-03 18:39:20,-34.8657375953949,-55.2575938299154,1.968504,1.312336,445.06821338916,446.38054938916,6.233596,0.894776,3.03863854868,10.2868441612,16,5,8.102,446.70863338916,2.296588,2.23694,3.03863854868,0,0.894776,0,0.3, -5.3, -3.7,0,0,1470,1024,1024,1024,68,0,0,0,16.3,0,0,84,4.048,4.042,0,0,0,0,4.284,73.22,446.38054938916,1.968504,6,P-GPS,
11800,2022-09-03 18:39:20,-34.8657375707732,-55.2575933554526,1.968504,1.2467192,445.13383018916,446.38054938916,6.233596,0.7158208,3.18092857948,10.429134192,16,5,8.102,446.70863338916,2.296588,2.23694,3.18092857948,0.223694,0.671082,0,0.4, -11, -2.2,0,0,1176,1024,1024,1024,23,0,0,0,16.3,0,0,84,4.048,4.042,0,0,0,0,4.284,73.22,446.38054938916,1.968504,6,P-GPS,
11900,2022-09-03 18:39:20,-34.8657374712256,-55.2575927629912,1.968504,1.148294,445.23225538916,446.38054938916,6.233596,0.8052984,3.3607612624,10.6101709432,15,5,8.102,446.70863338916,2.296588,2.23694,3.3607612624,0.671082,0.447388,0,0.3, -10.5, -1.1,0,0,1211,1024,1024,1024,28,0,0,0,16.3,0,0,84,4.048,4.042,0,0,0,0,4.284,73.22,446.38054938916,1.968504,6,P-GPS,
12000,2022-09-03 18:39:20,-34.8657372397122,-55.2575923978845,1.968504,1.0826772000001,445.29787218916,446.38054938916,6.233596,1.006623,3.4779528672,10.7483271156,15,5,8.102,446.70863338916,2.296588,2.23694,3.4779528672,0.894776,0.447388,0,0.2, -4.9, -0.2,0,0,1275,1024,1024,1024,38,0,0,0,16.3,0,0,84,4.048,4.042,0,0,0,0,4.284,73.22,446.38054938916,1.968504,6,P-GPS,
12100,2022-09-03 18:39:20,-34.8657372111594,-55.2575926958798,1.968504,1.148294,445.23225538916,446.38054938916,6.233596,1.006623,3.3905184812,10.8381237064,14,5,8.102,446.70863338916,2.296588,2.23694,3.4779528672,1.11847,0.447388,0,0.1, -3.7, 0.3,0,0,1268,1024,1024,1024,37,0,0,0,16.3,0,0,84,4.048,4.042,0,0,0,0,4.284,73.22,446.38054938916,1.968504,6,P-GPS,
12200,2022-09-03 18:39:20,-34.8657368682629,-55.2575926557507,1.968504,1.148294,445.23225538916,446.38054938916,6.233596,1.2079476,3.4192586396,10.9638126868,14,5,8.102,446.70863338916,2.296588,2.23694,3.4779528672,1.11847,0.447388,0,0, -4.8, 0.1,0,0,1271,1024,1024,1024,37,0,0,0,16.3,0,0,84,4.048,4.042,0,0,0,0,4.284,73.22,446.38054938916,1.968504,6,P-GPS,
12300,2022-09-03 18:39:20,-34.8657364771208,-55.2575926935657,1.968504,1.0826772000001,445.29787218916,446.38054938916,6.233596,1.4092722,3.4327757004,11.106955736,16,5,8.102,446.70863338916,2.296588,2.23694,3.4779528672,1.342164,0.447388,0,0.1, -5.1, 0,0,0,1290,1024,1024,1024,40,0,0,0,16.3,0,0,84,4.048,4.042,0,0,0,0,4.284,73.22,446.38054938916,1.968504,6,P-GPS,
12400,2022-09-03 18:39:20,-34.8657359542376,-55.2575926867425,1.968504,1.0826772000001,445.29787218916,446.38054938916,6.233596,1.6329662,3.4766405312,11.297736582,16,5,8.102,446.70863338916,2.296588,2.23694,3.4779528672,1.565858,0.447388,0,0, -4.7, 0.1,0,0,1287,1024,1024,1024,40,0,0,0,16.3,0,0,84,4.048,4.042,0,0,0,0,4.284,73.22,446.38054938916,1.968504,6,P-GPS,
12500,2022-09-03 18:39:20,-34.8657350860185,-55.2575932676809,1.64042,0.65616800000006,445.39629738916,446.05246538916,6.233596,1.7000744,3.4039043084,11.659121108,16,5,8.102,446.70863338916,2.296588,2.23694,3.4779528672,1.565858,0.671082,0,0, -5.2, -0.4,0,0,1287,1024,1024,1024,40,0,0,0,16.3,0,0,84,4.048,4.042,0,0,0,0,4.284,73.22,446.05246538916,1.64042,6,P-GPS,
12600,2022-09-03 18:39:21,-34.8657343342049,-55.257593187171,1.64042,0.55774280000005,445.49472258916,446.05246538916,6.233596,1.8342908,3.529691714,11.9344820092,16,5,8.102,446.70863338916,2.296588,2.23694,3.529691714,1.789552,0.447388,0,0.1, -5.2, -0.5,0,0,1233,821,1024,1024,32,-31,0,0,16.3,0,0,84,4.048,4.042,0,0,0,0,4.284,73.22,446.05246538916,1.64042,6,P-GPS,
12700,2022-09-03 18:39:21,-34.8657333333388,-55.257593078239,1.64042,0.49212600000002,445.56033938916,446.05246538916,6.233596,1.901399,3.7227035312,12.3010830708,16,5,8.102,446.70863338916,2.296588,2.23694,3.7227035312,1.789552,0.671082,0,0.1, -4.9, -0.6,0,0,1064,364,1024,1024,6,-100,0,0,16.3,0,0,84,4.048,4.042,0,0,0,0,4.284,73.22,446.05246538916,1.64042,6,P-GPS,
12800,2022-09-03 18:39:21,-34.8657324854308,-55.2575929193544,1.64042,0.39370080000001,445.65876458916,446.05246538916,6.233596,1.8342908,3.9225066872,12.6140752068,16,5,8.083,446.70863338916,2.296588,2.23694,3.9225066872,1.789552,0.447388,0,359.9, -1.8, -11.4,0,0,1109,629,1024,1024,13,-60,0,0,16.3,0,0,84,4.045,4.042,0,0,0,0,4.282,73.4,446.05246538916,1.64042,6,P-GPS,
12900,2022-09-03 18:39:21,-34.8657312208553,-55.2575925347946,1.64042,0.29527560000001,445.75718978916,446.05246538916,5.905512,1.789552,4.2811353076,13.0896001564,15,5,8.083,446.70863338916,2.296588,2.23694,4.2811353076,1.789552,0,0,359.6, -0.2, -17.5,0,0,1051,688,1024,1024,4,-51,0,0,16.3,0,0,84,4.045,4.042,0,0,0,0,4.282,73.4,446.05246538916,1.64042,6,P-GPS,
13000,2022-09-03 18:39:21,-34.8657304367628,-55.2575926925021,1.64042,0.22965879999998,445.82280658916,446.05246538916,5.905512,1.8342908,4.42339253,13.3795607956,15,5,8.083,446.70863338916,2.296588,2.23694,4.42339253,1.789552,-0.447388,0,0, -0.6, -13.8,0,0,1078,777,1024,1024,8,-37,0,0,16.3,0,0,84,4.045,4.042,0,0,0,0,4.282,73.4,446.05246538916,1.64042,6,P-GPS,
13100,2022-09-03 18:39:21,-34.8657296718045,-55.2575931222978,1.64042,0.22965879999998,445.82280658916,446.05246538916,5.905512,1.9908766,4.5160106432,13.6868770784,16,5,8.083,446.70863338916,2.296588,2.23694,4.5160106432,1.789552,-0.894776,0,359.9, -0.6, -10.5,0,0,1093,696,1024,1024,10,-50,0,0,16.3,0,0,84,4.045,4.042,0,0,0,0,4.282,73.4,446.05246538916,1.64042,6,P-GPS,
13200,2022-09-03 18:39:21,-34.8657289772047,-55.257593801808,1.64042,0.19685040000001,445.85561498916,446.05246538916,5.905512,2.0579848,4.5581366288,14.0118442804,16,5,8.083,446.70863338916,2.296588,2.23694,4.5581366288,1.565858,-1.342164,0,359.9, -0.6, -7,0,0,1095,995,1024,1024,11,-4,0,0,16.3,0,0,84,4.045,4.042,0,0,0,0,4.282,73.4,446.05246538916,1.64042,6,P-GPS,
13300,2022-09-03 18:39:21,-34.8657282412457,-55.2575947987469,1.64042,0.19685040000001,445.85561498916,446.05246538916,5.905512,2.2145706,4.5772311176,14.4132878628,16,5,8.083,446.70863338916,2.296588,2.23694,4.5772311176,1.565858,-1.565858,0,0, -0.8, -6.8,0,0,1295,1024,1024,1024,41,0,0,0,16.3,0,0,84,4.045,4.042,0,0,0,0,4.282,73.4,446.05246538916,1.64042,6,P-GPS,
13400,2022-09-03 18:39:21,-34.8657278270934,-55.2575957609627,1.64042,0.26246720000004,445.78999818916,446.05246538916,5.905512,2.5501116,4.5374345284,14.7385831488,16,5,8.083,446.70863338916,2.296588,2.5501116,4.5772311176,1.565858,-2.013246,0,359.9, -0.8, -7.1,0,0,1295,1024,1024,1024,41,0,0,0,16.3,0,0,84,4.045,4.042,0,0,0,0,4.282,73.4,446.05246538916,1.64042,6,P-GPS,
13500,2022-09-03 18:39:21,-34.8657272058664,-55.2575968713375,1.64042,0.22965879999998,445.82280658916,446.05246538916,5.905512,2.5501116,4.5664699624,15.1408797496,16,5,8.083,446.70863338916,2.296588,2.5501116,4.5772311176,1.565858,-2.013246,0,0, -2.5, -1.3,0,0,1543,1024,1024,1024,79,0,0,0,16.3,0,0,84,4.045,4.042,0,0,0,0,4.282,73.4,446.05246538916,1.64042,6,P-GPS,
13600,2022-09-03 18:39:22,-34.865726496184,-55.2575979282448,1.64042,0.22965879999998,445.82280658916,446.05246538916,5.905512,2.5501116,4.6663715404,15.5497380304,16,5,8.083,446.70863338916,2.296588,2.5501116,4.6663715404,1.565858,-2.013246,0,0, -8.8, 0.6,0,0,1446,1024,1024,1024,64,0,0,0,16.3,0,0,84,4.045,4.042,0,0,0,0,4.282,73.4,446.05246538916,1.64042,6,P-GPS,
13700,2022-09-03 18:39:22,-34.8657256977465,-55.2575987733441,1.64042,0.29527560000001,445.75718978916,446.05246538916,5.905512,2.684328,4.8498361132,15.9355648144,16,5,8.083,446.70863338916,2.296588,2.684328,4.8498361132,2.013246,-1.789552,0,0, -13.9, 0.7,0,0,1352,1024,1024,1024,50,0,0,0,16.3,0,0,84,4.045,4.042,0,0,0,0,4.282,73.4,446.05246538916,1.64042,6,P-GPS,
13800,2022-09-03 18:39:22,-34.8657247951489,-55.2575992192558,1.64042,0.19685040000001,445.85561498916,446.05246538916,5.905512,2.908022,5.1245408464,16.2909125948,16,5,8.067,446.70863338916,2.296588,2.908022,5.1245408464,2.460634,-1.565858,0,0, -12.2, 0.4,0,0,1284,1024,1024,1024,39,0,0,0,16.3,0,0,84,4.042,4.04,0,0,0,0,4.285,73.4,446.05246538916,1.64042,6,P-GPS,
13900,2022-09-03 18:39:22,-34.8657236694071,-55.2575999768705,1.64042,0.16404200000004,445.88842338916,446.05246538916,5.905512,3.1093466,5.4667652668,16.7600727148,16,5,8.067,446.70863338916,2.296588,3.1093466,5.4667652668,2.684328,-1.565858,0,0, -9.2, 0.4,0,0,1043,1024,1024,1024,3,0,0,0,16.3,0,0,84,4.042,4.04,0,0,0,0,4.285,73.4,446.05246538916,1.64042,6,P-GPS,
14000,2022-09-03 18:39:22,-34.8657223169991,-55.2576005955358,1.64042,0.065616800000034,445.98684858916,446.05246538916,5.905512,3.4001488,5.9151576696,17.2871068524,16,5,8.067,446.70863338916,2.296588,3.4001488,5.9151576696,3.131716,-1.342164,0,0, -6.5, 0.5,0,0,1024,1024,1024,1024,0,0,0,0,16.3,0,0,84,4.042,4.04,0,0,0,0,4.285,73.4,446.05246538916,1.64042,6,P-GPS,
14100,2022-09-03 18:39:22,-34.8657208704376,-55.2576010597526,1.64042,0,446.05246538916,446.05246538916,5.905512,3.4001488,6.4157482368,17.8328745864,16,5,8.067,446.70863338916,2.296588,3.4001488,6.4157482368,3.131716,-1.342164,0,359.9, 0.6, 0.1,0,0,1030,1121,1024,1024,1,15,0,0,16.3,0,0,84,4.042,4.04,0,0,0,0,4.285,73.4,446.05246538916,1.64042,6,P-GPS,
14200,2022-09-03 18:39:22,-34.8657190568363,-55.2576006265472,1.64042,-0.19685040000001,446.24931578916,446.05246538916,5.905512,3.1093466,7.0889766048,18.5071528232,16,5,8.067,446.70863338916,2.296588,3.4001488,7.0889766048,2.908022,-1.11847,0,0.3, 10.6, 4.3,0,0,1030,1121,1024,1024,1,15,0,0,16.3,0,0,84,4.042,4.04,0,0,0,0,4.285,73.4,446.05246538916,1.64042,6,P-GPS,
14300,2022-09-03 18:39:22,-34.865717747766,-55.2576011891621,1.64042,-0.26246719999995,446.31493258916,446.05246538916,5.905512,2.6172198,7.5419293752,19.013616094,15,5,8.067,446.70863338916,2.296588,3.4001488,7.5419293752,2.460634,-0.894776,0,0.2, 8.8, 3.6,0,0,1024,1165,1024,1024,0,21,0,0,16.3,0,0,84,4.042,4.04,0,0,0,0,4.285,73.4,446.05246538916,1.64042,6,P-GPS,
14400,2022-09-03 18:39:22,-34.8657166978755,-55.2576016889165,1.64042,-0.29527560000001,446.34774098916,446.05246538916,5.905512,2.125093,7.9085960536,19.4248365796,15,5,8.067,446.70863338916,2.296588,3.4001488,7.9085960536,2.013246,-0.671082,0,0.1, 4.8, 2.6,0,0,1024,1185,1024,1024,0,24,0,0,16.3,0,0,84,4.042,4.04,0,0,0,0,4.285,73.4,446.05246538916,1.64042,6,P-GPS,
14500,2022-09-03 18:39:23,-34.8657157333042,-55.2576021950353,1.64042,-0.36089239999995,446.41335778916,446.05246538916,5.577428,1.8342908,8.2482942272,19.8079730748,16,5,8.067,446.70863338916,2.296588,3.4001488,8.2482942272,1.789552,-0.447388,0,0, 2.8, 2.8,0,0,1089,1218,1024,1024,10,29,0,0,16.3,0,0,84,4.042,4.04,0,0,0,0,4.285,73.4,446.05246538916,1.64042,6,P-GPS,
14600,2022-09-03 18:39:23,-34.8657148814391,-55.2576027386312,1.64042,-0.39370080000001,446.44616618916,446.05246538916,5.577428,1.6329662,8.5500658904,20.1588261044,16,5,8.067,446.70863338916,2.296588,3.4001488,8.5500658904,1.565858,-0.447388,0,0, 1.6, 2.7,0,0,1102,1024,1024,1024,12,0,0,0,16.3,0,0,84,4.042,4.04,0,0,0,0,4.285,73.4,446.05246538916,1.64042,6,P-GPS,
14700,2022-09-03 18:39:23,-34.8657141044433,-55.2576030210706,1.312336,-0.78740159999996,446.51178298916,445.72438138916,5.577428,1.3645334,8.8302496264,20.4546266388,16,5,8.067,446.70863338916,2.296588,3.4001488,8.8302496264,1.342164,-0.223694,0,1.7, 0.3, 1.9,0,0,1115,1024,1024,1024,14,0,0,0,16.3,0,0,84,4.042,4.04,0,0,0,0,4.285,73.4,445.72438138916,1.312336,6,P-GPS,
14800,2022-09-03 18:39:23,-34.8657134908619,-55.2576031290582,1.312336,-0.88582679999996,446.61020818916,445.72438138916,5.577428,1.1408394,9.0530842792,20.6808077484,16,5,8.08,446.70863338916,2.296588,3.4001488,9.0530842792,1.11847,-0.223694,0,1.7, -1.1, -0.6,0,0,1093,1024,1024,1024,10,0,0,0,16.3,0,0,84,4.038,4.035,0,0,0,0,4.186,73.4,445.72438138916,1.312336,6,P-GPS,
14900,2022-09-03 18:39:23,-34.8657129391907,-55.2576031408827,1.312336,-0.88582679999996,446.61020818916,445.72438138916,5.577428,1.1408394,9.2541997712,20.8821200908,15,5,8.08,446.70863338916,2.296588,3.4001488,9.2541997712,1.11847,-0.223694,0,1.7, -1.1, -0.5,0,0,1046,1024,1024,1024,3,0,0,0,16.3,0,0,84,4.038,4.035,0,0,0,0,4.186,73.4,445.72438138916,1.312336,6,P-GPS,
15000,2022-09-03 18:39:23,-34.8657124130079,-55.2576031984856,1.312336,-0.98425199999996,446.70863338916,445.72438138916,5.577428,1.3645334,9.445702402,21.0748694408,15,5,8.08,446.70863338916,2.296588,3.4001488,9.445702402,1.342164,-0.223694,0,1.8, -0.9, -0.6,0,0,1046,1024,1024,1024,3,0,0,0,16.3,0,0,84,4.038,4.035,0,0,0,0,4.186,73.4,445.72438138916,1.312336,6,P-GPS,
15100,2022-09-03 18:39:23,-34.8657121670705,-55.257603321868,1.312336,-0.98425199999996,446.70863338916,445.72438138916,5.577428,1.4092722,9.534613166,21.171916688,14,5,8.08,446.70863338916,2.296588,3.4001488,9.534613166,1.342164,-0.447388,0,1.8, -0.1, 0,0,0,1024,1024,1024,1024,0,0,0,0,16.3,0,0,84,4.038,4.035,0,0,0,0,4.186,73.4,445.72438138916,1.312336,6,P-GPS,
15200,2022-09-03 18:39:23,-34.8657116154774,-55.2576036005818,1.312336,-0.91863520000002,446.64301658916,445.72438138916,5.577428,1.4092722,9.734580364,21.389764464,14,5,8.08,446.70863338916,2.296588,3.4001488,9.734580364,1.342164,-0.447388,0,1.8, 4.6, 1.6,0,0,1024,1024,1024,1024,0,0,0,0,16.3,0,0,84,4.038,4.035,0,0,0,0,4.186,73.4,445.72438138916,1.312336,6,P-GPS,
15300,2022-09-03 18:39:23,-34.8657110252674,-55.2576039834449,1.64042,-0.65616799999996,446.70863338916,446.05246538916,5.577428,1.2079476,9.9493769588,21.6337277264,14,5,8.08,446.70863338916,2.296588,3.4001488,9.9493769588,1.11847,-0.447388,0,1.8, 5.2, 1.7,0,0,1030,1024,1024,1024,1,0,0,0,16.3,0,0,84,4.038,4.035,0,0,0,0,4.186,73.4,446.05246538916,1.64042,6,P-GPS,
15400,2022-09-03 18:39:23,-34.8657105773216,-55.2576042836869,1.64042,-0.65616799999996,446.70863338916,446.05246538916,5.577428,0.9171454,10.1133205336,21.8202434804,14,5,8.08,446.70863338916,2.296588,3.4001488,10.1133205336,0.894776,-0.223694,0,1.8, 5.1, 2,0,0,1068,1024,1024,1024,7,0,0,0,16.3,0,0,84,4.038,4.035,0,0,0,0,4.186,73.4,446.05246538916,1.64042,6,P-GPS,
15500,2022-09-03 18:39:24,-34.8657103251114,-55.2576046332214,1.64042,-0.68897640000003,446.74144178916,446.05246538916,5.577428,0.671082,10.2068900904,21.9595807552,14,5,8.08,446.70863338916,2.296588,3.4001488,10.2068900904,0.671082,0,0,1.8, 3.5, 1.4,0,0,1045,1024,1024,1024,3,0,0,0,16.3,0,0,84,4.038,4.035,0,0,0,0,4.186,73.4,446.05246538916,1.64042,6,P-GPS,
15600,2022-09-03 18:39:24,-34.8657101160355,-55.2576048060815,1.64042,-0.68897640000003,446.74144178916,446.05246538916,5.577428,0.447388,10.2843507228,22.0517395508,14,5,8.08,446.70863338916,2.296588,3.4001488,10.2843507228,0.447388,0,0,1.5, 1.7, 1.3,0,0,1024,1024,1024,1024,0,0,0,0,16.3,0,0,84,4.038,4.035,0,0,0,0,4.186,73.4,446.05246538916,1.64042,6,P-GPS,
15700,2022-09-03 18:39:24,-34.8657099888475,-55.2576049681873,1.64042,-0.68897640000003,446.74144178916,446.05246538916,5.577428,0.223694,10.3320541364,22.1188983456,14,5,8.08,446.70863338916,2.296588,3.4001488,10.3320541364,0.223694,0,0,1.6, 1.6, 0.6,0,0,1024,1024,1024,1024,0,0,0,0,16.3,0,0,84,4.038,4.035,0,0,0,0,4.186,73.4,446.05246538916,1.64042,6,P-GPS,
15800,2022-09-03 18:39:24,-34.8657099486152,-55.2576049492667,1.64042,-0.68897640000003,446.74144178916,446.05246538916,5.577428,0.223694,10.3465554492,22.1346135692,14,5,8.072,446.70863338916,2.296588,3.4001488,10.3465554492,0.223694,0,0,1.9, 1, -0.2,0,0,1024,1024,1024,1024,0,0,0,0,16.3,0,0,84,4.036,4.031,0,0,0,0,4.211,73.58,446.05246538916,1.64042,6,P-GPS,
15900,2022-09-03 18:39:24,-34.8657101650289,-55.2576043356895,1.64042,-0.75459319999997,446.80705858916,446.05246538916,5.577428,0.223694,10.2639110896,22.3345479588,15,5,8.072,446.70863338916,2.296588,3.4001488,10.3465554492,0.223694,0,0,1.8, 1.4, 0.5,0,0,1024,1024,1024,1024,0,0,0,0,16.3,0,0,84,4.036,4.031,0,0,0,0,4.211,73.58,446.05246538916,1.64042,6,P-GPS,
16000,2022-09-03 18:39:24,-34.8657100826003,-55.2576043339719,1.64042,-0.75459319999997,446.80705858916,446.05246538916,5.577428,0.223694,10.293963584,22.3646332616,15,5,8.072,446.70863338916,2.296588,3.4001488,10.3465554492,0.223694,0,0,1.7, 1.8, 0.9,0,0,1024,1024,1024,1024,0,0,0,0,16.3,0,0,84,4.036,4.031,0,0,0,0,4.211,73.58,446.05246538916,1.64042,6,P-GPS,
16100,2022-09-03 18:39:24,-34.8657099214755,-55.2576044907279,1.64042,-0.75459319999997,446.80705858916,446.05246538916,5.577428,0.223694,10.3533795964,22.4398629228,15,5,8.072,446.70863338916,2.296588,3.4001488,10.3533795964,0.223694,0,0,1.7, 1.1, 0.6,0,0,1024,1024,1024,1390,0,0,0,55,16.3,0,0,84,4.036,4.031,0,0,0,0,4.211,73.58,446.05246538916,1.64042,6,P-GPS,
16200,2022-09-03 18:39:24,-34.8657098416948,-55.2576046208729,1.64042,-0.68897640000003,446.74144178916,446.05246538916,5.577428,0,10.3831696236,22.4884849716,15,5,8.072,446.70863338916,2.296588,3.4001488,10.3831696236,0,0,0,1.7, 1.2, 0.4,0,0,1024,1024,1024,1471,0,0,0,68,16.6,0,0,84,4.036,4.031,0,0,0,0,4.211,73.58,446.05246538916,1.64042,6,P-GPS,
16300,2022-09-03 18:39:24,-34.8657097630247,-55.2576049777605,1.64042,-0.68897640000003,446.74144178916,446.05246538916,5.577428,0,10.4145016456,22.5991148964,14,5,8.072,446.70863338916,2.296588,3.4001488,10.4145016456,0,0,0,2.6, 1.2, 0.5,0,0,1024,1024,1024,1024,0,0,0,0,18.7,0,0,84,4.036,4.031,0,0,0,0,4.211,73.58,446.05246538916,1.64042,6,P-GPS,
16400,2022-09-03 18:39:24,-34.8657097300389,-55.2576050759354,1.64042,-0.68897640000003,446.74144178916,446.05246538916,5.577428,0,10.4274281552,22.6308734276,14,5,8.072,446.70863338916,2.296588,3.4001488,10.4274281552,0,0,0,4.6, 1.2, 0.7,0,0,1024,1024,1024,1024,0,0,0,0,20.1,0,0,84,4.036,4.031,0,0,0,0,4.211,73.58,446.05246538916,1.64042,6,P-GPS,
16500,2022-09-03 18:39:25,-34.8657096564039,-55.2576051598358,1.64042,-0.68897640000003,446.74144178916,446.05246538916,5.577428,0,10.4551184448,22.667651644,14,5,8.072,446.70863338916,2.296588,3.4001488,10.4551184448,0,0,0,5.6, 0.6, 0.5,0,0,1024,1024,1024,1024,0,0,0,0,20.7,0,0,84,4.036,4.031,0,0,0,0,4.211,73.58,446.05246538916,1.64042,6,P-GPS,
16600,2022-09-03 18:39:25,-34.8657096141653,-55.2576051701663,1.64042,-0.68897640000003,446.74144178916,446.05246538916,5.577428,0,10.470636818,22.6833668676,14,5,8.072,446.70863338916,2.296588,3.4001488,10.470636818,0,0,0,5.9, 0.4, 0.2,0,0,1024,1024,1024,1024,0,0,0,0,20.7,0,0,84,4.036,4.031,0,0,0,0,4.211,73.58,446.05246538916,1.64042,6,P-GPS,
16700,2022-09-03 18:39:25,-34.8657096082736,-55.2576050973645,1.64042,-0.68897640000003,446.74144178916,446.05246538916,5.577428,0,10.4720475792,22.7052500704,15,5,8.072,446.70863338916,2.296588,3.4001488,10.4720475792,0,0,0,5.9, 0.2, 0.2,0,0,1024,1024,1024,1024,0,0,0,0,20.7,0,0,84,4.036,4.031,0,0,0,0,4.211,73.58,446.05246538916,1.64042,6,P-GPS,
