time(millisecond),datetime(utc),latitude,longitude,height_above_takeoff(feet),height_above_ground_at_drone_location(feet),ground_elevation_at_drone_location(feet),altitude_above_seaLevel(feet),height_sonar(feet),speed(mph),distance(feet),mileage(feet),satellites,gpslevel,voltage(v),max_altitude(feet),max_ascent(feet),max_speed(mph),max_distance(feet), xSpeed(mph), ySpeed(mph), zSpeed(mph), compass_heading(degrees), pitch(degrees), roll(degrees),isPhoto,isVideo,rc_elevator,rc_aileron,rc_throttle,rc_rudder,rc_elevator(percent),rc_aileron(percent),rc_throttle(percent),rc_rudder(percent),gimbal_heading(degrees),gimbal_pitch(degrees),gimbal_roll(degrees),battery_percent,voltageCell1,voltageCell2,voltageCell3,voltageCell4,voltageCell5,voltageCell6,current(A),battery_temperature(f),altitude(feet),ascent(feet),flycStateRaw,flycState,message
3700,2022-08-11 22:58:15,-34.9227255921974,-56.1514165418712,0,0,43.037036154088,43.037036154088,0.328084,0,0,0,20,5,0,43.037036154088,0,0,0,0,0,0,134.2, -0.8, 0.3,0,0,1024,1024,1024,1024,0,0,0,0,145.5,0,0,38,3.808,3.805,0,0,0,0,0,88.52,43.037036154088,0,41,Motors_Started,"Aeronave en Zona de altitud restringida (150). Vuela con precaución (Code: 190001). Baja velocidad de la tarjeta SD. Puede afectar a su uso normal. Sustituye la tarjeta SD (Code: 10028)"
3800,2022-08-11 22:58:15,-34.9227255199278,-56.1514167406947,0,0,43.037036154088,43.037036154088,0.328084,0,0.065060369536,0.065060369536,20,5,7.614,43.037036154088,0,0,0.065060369536,0,0,0,134.3, -0.8, 0.3,0,0,364,364,364,1684,-100,-100,-100,100,145.5,0,0,38,3.808,3.805,0,0,0,0,0.647,88.52,43.037036154088,0,41,Motors_Started,
3900,2022-08-11 22:58:15,-34.9227255825728,-56.151416873592,0,0,43.037036154088,43.037036154088,0.328084,0,0.099295934936,0.110918310636,20,5,7.614,43.037036154088,0,0,0.099295934936,0,0,0,134.3, -0.8, 0.3,0,0,364,364,364,1684,-100,-100,-100,100,145.5,0,0,38,3.808,3.805,0,0,0,0,0.647,88.52,43.037036154088,0,41,Motors_Started,
4000,2022-08-11 22:58:15,-34.922725647468,-56.1514170113609,0,0,43.037036154088,43.037036154088,0.328084,0,0.141887799816,0.158448823968,20,5,7.614,43.037036154088,0,0,0.141887799816,0,0,0,134.3, -0.8, 0.3,0,0,364,364,364,1684,-100,-100,-100,100,145.5,0,0,38,3.808,3.805,0,0,0,0,0.647,88.52,43.037036154088,0,41,Motors_Started,
4100,2022-08-11 22:58:15,-34.9227256706558,-56.1514170644694,0,0,43.037036154088,43.037036154088,0.328084,0,0.15893373212,0.176448168376,20,5,7.614,43.037036154088,0,0,0.15893373212,0,0,0,134.4, -0.8, 0.3,0,0,838,1024,1024,1024,-28,0,0,0,145.5,0,0,38,3.808,3.805,0,0,0,0,0.647,88.52,43.037036154088,0,41,Motors_Started,
4200,2022-08-11 22:58:15,-34.9227256701449,-56.151417109223,0,0,43.037036154088,43.037036154088,0.328084,0,0.172088916268,0.1898376045,20,5,7.614,43.037036154088,0,0,0.172088916268,0,0,0,134.4, -0.8, 0.3,0,0,1024,1024,1024,1024,0,0,0,0,145.5,0,0,38,3.808,3.805,0,0,0,0,0.647,88.52,43.037036154088,0,41,Motors_Started,
4300,2022-08-11 22:58:15,-34.9227257000667,-56.1514171326727,0,0,43.037036154088,43.037036154088,0.328084,0,0.181066606844,0.202813982868,20,5,7.614,43.037036154088,0,0,0.181066606844,0,0,0,134.4, -0.8, 0.3,0,0,1024,1024,1024,1024,0,0,0,0,145.5,0,0,38,3.808,3.805,0,0,0,0,0.647,88.52,43.037036154088,0,41,Motors_Started,
4400,2022-08-11 22:58:15,-34.9227257402323,-56.1514171631928,0,0,43.037036154088,43.037036154088,0.328084,0,0.193556108556,0.220080059536,20,5,7.614,43.037036154088,0,0,0.193556108556,0,0,0,134.5, -0.8, 0.3,0,0,1024,1024,1024,1024,0,0,0,0,145.5,0,0,38,3.808,3.805,0,0,0,0,0.647,88.52,43.037036154088,0,41,Motors_Started,
4500,2022-08-11 22:58:15,-34.9227258238325,-56.1514173065517,0,0,43.037036154088,43.037036154088,0.328084,0,0.243865493368,0.272706045472,20,5,7.614,43.037036154088,0,0,0.243865493368,0,0,0,134.5, -0.8, 0.3,0,0,1024,1024,1024,1024,0,0,0,0,145.5,0,0,38,3.808,3.805,0,0,0,0,0.647,88.52,43.037036154088,0,41,Motors_Started,
4600,2022-08-11 22:58:15,-34.9227259286156,-56.151417500181,0,-0.098425199999998,43.135461354088,43.037036154088,0.328084,0,0.31184876326,0.342109591,20,5,7.614,43.037036154088,0,0,0.31184876326,0,0,0,134.5, -0.8, 0.3,0,0,1024,1024,1024,1024,0,0,0,0,145.5,0,0,38,3.808,3.805,0,0,0,0,0.647,88.52,43.037036154088,0,41,Motors_Started,"Setting new Return-To-Home altitude to 40m (131 ft). Data Recorder File Index is 34. Setting new Maximum Flight Altitude to 120m (394 ft)"
4700,2022-08-11 22:58:16,-34.9227261591572,-56.1514177812689,0,-0.098425199999998,43.135461354088,43.037036154088,0.328084,0,0.42456366188,0.46104332184,20,5,7.614,43.037036154088,0,0,0.42456366188,0,0,0,134.5, -0.8, 0.3,0,0,1024,1024,1024,1024,0,0,0,0,145.5,0,0,38,3.808,3.805,0,0,0,0,0.647,88.52,43.037036154088,0,41,Motors_Started,
4800,2022-08-11 22:58:16,-34.9227262848405,-56.1514178761427,0,-0.098425199999998,43.135461354088,43.037036154088,0.328084,0,0.47241799412,0.51497376976,20,5,7.588,43.037036154088,0,0,0.47241799412,0,0,0,134.5, -0.8, 0.3,0,0,1024,1024,1024,1024,0,0,0,0,145.5,0,0,38,3.792,3.786,0,0,0,0,1.08,88.52,43.037036154088,0,10,Assisted_Takeoff,
4900,2022-08-11 22:58:16,-34.9227263328733,-56.1514178241659,0,-0.098425199999998,43.135461354088,43.037036154088,0.328084,0,0.4692257368,0.53839896736,20,5,7.588,43.037036154088,0,0,0.47241799412,0,0,0,134.5, -0.8, 0.3,0,0,1024,1024,1024,1024,0,0,0,0,145.5,0,0,38,3.792,3.786,0,0,0,0,1.08,88.52,43.037036154088,0,10,Assisted_Takeoff,
5000,2022-08-11 22:58:16,-34.9227263536213,-56.1514177154328,0,-0.098425199999998,43.135461354088,43.037036154088,0.328084,0,0.44769030304,0.57179791856,20,5,7.588,43.037036154088,0,0,0.47241799412,0,0,0,134.5, -0.8, 0.3,0,0,1024,1024,1024,1024,0,0,0,0,145.5,0,0,38,3.792,3.786,0,0,0,0,1.08,88.52,43.037036154088,0,10,Assisted_Takeoff,
5100,2022-08-11 22:58:16,-34.9227263352549,-56.1514170677744,0,0,43.037036154088,43.037036154088,0.328084,0,0.313445548088,0.76565947332,20,5,7.588,43.037036154088,0,0,0.47241799412,0,0,0,134.5, -0.8, 0.3,0,0,1024,1024,1024,1024,0,0,0,0,145.5,0,0,38,3.792,3.786,0,0,0,0,1.08,88.52,43.037036154088,0,10,Assisted_Takeoff,
5200,2022-08-11 22:58:16,-34.9227263662279,-56.1514169470431,0,0,43.037036154088,43.037036154088,0.328084,0,0.307316610884,0.80350396272,20,5,7.588,43.037036154088,0,0,0.47241799412,0,0,0,134.5, -0.8, 0.3,0,0,1024,1024,1024,1024,0,0,0,0,145.4,0,0,38,3.792,3.786,0,0,0,0,1.08,88.52,43.037036154088,0,10,Assisted_Takeoff,
5300,2022-08-11 22:58:16,-34.9227263657425,-56.1514167702098,0,0,43.037036154088,43.037036154088,0.328084,0,0.290375993544,0.85640422688,20,5,7.588,43.037036154088,0,0,0.47241799412,0,0,0,134.5, -0.8, 0.3,0,0,1024,1024,1024,1024,0,0,0,0,145.4,0,0,38,3.792,3.786,0,0,0,0,1.08,88.52,43.037036154088,0,10,Assisted_Takeoff,
5400,2022-08-11 22:58:16,-34.9227263550737,-56.1514165668445,0,0,43.037036154088,43.037036154088,0.328084,0,0.278435376364,0.91736223408,20,5,7.588,43.037036154088,0,0,0.47241799412,0,0,0,134.6, -0.8, 0.3,0,0,1024,1024,1024,1024,0,0,0,0,145.4,0,0,38,3.792,3.786,0,0,0,0,1.08,88.52,43.037036154088,0,10,Assisted_Takeoff,
5500,2022-08-11 22:58:16,-34.9227262903976,-56.1514159194394,0,0.065616799999999,42.971419354088,43.037036154088,0.328084,0,0.315534130832,1.1124672272,20,5,7.588,43.037036154088,0,0,0.47241799412,0,0,0,134.6, -0.8, 0.3,0,0,1024,1024,1161,1024,0,0,21,0,145.4,0,0,38,3.792,3.786,0,0,0,0,1.08,88.52,43.037036154088,0,10,Assisted_Takeoff,
5600,2022-08-11 22:58:17,-34.9227263227124,-56.1514157076212,0,0.065616799999999,42.971419354088,43.037036154088,0.328084,0,0.36513124528,1.176919329,20,5,7.588,43.037036154088,0,0,0.47241799412,0,0,0,134.6, -0.8, 0.3,0,0,1024,1024,1684,1024,0,0,100,0,145.4,0,0,38,3.792,3.786,0,0,0,0,1.08,88.52,43.037036154088,0,10,Assisted_Takeoff,
5700,2022-08-11 22:58:17,-34.9227263680056,-56.1514155160666,0,0.065616799999999,42.971419354088,43.037036154088,0.328084,0,0.41747704748,1.23655843852,20,5,7.588,43.037036154088,0,0,0.47241799412,0,0,0,134.6, -0.8, 0.3,0,0,1024,1024,1684,1024,0,0,100,0,145.4,0,0,38,3.792,3.786,0,0,0,0,1.08,88.52,43.037036154088,0,10,Assisted_Takeoff,
5800,2022-08-11 22:58:17,-34.922726420918,-56.1514153242332,0,0.164042,42.872994154088,43.037036154088,0.328084,0,0.47339568444,1.29710305988,20,5,7.588,43.037036154088,0,0,0.47339568444,0,0,0,134.5, -0.7, 0.2,0,0,1024,1024,1684,1024,0,0,100,0,145.4,0,0,38,3.792,3.786,0,0,0,0,1.08,88.52,43.037036154088,0,10,Assisted_Takeoff,
5900,2022-08-11 22:58:17,-34.9227264260103,-56.1514153735319,0,0.164042,42.872994154088,43.037036154088,0.328084,0,0.46335959488,1.31196854592,20,5,7.591,43.037036154088,0,0,0.47339568444,0,0,0,134.6, -0.7, 0.2,0,0,1024,1024,1024,1024,0,0,0,0,145.4,0,0,38,3.799,3.796,0,0,0,0,1.491,88.52,43.037036154088,0,10,Assisted_Takeoff,
6000,2022-08-11 22:58:17,-34.9227264368261,-56.1514153546639,0,0.164042,42.872994154088,43.037036154088,0.328084,0,0.4702099888,1.31885502908,20,5,7.591,43.037036154088,0,0,0.47339568444,0,0,0,134.6, -0.7, 0.2,0,0,1024,1024,1024,1024,0,0,0,0,145.4,0,0,38,3.799,3.796,0,0,0,0,1.491,88.52,43.037036154088,0,10,Assisted_Takeoff,
6100,2022-08-11 22:58:17,-34.9227264719872,-56.1514153137638,0,0.164042,42.872994154088,43.037036154088,0.328084,0,0.487860908,1.33658468844,20,5,7.591,43.037036154088,0,0,0.487860908,0,0,0,134.9, -0.7, 0.2,0,0,1024,1024,1123,1024,0,0,15,0,145.4,0,0,38,3.799,3.796,0,0,0,0,1.491,88.52,43.037036154088,0,10,Assisted_Takeoff,
6200,2022-08-11 22:58:17,-34.9227265178104,-56.1514152573986,0,0.3937008,42.643335354088,43.037036154088,0.328084,0,0.51156169616,1.36032812752,20,5,7.591,43.037036154088,0,0,0.51156169616,0,0,0,134.9, -0.7, 0.2,0,0,1024,1024,1684,1024,0,0,100,0,145.4,0,0,38,3.799,3.796,0,0,0,0,1.491,88.52,43.037036154088,0,10,Assisted_Takeoff,
6300,2022-08-11 22:58:17,-34.9227265345168,-56.1514151487341,0,0.3937008,42.643335354088,43.037036154088,0.328084,0,0.54026576532,1.39340227556,20,5,7.591,43.037036154088,0,0,0.54026576532,0,0,0,135.2, -0.6, 0.1,0,0,1024,1024,1684,1024,0,0,100,0,145.5,0,0,38,3.799,3.796,0,0,0,0,1.491,88.52,43.037036154088,0,10,Assisted_Takeoff,
6400,2022-08-11 22:58:17,-34.9227265246884,-56.1514150075426,0,0.3937008,42.643335354088,43.037036154088,0.328084,0,0.57133532012,1.43579072836,20,5,7.591,43.037036154088,0,0,0.57133532012,0,0,0,135.2, -0.6, 0.1,0,0,1024,1024,1684,1024,0,0,100,0,145.7,0,0,38,3.799,3.796,0,0,0,0,1.491,88.52,43.037036154088,0,10,Assisted_Takeoff,
6500,2022-08-11 22:58:17,-34.9227265208809,-56.1514148540128,0,0.3937008,42.643335354088,43.037036154088,0.328084,0,0.6080708856,1.48173889256,20,5,7.591,43.037036154088,0,0,0.6080708856,0,0,0,135.7, -0.7, 0.1,0,0,1024,1024,1684,1024,0,0,100,0,145.8,0,0,38,3.799,3.796,0,0,0,0,1.491,88.52,43.037036154088,0,10,Assisted_Takeoff,
6600,2022-08-11 22:58:18,-34.9227265206716,-56.1514146813517,0,0.3937008,42.643335354088,43.037036154088,0.328084,0,0.6515584198,1.53339243752,20,5,7.591,43.037036154088,0,0,0.6515584198,0,0,0,136.5, -1.1, 0.1,0,0,1024,1024,1684,1024,0,0,100,0,146.3,0,0,38,3.799,3.796,0,0,0,0,1.491,88.52,43.037036154088,0,10,Assisted_Takeoff,
6700,2022-08-11 22:58:18,-34.9227265362265,-56.1514145722849,0,0.3937008,42.643335354088,43.037036154088,0.328084,0,0.68248689848,1.56650923648,20,5,7.591,43.037036154088,0,0,0.68248689848,0,0,0,137.9, -2.4, 0.7,0,0,1024,1024,1684,1024,0,0,100,0,147.4,0,0,38,3.799,3.796,0,0,0,0,1.491,88.52,43.037036154088,0,10,Assisted_Takeoff,
6800,2022-08-11 22:58:18,-34.9227265165814,-56.1514144595232,0,0.4593176,42.577718554088,43.037036154088,0.328084,0.223694,0.70837272608,1.60099414572,20,5,7.591,43.037036154088,0,0.223694,0.70837272608,-0.223694,0,-0.447388,138.6, -2.2, 0.3,0,0,1024,1024,1265,1024,0,0,37,0,148.6,0,0,38,3.799,3.796,0,0,0,0,1.491,88.52,43.037036154088,0,6,P-GPS,"Baja velocidad de la tarjeta SD. Puede afectar a su uso normal. Sustituye la tarjeta SD (Code: 10028)"
6900,2022-08-11 22:58:18,-34.922726657353,-56.1514143354334,0,0.4593176,42.577718554088,43.037036154088,0.328084,0.223694,0.7659613106,1.66436685116,20,5,7.554,43.037036154088,0,0.223694,0.7659613106,-0.223694,0,-0.671082,138.2, 0.6, 0,0,0,1024,1024,1024,1024,0,0,0,0,148.6,0,0,38,3.773,3.766,0,0,0,0,1.674,88.52,43.037036154088,0,6,P-GPS,
7000,2022-08-11 22:58:18,-34.9227268217754,-56.1514142043724,0,0.4593176,42.577718554088,43.037036154088,0.656168,0.223694,0.83079398984,1.73603023928,20,5,7.554,43.037036154088,0,0.223694,0.83079398984,-0.223694,0,-0.671082,138, 1.8, -0.5,0,0,1024,1024,1024,1024,0,0,0,0,148.6,0,0,38,3.773,3.766,0,0,0,0,1.674,88.52,43.037036154088,0,6,P-GPS,
7100,2022-08-11 22:58:18,-34.922726928778,-56.151414096308,0,0.4593176,42.577718554088,43.037036154088,0.656168,0.223694,0.87921918824,1.78671921728,20,5,7.554,43.037036154088,0,0.223694,0.87921918824,-0.223694,0,-0.671082,137.9, 1.8, -0.2,0,0,1024,1024,1024,1024,0,0,0,0,148.6,0,0,38,3.773,3.766,0,0,0,0,1.674,88.52,43.037036154088,0,6,P-GPS,
7200,2022-08-11 22:58:18,-34.9227270459761,-56.1514140470223,0.328084,0.7874016,42.577718554088,43.365120154088,0.656168,0,0.91561354636,1.83194887752,20,5,7.554,43.365120154088,0.328084,0.223694,0.91561354636,0,0,-0.894776,138, 1.3, -0.7,0,0,1024,1024,1024,1024,0,0,0,0,148.6,0,0,38,3.773,3.766,0,0,0,0,1.674,88.52,43.365120154088,0.328084,6,P-GPS,
7300,2022-08-11 22:58:18,-34.9227271621829,-56.1514139649558,0.328084,0.7874016,42.577718554088,43.365120154088,0.984252,0,0.9604002932,1.88094166124,20,5,7.554,43.365120154088,0.328084,0.223694,0.9604002932,0,0,-0.894776,138, 0.8, -1.1,0,0,1024,1024,1024,1024,0,0,0,0,148.6,0,0,38,3.773,3.766,0,0,0,0,1.674,88.52,43.365120154088,0.328084,6,P-GPS,
7400,2022-08-11 22:58:18,-34.9227272846673,-56.1514138873697,0.656168,1.1154856,42.577718554088,43.693204154088,0.984252,0,1.00592522904,1.93129599356,20,5,7.554,43.693204154088,0.656168,0.223694,1.00592522904,0,0,-0.894776,138.1, 0.2, -1.2,0,0,1024,1024,1024,1024,0,0,0,0,148.6,0,0,38,3.773,3.766,0,0,0,0,1.674,88.52,43.693204154088,0.656168,6,P-GPS,
7500,2022-08-11 22:58:18,-34.9227273710874,-56.151413867445,0.656168,1.1154856,42.577718554088,43.693204154088,0.984252,0,1.03020344504,1.9633858896,20,5,7.554,43.693204154088,0.656168,0.223694,1.03020344504,0,0,-0.894776,138.1, 0, -1.2,0,0,1024,1024,1024,1024,0,0,0,0,148.6,0,0,38,3.773,3.766,0,0,0,0,1.674,88.52,43.693204154088,0.656168,6,P-GPS,
7600,2022-08-11 22:58:19,-34.9227275925432,-56.1514138863712,0.984252,1.6732284,42.348059754088,44.021288154088,1.312336,0,1.07875003452,2.04438326752,20,5,7.554,44.021288154088,0.984252,0.223694,1.07875003452,0,0,-0.894776,138.2, -0.4, -1.3,0,0,1024,1024,1024,1024,0,0,0,0,148.6,0,0,38,3.773,3.766,0,0,0,0,1.674,88.52,44.021288154088,0.984252,6,P-GPS,"Baja velocidad de la tarjeta SD. Puede afectar a su uso normal. Sustituye la tarjeta SD (Code: 10028)"
7700,2022-08-11 22:58:19,-34.9227276631467,-56.1514139473376,0.984252,1.6732284,42.348059754088,44.021288154088,1.312336,0,1.08319885356,2.07594494832,20,5,7.554,44.021288154088,0.984252,0.223694,1.08319885356,0,0,-0.671082,138.1, -0.6, -1.5,0,0,1024,1024,1024,1024,0,0,0,0,148.6,0,0,38,3.773,3.766,0,0,0,0,1.674,88.52,44.021288154088,0.984252,6,P-GPS,
7800,2022-08-11 22:58:19,-34.9227277366613,-56.1514140285872,0.984252,1.6732284,42.348059754088,44.021288154088,1.312336,0,1.08509517908,2.11214245604,20,5,7.554,44.021288154088,0.984252,0.223694,1.08509517908,0,0,-0.671082,138, -0.5, -1.6,0,0,1024,1024,1024,1024,0,0,0,0,148.6,0,0,38,3.773,3.766,0,0,0,0,1.674,88.52,44.021288154088,0.984252,6,P-GPS,
7900,2022-08-11 22:58:19,-34.9227278037623,-56.1514140431028,1.312336,2.0013124,42.348059754088,44.349372154088,1.64042,0,1.09992457588,2.13700466156,20,5,7.465,44.349372154088,1.312336,0.223694,1.09992457588,0,0,-0.447388,138, -0.1, -1.6,0,0,1024,1024,1024,1024,0,0,0,0,148.6,0,0,38,3.739,3.731,0,0,0,0,4.496,88.52,44.349372154088,1.312336,6,P-GPS,
8000,2022-08-11 22:58:19,-34.9227278676106,-56.1514140277723,1.312336,2.0013124,42.348059754088,44.349372154088,1.64042,0,1.12019688624,2.16074810064,20,5,7.465,44.349372154088,1.312336,0.223694,1.12019688624,0,0,-0.223694,138, -0.3, -1.7,0,0,1024,1024,1024,1024,0,0,0,0,148.6,0,0,38,3.739,3.731,0,0,0,0,4.496,88.52,44.349372154088,1.312336,6,P-GPS,
8100,2022-08-11 22:58:19,-34.9227279517901,-56.1514141967391,1.312336,2.0013124,42.348059754088,44.349372154088,1.64042,0,1.11054465496,2.21989180332,20,5,7.465,44.349372154088,1.312336,0.223694,1.12019688624,0,0,-0.223694,138, 0, -1.6,0,0,1024,1024,1024,1024,0,0,0,0,148.6,0,0,38,3.739,3.731,0,0,0,0,4.496,88.52,44.349372154088,1.312336,6,P-GPS,
8200,2022-08-11 22:58:19,-34.9227279723213,-56.1514142154485,1.312336,2.0013124,42.348059754088,44.349372154088,1.64042,0,1.11285108548,2.22924219732,20,5,7.465,44.349372154088,1.312336,0.223694,1.12019688624,0,0,0,138, -0.2, -1.6,0,0,1024,1024,1024,1024,0,0,0,0,148.6,0,0,38,3.739,3.731,0,0,0,0,4.496,88.52,44.349372154088,1.312336,6,P-GPS,
8300,2022-08-11 22:58:19,-34.9227279826155,-56.1514142481347,1.312336,2.0013124,42.348059754088,44.349372154088,1.64042,0,1.1097113216,2.23971791944,20,5,7.465,44.349372154088,1.312336,0.223694,1.12019688624,0,0,0,138, 0, -1.5,0,0,1024,1024,1024,1024,0,0,0,0,148.6,0,0,38,3.739,3.731,0,0,0,0,4.496,88.52,44.349372154088,1.312336,6,P-GPS,
8400,2022-08-11 22:58:19,-34.9227279864702,-56.151414286646,1.312336,2.0013124,42.348059754088,44.349372154088,1.64042,0,1.10373691196,2.25132553136,20,5,7.465,44.349372154088,1.312336,0.223694,1.12019688624,0,0,0,138, -0.1, -1.3,0,0,1024,1024,1024,1024,0,0,0,0,148.6,0,0,38,3.739,3.731,0,0,0,0,4.496,88.52,44.349372154088,1.312336,6,P-GPS,
8500,2022-08-11 22:58:19,-34.9227278211509,-56.151414104386,1.312336,2.0013124,42.348059754088,44.349372154088,1.64042,0,1.09226381448,2.33263130824,20,5,7.465,44.349372154088,1.312336,0.223694,1.12019688624,0,0,0,138.1, 0.9, 0.3,0,0,1024,1024,1098,1024,0,0,11,0,148.6,0,0,38,3.739,3.731,0,0,0,0,4.496,88.52,44.349372154088,1.312336,6,P-GPS,
8600,2022-08-11 22:58:20,-34.9227277748305,-56.15141401367,1.312336,2.0013124,42.348059754088,44.349372154088,1.64042,0,1.09824806664,2.3645998132,21,5,7.465,44.349372154088,1.312336,0.223694,1.12019688624,0,0,0,138.1, 0.6, 0,0,0,1024,1024,1171,1024,0,0,22,0,148.6,0,0,38,3.739,3.731,0,0,0,0,4.496,88.52,44.349372154088,1.312336,6,P-GPS,
8700,2022-08-11 22:58:20,-34.9227276960556,-56.1514140019892,1.312336,2.0013124,42.348059754088,44.349372154088,1.64042,0,1.08004596632,2.3935532262,21,5,7.465,44.349372154088,1.312336,0.223694,1.12019688624,0,0,0,138.1, 0.6, -0.2,0,0,1024,1024,1118,1024,0,0,14,0,148.6,0,0,38,3.739,3.731,0,0,0,0,4.496,88.52,44.349372154088,1.312336,6,P-GPS,
8800,2022-08-11 22:58:20,-34.9227276002917,-56.1514140360632,1.312336,2.0013124,42.348059754088,44.349372154088,1.64042,0,1.04818572908,2.42995086516,21,5,7.465,44.349372154088,1.312336,0.223694,1.12019688624,0,0,0,138.1, 0.3, -0.1,0,0,1024,1024,1118,1024,0,0,14,0,148.6,0,0,38,3.739,3.731,0,0,0,0,4.496,88.52,44.349372154088,1.312336,6,P-GPS,
8900,2022-08-11 22:58:20,-34.9227274748138,-56.1514141156345,1.64042,2.0997376,42.577718554088,44.677456154088,1.64042,0,0.9992946514,2.48154863584,21,5,7.465,44.677456154088,1.64042,0.223694,1.12019688624,0,0,-0.223694,138.1, 0.6, -0.4,0,0,1024,1024,1024,1024,0,0,0,0,148.6,0,0,38,3.739,3.731,0,0,0,0,4.496,88.52,44.677456154088,1.64042,6,P-GPS,
9000,2022-08-11 22:58:20,-34.9227274381866,-56.1514141853254,1.64042,2.0997376,42.577718554088,44.677456154088,1.968504,0,0.97497706532,2.50631241616,21,5,7.471,44.677456154088,1.64042,0.223694,1.12019688624,0,0,-0.223694,138, 0.7, -0.7,0,0,1024,1024,1024,1024,0,0,0,0,148.6,0,0,38,3.736,3.728,0,0,0,0,4.37,88.52,44.677456154088,1.64042,6,P-GPS,"Punto de origen actualizado. Altitud de RPO establecida en 40m (Code: 3000001)"
9100,2022-08-11 22:58:20,-34.9227273815387,-56.1514142896878,1.64042,2.0997376,42.577718554088,44.677456154088,1.968504,0,0.93814963632,2.54375336224,21,5,7.471,44.677456154088,1.64042,0.223694,1.12019688624,0,0,-0.223694,138, 0.7, -0.7,0,0,1031,1024,1024,1024,1,0,0,0,148.6,0,0,38,3.736,3.728,0,0,0,0,4.37,88.52,44.677456154088,1.64042,6,P-GPS,
9200,2022-08-11 22:58:20,-34.9227273090484,-56.1514144247616,1.64042,2.0997376,42.577718554088,44.677456154088,1.968504,0,0.89077102588,2.59204732704,21,5,7.471,44.677456154088,1.64042,0.223694,1.12019688624,0,0,0,138, 0.3, -1,0,0,1261,1024,1024,1024,36,0,0,0,148.6,0,0,38,3.736,3.728,0,0,0,0,4.37,88.52,44.677456154088,1.64042,6,P-GPS,
9300,2022-08-11 22:58:20,-34.9227271731681,-56.15141455553,1.64042,2.0341208,42.643335354088,44.677456154088,1.968504,0,0.8281332286,2.65519693536,21,5,7.471,44.677456154088,1.64042,0.223694,1.12019688624,0,0,0,138, -0.2, -1,0,0,1684,1024,1024,1024,100,0,0,0,148.6,0,0,38,3.736,3.728,0,0,0,0,4.37,88.52,44.677456154088,1.64042,6,P-GPS,
9400,2022-08-11 22:58:20,-34.9227270840809,-56.1514146654328,1.64042,2.0341208,42.643335354088,44.677456154088,1.968504,0.223694,0.78190291216,2.70143053264,21,5,7.471,44.677456154088,1.64042,0.223694,1.12019688624,0,-0.223694,0,138.1, -5.2, -1.1,0,0,1684,1024,1024,1024,100,0,0,0,148.6,0,0,38,3.736,3.728,0,0,0,0,4.37,88.52,44.677456154088,1.64042,6,P-GPS,
9500,2022-08-11 22:58:20,-34.9227270853683,-56.1514147870953,1.64042,2.0341208,42.643335354088,44.677456154088,1.968504,0,0.75653873812,2.7378281716,21,5,7.471,44.677456154088,1.64042,0.223694,1.12019688624,0,0,0,138.2, -13.9, -1.2,0,0,1684,1024,1024,1024,100,0,0,0,148.6,0,0,38,3.736,3.728,0,0,0,0,4.37,88.52,44.677456154088,1.64042,6,P-GPS,
9600,2022-08-11 22:58:20,-34.9227272270389,-56.1514147930483,1.64042,2.0341208,42.643335354088,44.677456154088,1.968504,0.4921268,0.79339241384,2.78954733336,21,5,7.471,44.677456154088,1.64042,0.4921268,1.12019688624,-0.447388,0.223694,0,138.2, -17.5, -1.1,0,0,1684,1024,1024,1024,100,0,0,0,148.6,0,0,38,3.736,3.728,0,0,0,0,4.37,88.52,44.677456154088,1.64042,6,P-GPS,
9700,2022-08-11 22:58:21,-34.9227275716003,-56.1514145896386,1.64042,2.2309712,42.446484954088,44.677456154088,1.968504,1.11847,0.92876971476,2.92921269216,21,5,7.471,44.677456154088,1.64042,1.11847,1.12019688624,-0.894776,0.671082,0,138.2, -17.7, -1.1,0,0,1684,1024,1024,1024,100,0,0,0,148.6,0,0,38,3.736,3.728,0,0,0,0,4.37,88.52,44.677456154088,1.64042,6,P-GPS,
9800,2022-08-11 22:58:21,-34.9227283029409,-56.1514142999182,1.64042,2.3293964,42.348059754088,44.677456154088,1.968504,1.7448132,1.19497051068,3.20976388224,21,5,7.471,44.677456154088,1.64042,1.7448132,1.19497051068,-1.342164,1.11847,0,138.1, -17, -1.1,0,0,1684,1024,1024,1024,100,0,0,0,148.6,0,0,38,3.736,3.728,0,0,0,0,4.37,88.52,44.677456154088,1.64042,6,P-GPS,
9900,2022-08-11 22:58:21,-34.9227290064447,-56.1514136338828,1.64042,2.5590552,42.118400954088,44.677456154088,1.968504,2.3711564,1.5193734082,3.5346785908,21,5,7.471,44.677456154088,1.64042,2.3711564,1.5193734082,-1.789552,1.565858,0,138.1, -16.6, -1.2,0,0,1684,1024,1024,1024,100,0,0,0,148.6,0,0,38,3.736,3.728,0,0,0,0,4.37,88.52,44.677456154088,1.64042,6,P-GPS,
10000,2022-08-11 22:58:21,-34.9227299054539,-56.1514127302096,1.64042,2.8543308,41.823125354088,44.677456154088,1.968504,3.019869,1.94336948476,3.9597442212,21,5,7.462,44.677456154088,1.64042,3.019869,1.94336948476,-2.23694,2.013246,0,138.1, -16.4, -1.3,0,0,1684,1024,1024,1024,100,0,0,0,148.6,0,0,38,3.731,3.72,0,0,0,0,4.622,88.52,44.677456154088,1.64042,6,P-GPS,
10100,2022-08-11 22:58:21,-34.9227309650495,-56.1514115976232,1.64042,3.1496064,41.527849754088,44.677456154088,1.968504,3.4896264,2.4556759316,4.4737862324,21,5,7.462,44.677456154088,1.64042,3.4896264,2.4556759316,-2.684328,2.23694,0,138.1, -16.6, -1.2,0,0,1684,1024,1024,1024,100,0,0,0,148.6,0,0,38,3.731,3.72,0,0,0,0,4.622,88.52,44.677456154088,1.64042,6,P-GPS,
10200,2022-08-11 22:58:21,-34.9227324137051,-56.1514099457508,1.64042,3.5433072,41.134148954088,44.677456154088,1.968504,3.9817532,3.17613855308,5.197342686,21,5,7.462,44.677456154088,1.64042,3.9817532,3.17613855308,-3.131716,2.460634,0,137.5, -16.5, -1.2,0,0,1684,1024,1024,1024,100,0,0,0,148.6,0,0,38,3.731,3.72,0,0,0,0,4.622,88.52,44.677456154088,1.64042,6,P-GPS,
10300,2022-08-11 22:58:21,-34.9227338511165,-56.1514085070228,1.64042,4.0682416,40.609214554088,44.677456154088,2.296588,4.4291412,3.854494874,5.8757875896,21,5,7.462,44.677456154088,1.64042,4.4291412,3.854494874,-3.35541,2.908022,0,137.5, -16.6, -1.3,0,0,1684,1024,1024,1024,100,0,0,0,148.6,0,0,38,3.731,3.72,0,0,0,0,4.622,88.52,44.677456154088,1.64042,6,P-GPS,
10400,2022-08-11 22:58:21,-34.9227355250841,-56.1514068448233,1.64042,4.6916012,39.985854954088,44.677456154088,2.296588,4.921268,4.6420277076,6.6633532316,21,5,7.462,44.677456154088,1.64042,4.921268,4.6420277076,-3.802798,3.131716,0,137.9, -16.6, -1.3,0,0,1684,1024,1024,1024,100,0,0,0,148.6,0,0,38,3.731,3.72,0,0,0,0,4.622,88.52,44.677456154088,1.64042,6,P-GPS,
10500,2022-08-11 22:58:21,-34.9227372515551,-56.1514050772036,1.64042,5.0524936,39.624962554088,44.677456154088,2.296588,5.3910254,5.4642718284,7.4857942028,21,5,7.462,44.677456154088,1.64042,5.3910254,5.4642718284,-4.026492,3.579104,0,138, -16.7, -1.4,0,0,1684,1024,1024,1024,100,0,0,0,148.6,0,0,38,3.731,3.72,0,0,0,0,4.622,88.52,44.677456154088,1.64042,6,P-GPS,
10600,2022-08-11 22:58:21,-34.9227394172716,-56.1514027370169,1.64042,5.6758532,39.001602954088,44.677456154088,2.296588,5.704197,6.5189962716,8.5414700896,21,5,7.462,44.677456154088,1.64042,5.704197,6.5189962716,-4.250186,3.802798,0,138.2, -16.9, -1,0,0,1684,1024,1024,1024,100,0,0,0,148.6,0,0,38,3.731,3.72,0,0,0,0,4.622,88.52,44.677456154088,1.64042,6,P-GPS,
10700,2022-08-11 22:58:22,-34.9227413592408,-56.1514006071562,1.312336,5.9383204,38.411051754088,44.349372154088,2.296588,6.3305402,7.470964806,9.4943244508,21,5,7.462,44.677456154088,1.64042,6.3305402,7.470964806,-4.697574,4.250186,0,138.3, -17.1, -0.8,0,0,1684,1024,1024,1024,100,0,0,0,148.6,0,0,38,3.731,3.72,0,0,0,0,4.622,88.52,44.349372154088,1.312336,6,P-GPS,
10800,2022-08-11 22:58:22,-34.9227435257862,-56.1513982168598,1.312336,6.8569556,37.492416554088,44.349372154088,2.296588,6.6437118,8.5359910868,10.5602365584,21,5,7.462,44.677456154088,1.64042,6.6437118,8.5359910868,-4.921268,4.47388,0,138.2, -17.3, -0.8,0,0,1684,1024,1024,1024,100,0,0,0,148.6,0,0,38,3.731,3.72,0,0,0,0,4.622,88.52,44.349372154088,1.312336,6,P-GPS,
10900,2022-08-11 22:58:22,-34.9227457110245,-56.1513958586455,1.312336,7.4803152,36.869056954088,44.349372154088,2.296588,7.1358386,9.600229966,11.6248035216,21,5,7.462,44.677456154088,1.64042,7.1358386,9.600229966,-5.368656,4.697574,0,138.3, -17.3, -1,0,0,1684,1024,1024,1024,100,0,0,0,148.6,0,0,38,3.731,3.72,0,0,0,0,4.622,88.52,44.349372154088,1.312336,6,P-GPS,
11000,2022-08-11 22:58:22,-34.922748147294,-56.151393097923,1.312336,8.1692916,36.180080554088,44.349372154088,2.296588,7.605596,10.8122706872,12.8381237704,21,5,7.444,44.677456154088,1.64042,7.605596,10.8122706872,-5.59235,5.144962,0,138.3, -17.2, -1,0,0,1684,1024,1024,1024,100,0,0,0,148.6,0,0,38,3.728,3.719,0,0,0,0,4.817,88.52,44.349372154088,1.312336,6,P-GPS,
11100,2022-08-11 22:58:22,-34.9227505930361,-56.1513904309316,1.312336,9.0879268,35.261445354088,44.349372154088,2.296588,8.0753534,12.0089570772,14.035105436,21,5,7.444,44.677456154088,1.64042,8.0753534,12.0089570772,-6.039738,5.368656,0,138.4, -16.9, -1,0,0,1684,1024,1024,1024,100,0,0,0,148.6,0,0,38,3.728,3.719,0,0,0,0,4.817,88.52,44.349372154088,1.312336,6,P-GPS,
11200,2022-08-11 22:58:22,-34.9227532891108,-56.1513874768933,1.312336,9.7112864,34.638085754088,44.349372154088,2.296588,8.388525,13.3309387468,15.3574151896,21,5,7.444,44.677456154088,1.64042,8.388525,13.3309387468,-6.263432,5.59235,0,138.5, -16.9, -1.1,0,0,1684,1024,1024,1024,100,0,0,0,148.6,0,0,38,3.728,3.719,0,0,0,0,4.817,88.52,44.349372154088,1.312336,6,P-GPS,
11300,2022-08-11 22:58:22,-34.9227559186179,-56.1513845574814,1.312336,10.498688,33.850684154088,44.349372154088,2.296588,8.7016966,14.6278219904,16.6547905592,21,5,7.444,44.677456154088,1.64042,8.7016966,14.6278219904,-6.487126,5.816044,0,138.5, -16.8, -0.9,0,0,1684,1024,1024,1024,100,0,0,0,148.6,0,0,38,3.728,3.719,0,0,0,0,4.817,88.52,44.349372154088,1.312336,6,P-GPS,
11400,2022-08-11 22:58:22,-34.922758775876,-56.1513813779276,1.312336,11.3517064,32.997665754088,44.349372154088,2.624672,9.0372376,16.038550382,18.0659782684,21,5,7.444,44.677456154088,1.64042,9.0372376,16.038550382,-6.71082,6.039738,0,138.3, -16.7, -0.9,0,0,1684,1024,1024,1024,100,0,0,0,148.6,0,0,38,3.728,3.719,0,0,0,0,4.817,88.52,44.349372154088,1.312336,6,P-GPS,
11500,2022-08-11 22:58:22,-34.9227615459797,-56.1513780846809,1.312336,12.1719164,32.177455754088,44.349372154088,2.624672,9.3504092,17.447835204,19.477362828,21,5,7.444,44.677456154088,1.64042,9.3504092,17.447835204,-6.934514,6.263432,0,138.3, -16.6, -0.9,0,0,1684,1024,1024,1024,100,0,0,0,148.6,0,0,38,3.728,3.719,0,0,0,0,4.817,88.52,44.349372154088,1.312336,6,P-GPS,
11600,2022-08-11 22:58:23,-34.9227646272075,-56.1513747289991,1.312336,12.9921264,31.357245754088,44.349372154088,2.624672,9.6635808,18.9549218664,20.9845151072,21,5,7.444,44.677456154088,1.64042,9.6635808,18.9549218664,-7.158208,6.487126,0,138.4, -16.6, -0.8,0,0,1684,1024,1024,1024,100,0,0,0,148.6,0,0,38,3.728,3.719,0,0,0,0,4.817,88.52,44.349372154088,1.312336,6,P-GPS,
11700,2022-08-11 22:58:23,-34.9227676221505,-56.1513714196825,1.312336,13.8779532,30.471418954088,44.349372154088,2.624672,9.9767524,20.4292329372,22.45899022,21,5,7.444,44.677456154088,1.64042,9.9767524,20.4292329372,-7.381902,6.71082,0,138.4, -16.5, -0.8,0,0,1684,1024,1024,1024,100,0,0,0,148.6,0,0,38,3.728,3.719,0,0,0,0,4.817,88.52,44.349372154088,1.312336,6,P-GPS,
11800,2022-08-11 22:58:23,-34.9227708498828,-56.1513678340498,1.312336,14.6653548,29.684017354088,44.349372154088,2.624672,10.289924,22.0219167152,24.0519036568,21,5,7.444,44.677456154088,1.64042,10.289924,22.0219167152,-7.605596,6.934514,0,138.3, -16.6, -0.6,0,0,1684,1024,1024,1024,100,0,0,0,148.6,0,0,38,3.728,3.719,0,0,0,0,4.817,88.52,44.349372154088,1.312336,6,P-GPS,
11900,2022-08-11 22:58:23,-34.9227739648714,-56.1513641392666,0.984252,15.1902892,28.830998954088,44.021288154088,2.624672,10.4688792,23.6055125664,25.6372383532,21,5,7.444,44.677456154088,1.64042,10.4688792,23.6055125664,-7.82929,6.934514,0,138.2, -16.6, -0.6,0,0,1684,1024,1024,1024,100,0,0,0,148.6,0,0,38,3.728,3.719,0,0,0,0,4.817,88.52,44.021288154088,0.984252,6,P-GPS,
12000,2022-08-11 22:58:23,-34.9227774337047,-56.1513602904253,0.984252,16.0433076,27.977980554088,44.021288154088,2.624672,10.9162672,25.3163722012,27.3481964132,21,5,7.436,44.677456154088,1.64042,10.9162672,25.3163722012,-8.052984,7.381902,0,138.3, -16.4, -0.6,0,0,1684,1024,1024,1024,100,0,0,0,148.6,0,0,38,3.725,3.715,0,0,0,0,4.723,88.52,44.021288154088,0.984252,6,P-GPS,
12100,2022-08-11 22:58:23,-34.9227808953597,-56.1513565093061,0.984252,16.4698168,27.551471354088,44.021288154088,2.952756,11.0952224,27.011811888,29.0436361,21,5,7.436,44.677456154088,1.64042,11.0952224,27.011811888,-8.276678,7.381902,0,138.2, -16.4, -0.7,0,0,1684,1024,1024,1024,100,0,0,0,148.6,0,0,38,3.725,3.715,0,0,0,0,4.723,88.52,44.021288154088,0.984252,6,P-GPS,
12200,2022-08-11 22:58:23,-34.9227846276785,-56.1513524525236,0.984252,16.8307092,27.190578954088,44.021288154088,3.28084,11.408394,28.8358605028,30.8676847148,21,5,7.436,44.677456154088,1.64042,11.408394,28.8358605028,-8.500372,7.605596,0,138.2, -16.2, -0.5,0,0,1684,1024,1024,1024,100,0,0,0,148.6,0,0,38,3.725,3.715,0,0,0,0,4.723,88.52,44.021288154088,0.984252,6,P-GPS,
12300,2022-08-11 22:58:23,-34.9227881932413,-56.1513485193837,0.984252,17.0275596,26.993728554088,44.021288154088,3.608924,11.7215656,30.5898631836,32.621720204,21,5,7.436,44.677456154088,1.64042,11.7215656,30.5898631836,-8.724066,7.82929,0,138.2, -16, -0.5,0,0,1520,1024,1024,1024,75,0,0,0,148.6,0,0,38,3.725,3.715,0,0,0,0,4.723,88.52,44.021288154088,0.984252,6,P-GPS,
12400,2022-08-11 22:58:23,-34.9227919107444,-56.1513444207445,0.984252,17.388452,26.632836154088,44.021288154088,3.608924,12.0347372,32.4181768904,34.450132336,21,5,7.436,44.677456154088,1.64042,12.0347372,32.4181768904,-8.94776,8.052984,0,138.2, -15.4, -0.2,0,0,1024,1024,1024,1024,0,0,0,0,148.6,0,0,38,3.725,3.715,0,0,0,0,4.723,88.52,44.021288154088,0.984252,6,P-GPS,
12500,2022-08-11 22:58:23,-34.9227955385398,-56.1513403995602,0.984252,17.6509192,26.370368954088,44.021288154088,3.608924,12.0347372,34.206694008,36.23851822,21,5,7.436,44.677456154088,1.64042,12.0347372,34.206694008,-8.94776,8.052984,0,138.1, -6.8, -0.6,0,0,1024,1024,1024,1024,0,0,0,0,148.6,0,0,38,3.725,3.715,0,0,0,0,4.723,88.52,44.021288154088,0.984252,6,P-GPS,
12600,2022-08-11 22:58:24,-34.9227993448648,-56.1513361817034,0.656168,17.5853024,26.107901754088,43.693204154088,3.608924,11.7215656,36.083006404,38.1151587,21,5,7.436,44.677456154088,1.64042,12.0347372,36.083006404,-8.724066,7.82929,0,137.7, 19.5, -0.1,0,0,1024,1024,1024,1024,0,0,0,0,148.6,0,0,38,3.725,3.715,0,0,0,0,4.723,88.52,43.693204154088,0.656168,6,P-GPS,
12700,2022-08-11 22:58:24,-34.9228025490955,-56.1513323770175,0.656168,17.880578,25.812626154088,43.693204154088,3.608924,10.6030956,37.7132558,39.746720432,21,5,7.436,44.677456154088,1.64042,12.0347372,37.7132558,-7.82929,7.158208,-0.223694,138.1, 20.2, 1.8,0,0,1024,1024,1024,1024,0,0,0,0,148.6,0,0,38,3.725,3.715,0,0,0,0,4.723,88.52,43.693204154088,0.656168,6,P-GPS,
12800,2022-08-11 22:58:24,-34.9228057654026,-56.1513288494524,0.656168,18.0774284,25.615775754088,43.693204154088,3.608924,9.4846256,39.29133984,41.324804472,21,5,7.436,44.677456154088,1.64042,12.0347372,39.29133984,-6.934514,6.487126,-0.223694,138.1, 19.8, 1.3,0,0,1024,1024,1024,1024,0,0,0,0,148.6,0,0,38,3.725,3.715,0,0,0,0,4.723,88.52,43.693204154088,0.656168,6,P-GPS,
12900,2022-08-11 22:58:24,-34.9228085166783,-56.1513257139469,0.328084,17.9461948,25.418925354088,43.365120154088,11.48294,8.5451108,40.664699464,42.69849218,21,5,7.436,44.677456154088,1.64042,12.0347372,40.664699464,-6.263432,5.816044,0,137.9, 20.5, 0.3,0,0,1024,1024,1024,1024,0,0,0,0,148.6,0,0,38,3.725,3.715,0,0,0,0,4.723,88.52,43.365120154088,0.328084,6,P-GPS,
13000,2022-08-11 22:58:24,-34.9228111351707,-56.1513226989964,0.328084,18.1102368,25.254883354088,43.365120154088,11.811024,7.7621818,41.9783478,44.0124686,21,5,7.436,44.677456154088,1.64042,12.0347372,41.9783478,-5.816044,5.144962,0,137.5, 22, 0.2,0,0,1024,1024,1024,1024,0,0,0,0,148.6,0,0,38,3.725,3.715,0,0,0,0,4.723,88.52,43.365120154088,0.328084,6,P-GPS,
13100,2022-08-11 22:58:24,-34.9228134138198,-56.1513203441831,0.328084,18.3070872,25.058032954088,43.365120154088,12.139108,6.6660812,43.06758668,45.102035564,21,5,7.438,44.677456154088,1.64042,12.0347372,43.06758668,-5.144962,4.250186,0.223694,137.3, 21.9, -1.5,0,0,1024,1024,1024,1024,0,0,0,0,148.6,0,0,38,3.732,3.725,0,0,0,0,4.599,88.52,43.365120154088,0.328084,6,P-GPS,
13200,2022-08-11 22:58:24,-34.9228153838006,-56.1513182757427,0.328084,18.4383208,24.926799354088,43.365120154088,12.139108,5.5476112,44.01574944,46.050526408,21,5,7.438,44.677456154088,1.64042,12.0347372,44.01574944,-4.250186,3.579104,0.223694,136.6, 20.4, -2.9,0,0,1024,1024,1024,1024,0,0,0,0,148.6,0,0,38,3.732,3.725,0,0,0,0,4.599,88.52,43.365120154088,0.328084,6,P-GPS,
13300,2022-08-11 22:58:24,-34.9228169364503,-56.1513168991821,0.328084,18.5039376,24.861182554088,43.365120154088,12.139108,4.7646822,44.712271772,46.750985748,21,5,7.438,44.677456154088,1.64042,12.0347372,44.712271772,-3.579104,3.131716,0,137.3, 17.1, -1.2,0,0,1024,1024,1024,1024,0,0,0,0,148.6,0,0,38,3.732,3.725,0,0,0,0,4.599,88.52,43.365120154088,0.328084,6,P-GPS,
13400,2022-08-11 22:58:24,-34.9228182393879,-56.1513158438089,0.328084,18.5695544,24.795565754088,43.365120154088,12.467192,3.9817532,45.27723242,47.321523824,21,5,7.438,44.677456154088,1.64042,12.0347372,45.27723242,-3.131716,2.460634,0,137.6, 16.2, -1,0,0,1024,1024,1024,1024,0,0,0,0,148.6,0,0,38,3.732,3.725,0,0,0,0,4.599,88.52,43.365120154088,0.328084,6,P-GPS,
13500,2022-08-11 22:58:24,-34.9228192283615,-56.1513150891858,0.328084,18.6351712,24.729948954088,43.365120154088,12.467192,3.1764548,45.696851856,47.747048772,21,5,7.438,44.677456154088,1.64042,12.0347372,45.696851856,-2.460634,2.013246,0,137.6, 16.4, -1.5,0,0,1024,1024,1024,1024,0,0,0,0,148.6,0,0,38,3.732,3.725,0,0,0,0,4.599,88.52,43.365120154088,0.328084,6,P-GPS,
13600,2022-08-11 22:58:25,-34.922819433845,-56.1513156908113,0.328084,18.6023628,24.762757354088,43.365120154088,12.467192,2.4158952,45.633859728,47.942258752,21,5,7.438,44.677456154088,1.64042,12.0347372,45.696851856,-2.013246,1.342164,0,137.5, 16.6, -2,0,0,1024,1024,1024,1024,0,0,0,0,148.6,0,0,38,3.732,3.725,0,0,0,0,4.599,88.52,43.365120154088,0.328084,6,P-GPS,
13700,2022-08-11 22:58:25,-34.9228200029341,-56.1513153255939,0.656168,18.9960636,24.697140554088,43.693204154088,12.467192,1.8119214,45.861878108,48.176838812,21,5,7.438,44.677456154088,1.64042,12.0347372,45.861878108,-1.565858,0.894776,0,137.7, 13.5, -2.1,0,0,1024,1024,1024,1024,0,0,0,0,148.6,0,0,38,3.732,3.725,0,0,0,0,4.599,88.52,43.693204154088,0.656168,6,P-GPS,
13800,2022-08-11 22:58:25,-34.9228204203694,-56.1513150989238,0.656168,18.9960636,24.697140554088,43.693204154088,12.795276,1.2974252,46.020998848,48.343505484,21,5,7.438,44.677456154088,1.64042,12.0347372,46.020998848,-1.11847,0.671082,0,138, 9.9, -2,0,0,1024,1024,1024,1023,0,0,0,-0,148.6,0,0,38,3.732,3.725,0,0,0,0,4.599,88.52,43.693204154088,0.656168,6,P-GPS,
13900,2022-08-11 22:58:25,-34.9228207437133,-56.1513150920905,0.656168,19.028872,24.664332154088,43.693204154088,12.795276,1.006623,46.111221948,48.461615724,21,5,7.438,44.677456154088,1.64042,12.0347372,46.111221948,-0.894776,0.447388,0,138.1, 7.2, -1.9,0,0,1024,1024,1024,460,0,0,0,-85,148.6,0,0,38,3.732,3.725,0,0,0,0,4.599,88.52,43.693204154088,0.656168,6,P-GPS,
14000,2022-08-11 22:58:25,-34.9228209254997,-56.1513156610853,0.656168,18.9632552,24.729948954088,43.693204154088,12.795276,0.671082,46.049214072,48.644030428,21,5,7.438,44.677456154088,1.64042,12.0347372,46.111221948,-0.671082,0,0,138.2, 5.4, -1.9,0,0,1024,1024,1051,364,0,0,4,-100,148.4,0,0,38,3.732,3.725,0,0,0,0,4.599,88.52,43.693204154088,0.656168,6,P-GPS,
14100,2022-08-11 22:58:25,-34.9228211928642,-56.1513158813818,0.656168,18.9632552,24.729948954088,43.693204154088,12.795276,0.671082,46.080053968,48.761812584,21,5,7.417,44.677456154088,1.64042,12.0347372,46.111221948,-0.671082,0,0,137.6, 3.9, -1.9,0,0,1024,1024,1051,364,0,0,4,-100,146.3,0,0,38,3.721,3.713,0,0,0,0,4.733,88.52,43.693204154088,0.656168,6,P-GPS,
14200,2022-08-11 22:58:25,-34.9228214428629,-56.1513161704191,0.656168,18.9632552,24.729948954088,43.693204154088,12.467192,0.447388,46.092849244,48.887468756,21,5,7.417,44.677456154088,1.64042,12.0347372,46.111221948,-0.447388,0,0,134.4, 3, -2.2,0,0,1024,1024,1051,364,0,0,4,-100,142.1,0,0,38,3.721,3.713,0,0,0,0,4.733,88.52,43.693204154088,0.656168,6,P-GPS,
14300,2022-08-11 22:58:25,-34.9228217040393,-56.1513163794834,0.656168,18.9960636,24.697140554088,43.693204154088,12.467192,0.447388,46.124345308,49.001641988,21,5,7.417,44.677456154088,1.64042,12.0347372,46.124345308,-0.447388,0,0,129.9, 2.3, -2.6,0,0,1024,1024,1042,364,0,0,3,-100,137.4,0,0,38,3.721,3.713,0,0,0,0,4.733,88.52,43.693204154088,0.656168,6,P-GPS,
14400,2022-08-11 22:58:25,-34.9228224172131,-56.1513166627845,0.656168,18.9632552,24.729948954088,43.693204154088,12.467192,0.447388,46.267718016,49.275264044,21,5,7.417,44.677456154088,1.64042,12.0347372,46.267718016,-0.447388,0,0,125.3, 1.5, -2.6,0,0,1024,1024,1024,364,0,0,0,-100,132.7,0,0,38,3.721,3.713,0,0,0,0,4.733,88.52,43.693204154088,0.656168,6,P-GPS,
14500,2022-08-11 22:58:25,-34.9228226545881,-56.1513168049783,0.656168,18.9960636,24.697140554088,43.693204154088,12.467192,0.223694,46.306431928,49.37172074,21,5,7.417,44.677456154088,1.64042,12.0347372,46.306431928,-0.223694,0,0,120.5, 1.1, -2.7,0,0,1024,1024,1024,364,0,0,0,-100,127.9,0,0,38,3.721,3.713,0,0,0,0,4.733,88.52,43.693204154088,0.656168,6,P-GPS,
14600,2022-08-11 22:58:26,-34.9228228767469,-56.1513169494186,0.656168,18.9960636,24.697140554088,43.693204154088,12.467192,0.3131716,46.340552664,49.46358426,21,5,7.417,44.677456154088,1.64042,12.0347372,46.340552664,-0.223694,-0.223694,0,115.8, 0.4, -2.6,0,0,1024,1024,1024,364,0,0,0,-100,123.1,0,0,38,3.721,3.713,0,0,0,0,4.733,88.52,43.693204154088,0.656168,6,P-GPS,
14700,2022-08-11 22:58:26,-34.9228230406596,-56.1513169707127,0.656168,18.9960636,24.697140554088,43.693204154088,12.139108,0.3131716,46.382547416,49.523623632,21,5,7.417,44.677456154088,1.64042,12.0347372,46.382547416,-0.223694,-0.223694,0,111, 0, -3.3,0,0,1024,1024,1024,364,0,0,0,-100,118.3,0,0,38,3.721,3.713,0,0,0,0,4.733,88.52,43.693204154088,0.656168,6,P-GPS,
14800,2022-08-11 22:58:26,-34.9228231587283,-56.1513169759578,0.656168,18.9960636,24.697140554088,43.693204154088,12.139108,0.3131716,46.414371564,49.56693072,21,5,7.417,44.677456154088,1.64042,12.0347372,46.414371564,-0.223694,-0.223694,0,106.2, -0.4, -3.7,0,0,1024,1024,1024,364,0,0,0,-100,113.5,0,0,38,3.721,3.713,0,0,0,0,4.733,88.52,43.693204154088,0.656168,6,P-GPS,
14900,2022-08-11 22:58:26,-34.9228236241832,-56.1513164044658,0.328084,18.700788,24.664332154088,43.365120154088,12.139108,0.3131716,46.654529052,49.807744376,21,5,7.417,44.677456154088,1.64042,12.0347372,46.654529052,0,-0.223694,0,101.6, -1.9, -4.4,0,0,1024,1024,1024,364,0,0,0,-100,108.7,0,0,38,3.721,3.713,0,0,0,0,4.733,88.52,43.365120154088,0.328084,6,P-GPS,
15000,2022-08-11 22:58:26,-34.9228236757397,-56.1513163994401,0.328084,18.700788,24.664332154088,43.365120154088,12.139108,0.223694,46.669949,49.826773248,21,5,7.417,44.677456154088,1.64042,12.0347372,46.669949,0,-0.223694,0,96.9, -2.6, -3,0,0,1024,1024,1024,364,0,0,0,-100,103.9,0,0,38,3.721,3.713,0,0,0,0,4.733,88.52,43.365120154088,0.328084,6,P-GPS,
15100,2022-08-11 22:58:26,-34.9228236819278,-56.1513164043718,0.328084,18.700788,24.664332154088,43.365120154088,12.139108,0.223694,46.670605168,49.82939792,21,5,7.431,44.677456154088,1.64042,12.0347372,46.670605168,0,-0.223694,0,92.1, -3.1, -2.5,0,0,1024,1024,1024,364,0,0,0,-100,99.1,0,0,38,3.718,3.709,0,0,0,0,4.504,88.52,43.365120154088,0.328084,6,P-GPS,
15200,2022-08-11 22:58:26,-34.9228236632137,-56.1513164049987,0.328084,18.700788,24.664332154088,43.365120154088,12.139108,0.223694,46.665355824,49.836287684,21,5,7.431,44.677456154088,1.64042,12.0347372,46.670605168,0,-0.223694,0,87.4, -3.9, -2.1,0,0,1024,1024,1024,364,0,0,0,-100,94.3,0,0,38,3.718,3.709,0,0,0,0,4.504,88.52,43.365120154088,0.328084,6,P-GPS,
15300,2022-08-11 22:58:26,-34.922823842069,-56.1513162901904,0.328084,18.700788,24.664332154088,43.365120154088,12.139108,0.223694,46.73720622,49.9097785,21,5,7.431,44.677456154088,1.64042,12.0347372,46.73720622,0,-0.223694,0,82.5, -4, -1.7,0,0,1024,1024,1024,364,0,0,0,-100,89.5,0,0,38,3.718,3.709,0,0,0,0,4.504,88.52,43.365120154088,0.328084,6,P-GPS,
15400,2022-08-11 22:58:26,-34.9228238457949,-56.1513163900573,0.328084,18.700788,24.664332154088,43.365120154088,11.811024,0.223694,46.7191616,49.939634144,21,5,7.431,44.677456154088,1.64042,12.0347372,46.73720622,0,-0.223694,0,77.7, -3.9, -1.3,0,0,1024,1024,1024,364,0,0,0,-100,84.7,0,0,38,3.718,3.709,0,0,0,0,4.504,88.52,43.365120154088,0.328084,6,P-GPS,
15500,2022-08-11 22:58:26,-34.9228238034423,-56.1513165651118,0.328084,18.6679796,24.697140554088,43.365120154088,12.139108,0.223694,46.673886008,49.994424172,21,5,7.431,44.677456154088,1.64042,12.0347372,46.73720622,0,-0.223694,0,72.9, -4.1, -0.9,0,0,1024,1024,1024,364,0,0,0,-100,79.9,0,0,38,3.718,3.709,0,0,0,0,4.504,88.52,43.365120154088,0.328084,6,P-GPS,
15600,2022-08-11 22:58:26,-34.9228237354515,-56.151316757563,0.328084,18.6679796,24.697140554088,43.365120154088,11.811024,0,46.617783644,50.057088216,21,5,7.431,44.677456154088,1.64042,12.0347372,46.73720622,0,0,0,68.1, -3.9, -0.4,0,0,1024,1024,1024,364,0,0,0,-100,75.1,0,0,38,3.718,3.709,0,0,0,0,4.504,88.52,43.365120154088,0.328084,6,P-GPS,
15700,2022-08-11 22:58:27,-34.9228237827741,-56.1513173991854,0.328084,18.6679796,24.697140554088,43.365120154088,11.811024,0,46.508531672,50.249673524,21,5,7.431,44.677456154088,1.64042,12.0347372,46.73720622,0,0,0,63.3, -4, -0.1,0,0,1024,1024,1024,364,0,0,0,-100,70.3,0,0,38,3.718,3.709,0,0,0,0,4.504,88.52,43.365120154088,0.328084,6,P-GPS,
15800,2022-08-11 22:58:27,-34.9228237896917,-56.1513174955521,0.328084,18.6679796,24.697140554088,43.365120154088,11.811024,0,46.492127472,50.278873,21,5,7.431,44.677456154088,1.64042,12.0347372,46.73720622,0,0,0,58.5, -3.9, 0.6,0,0,1024,1024,1024,364,0,0,0,-100,65.5,0,0,38,3.718,3.709,0,0,0,0,4.504,88.52,43.365120154088,0.328084,6,P-GPS,
15900,2022-08-11 22:58:27,-34.9228237715443,-56.1513174658156,0.328084,18.6679796,24.697140554088,43.365120154088,11.811024,0,46.492455556,50.289699772,21,5,7.431,44.677456154088,1.64042,12.0347372,46.73720622,0,0,0,53.7, -3.8, 0.9,0,0,1024,1024,1024,364,0,0,0,-100,60.7,0,0,38,3.718,3.709,0,0,0,0,4.504,88.52,43.365120154088,0.328084,6,P-GPS,
16000,2022-08-11 22:58:27,-34.9228237465705,-56.1513173714969,0.328084,18.6679796,24.697140554088,43.365120154088,11.811024,0,46.503610412,50.319555416,21,5,7.431,44.677456154088,1.64042,12.0347372,46.73720622,0,0,0,48.9, -3.8, 0.9,0,0,1024,1024,1024,364,0,0,0,-100,55.9,0,0,38,3.718,3.709,0,0,0,0,4.504,88.52,43.365120154088,0.328084,6,P-GPS,
16100,2022-08-11 22:58:27,-34.9228235538735,-56.1513170559308,0.328084,18.6679796,24.697140554088,43.365120154088,11.811024,0,46.509844008,50.437337572,21,5,7.421,44.677456154088,1.64042,12.0347372,46.73720622,0,0,0,44.1, -3.5, 1.3,0,0,1024,1024,1024,630,0,0,0,-60,51.1,0,0,37,3.718,3.707,0,0,0,0,4.584,88.52,43.365120154088,0.328084,6,P-GPS,
16200,2022-08-11 22:58:27,-34.9228234700998,-56.1513169380611,0.328084,18.6679796,24.697140554088,43.365120154088,11.811024,0.223694,46.508859756,50.4839255,21,5,7.421,44.677456154088,1.64042,12.0347372,46.73720622,0.223694,0,0,39.3, -2.6, 1.9,0,0,1024,1024,1024,928,0,0,0,-15,46.4,0,0,37,3.718,3.707,0,0,0,0,4.584,88.52,43.365120154088,0.328084,6,P-GPS,
16300,2022-08-11 22:58:27,-34.9228233978425,-56.1513168558835,0.328084,18.6679796,24.697140554088,43.365120154088,11.811024,0,46.50426658,50.52001474,21,5,7.421,44.677456154088,1.64042,12.0347372,46.73720622,0,0,0,35.1, -2.5, 1.6,0,0,1024,1024,1024,928,0,0,0,-15,43.3,0,0,37,3.718,3.707,0,0,0,0,4.584,88.52,43.365120154088,0.328084,6,P-GPS,
16400,2022-08-11 22:58:27,-34.9228233330956,-56.1513167808736,0.328084,18.6679796,24.697140554088,43.365120154088,11.811024,0,46.500657656,50.552495056,21,5,7.421,44.677456154088,1.64042,12.0347372,46.73720622,0,0,0,32.8, -2.4, 1.8,0,0,1024,1024,1024,1024,0,0,0,0,42.3,0,0,37,3.718,3.707,0,0,0,0,4.584,88.52,43.365120154088,0.328084,6,P-GPS,
16500,2022-08-11 22:58:27,-34.922823282249,-56.1513166790424,0.328084,18.6679796,24.697140554088,43.365120154088,11.811024,0,46.505907,50.588256212,21,5,7.421,44.677456154088,1.64042,12.0347372,46.73720622,0,0,0,32, -2.4, 1.8,0,0,1024,1024,1024,1024,0,0,0,0,41.8,0,0,37,3.718,3.707,0,0,0,0,4.584,88.52,43.365120154088,0.328084,6,P-GPS,
16600,2022-08-11 22:58:27,-34.922823147225,-56.1513165511212,0.328084,18.6679796,24.697140554088,43.365120154088,11.811024,0,46.49278364,50.650592172,21,5,7.421,44.677456154088,1.64042,12.0347372,46.73720622,0,0,0,31.7, -2, 2,0,0,1024,1024,1024,555,0,0,0,-71,41.7,0,0,37,3.718,3.707,0,0,0,0,4.584,88.52,43.365120154088,0.328084,6,P-GPS,
16700,2022-08-11 22:58:28,-34.9228230740948,-56.1513163197179,0.328084,18.700788,24.664332154088,43.365120154088,11.811024,0,46.517061856,50.724739156,21,5,7.421,44.677456154088,1.64042,12.0347372,46.73720622,0,0,0,31.5, -2, 1.7,0,0,1024,1024,1024,364,0,0,0,-100,41.5,0,0,37,3.718,3.707,0,0,0,0,4.584,88.52,43.365120154088,0.328084,6,P-GPS,
16800,2022-08-11 22:58:28,-34.9228229940731,-56.1513160311926,0.328084,18.700788,24.664332154088,43.365120154088,11.811024,0,46.550526424,50.815946508,21,5,7.421,44.677456154088,1.64042,12.0347372,46.73720622,0,0,0,30.6, -1.8, 1.8,0,0,1024,1024,1024,364,0,0,0,-100,39.2,0,0,37,3.718,3.707,0,0,0,0,4.584,88.52,43.365120154088,0.328084,6,P-GPS,
16900,2022-08-11 22:58:28,-34.9228229365955,-56.1513158042927,0.328084,18.700788,24.664332154088,43.365120154088,11.811024,0.223694,46.578413564,50.886812652,21,5,7.421,44.677456154088,1.64042,12.0347372,46.73720622,0,0.223694,0,27.3, -1.5, 1.4,0,0,1024,1024,1024,364,0,0,0,-100,34.9,0,0,37,3.718,3.707,0,0,0,0,4.584,88.52,43.365120154088,0.328084,6,P-GPS,
17000,2022-08-11 22:58:28,-34.9228226953318,-56.1513153547244,0.328084,18.7335964,24.631523754088,43.365120154088,11.811024,0.223694,46.598426688,51.047573812,21,5,7.421,44.677456154088,1.64042,12.0347372,46.73720622,0,0.223694,0,22.8, -1.2, 1,0,0,1024,1024,1024,364,0,0,0,-100,30.1,0,0,37,3.718,3.707,0,0,0,0,4.584,88.52,43.365120154088,0.328084,6,P-GPS,
17100,2022-08-11 22:58:28,-34.9228226588742,-56.1513151703081,0.328084,18.7335964,24.631523754088,43.365120154088,11.811024,0.223694,46.624345324,51.104332344,21,5,7.421,44.677456154088,1.64042,12.0347372,46.73720622,0,0.223694,0,18.1, -1.3, 0.6,0,0,1024,1024,1024,364,0,0,0,-100,25.3,0,0,37,3.718,3.707,0,0,0,0,4.584,88.52,43.365120154088,0.328084,6,P-GPS,
17200,2022-08-11 22:58:28,-34.9228226358284,-56.1513149970717,0.656168,19.0616804,24.631523754088,43.693204154088,11.811024,0,46.651576296,51.156825784,21,5,7.421,44.677456154088,1.64042,12.0347372,46.73720622,0,0,0,13.3, -1.6, 0.3,0,0,1024,1024,1024,364,0,0,0,-100,20.5,0,0,37,3.714,3.702,0,0,0,0,4.506,88.52,43.693204154088,0.656168,6,P-GPS,
17300,2022-08-11 22:58:28,-34.9228226062038,-56.1513147924689,0.656168,19.0616804,24.631523754088,43.693204154088,12.139108,0,46.683400444,51.219161744,21,5,7.421,44.677456154088,1.64042,12.0347372,46.73720622,0,0,0,8.6, -1.5, 0.6,0,0,1024,1024,1024,364,0,0,0,-100,15.7,0,0,37,3.714,3.702,0,0,0,0,4.506,88.52,43.693204154088,0.656168,6,P-GPS,
17400,2022-08-11 22:58:28,-34.9228224459974,-56.1513144984372,0.656168,19.0616804,24.631523754088,43.693204154088,12.139108,0,46.696523804,51.324476708,21,5,7.421,44.677456154088,1.64042,12.0347372,46.73720622,0,0,0,3.8, -1, 0.7,0,0,1024,1024,1024,364,0,0,0,-100,10.9,0,0,37,3.714,3.702,0,0,0,0,4.506,88.52,43.693204154088,0.656168,6,P-GPS,
17500,2022-08-11 22:58:28,-34.922822449795,-56.1513142674519,0.656168,19.0616804,24.631523754088,43.693204154088,12.139108,0,46.742783648,51.393702432,21,5,7.421,44.677456154088,1.64042,12.0347372,46.742783648,0,0,0,359.2, -0.7, 1,0,0,1024,1024,1024,364,0,0,0,-100,6.1,0,0,37,3.714,3.702,0,0,0,0,4.506,88.52,43.693204154088,0.656168,6,P-GPS,
17600,2022-08-11 22:58:29,-34.9228224752052,-56.1513140241059,0.656168,19.0616804,24.631523754088,43.693204154088,12.139108,0,46.797245592,51.467193248,21,5,7.421,44.677456154088,1.64042,12.0347372,46.797245592,0,0,0,354.3, -1, 1.4,0,0,1024,1024,1024,437,0,0,0,-89,1.3,0,0,37,3.714,3.702,0,0,0,0,4.506,88.52,43.693204154088,0.656168,6,P-GPS,
17700,2022-08-11 22:58:29,-34.9228224923039,-56.1513138822673,0.656168,19.0616804,24.631523754088,43.693204154088,12.139108,0,46.829725908,51.509844168,21,5,7.421,44.677456154088,1.64042,12.0347372,46.829725908,0,0,0,349.4, -0.8, 1.4,0,0,1024,1024,1024,1024,0,0,0,0,356.7,0,0,37,3.714,3.702,0,0,0,0,4.506,88.52,43.693204154088,0.656168,6,P-GPS,
17800,2022-08-11 22:58:29,-34.9228224625099,-56.1513136522955,0.656168,19.0616804,24.631523754088,43.693204154088,12.139108,0,46.8667994,51.57972606,21,5,7.421,44.677456154088,1.64042,12.0347372,46.8667994,0,0,0,345.1, -0.5, 1.3,0,0,1024,1024,1024,1024,0,0,0,0,353.5,0,0,37,3.714,3.702,0,0,0,0,4.506,88.52,43.693204154088,0.656168,6,P-GPS,
17900,2022-08-11 22:58:29,-34.9228224671998,-56.1513136070012,0.984252,19.3897644,24.631523754088,44.021288154088,12.139108,0,46.876970004,51.593177504,21,5,7.421,44.677456154088,1.64042,12.0347372,46.876970004,0,0,0,342.8, -0.5, 0.7,0,0,1024,1024,1024,1024,0,0,0,0,352.2,0,0,37,3.714,3.702,0,0,0,0,4.506,88.52,44.021288154088,0.984252,6,P-GPS,
18000,2022-08-11 22:58:29,-34.9228224732967,-56.1513135980886,0.984252,19.3897644,24.631523754088,44.021288154088,12.139108,0,46.880578928,51.596786428,21,5,7.421,44.677456154088,1.64042,12.0347372,46.880578928,0,0,0,341.6, -0.3, 1.4,0,0,1024,1024,1024,1024,0,0,0,0,351.8,0,0,37,3.714,3.702,0,0,0,0,4.506,88.52,44.021288154088,0.984252,6,P-GPS,
18100,2022-08-11 22:58:29,-34.9228225028497,-56.1513137005572,0.984252,19.4225728,24.598715354088,44.021288154088,12.139108,0,46.86843982,51.629266744,21,5,7.421,44.677456154088,1.64042,12.0347372,46.880578928,0,0,0,341.5, -0.1, 1.9,0,0,1024,1024,1024,1024,0,0,0,0,351.8,0,0,37,3.714,3.702,0,0,0,0,4.506,88.52,44.021288154088,0.984252,6,P-GPS,
18200,2022-08-11 22:58:29,-34.9228225477817,-56.1513138419047,0.984252,19.4225728,24.598715354088,44.021288154088,12.139108,0,46.853019872,51.674542336,21,5,7.408,44.677456154088,1.64042,12.0347372,46.880578928,0,0,0,341.5, 0, 2,0,0,1024,1024,1024,1024,0,0,0,0,351.8,0,0,37,3.709,3.7,0,0,0,0,4.715,88.52,44.021288154088,0.984252,6,P-GPS,
18300,2022-08-11 22:58:29,-34.922822516952,-56.1513144512935,0.984252,19.4225728,24.598715354088,44.021288154088,12.139108,0,46.725067112,51.857285124,21,5,7.408,44.677456154088,1.64042,12.0347372,46.880578928,0,0,0,341.4, 0.1, 2,0,0,1024,1024,1024,1024,0,0,0,0,351.8,0,0,37,3.709,3.7,0,0,0,0,4.715,88.52,44.021288154088,0.984252,6,P-GPS,
18400,2022-08-11 22:58:29,-34.9228225706841,-56.1513146356889,0.984252,19.3897644,24.631523754088,44.021288154088,12.467192,0,46.704069736,51.915684076,21,5,7.408,44.677456154088,1.64042,12.0347372,46.880578928,0,0,0,341.4, 0.1, 2.2,0,0,1024,1024,1024,1024,0,0,0,0,351.8,0,0,37,3.709,3.7,0,0,0,0,4.715,88.52,44.021288154088,0.984252,6,P-GPS,
18500,2022-08-11 22:58:29,-34.922822580761,-56.151314898072,0.984252,19.3897644,24.631523754088,44.021288154088,12.467192,0,46.655513304,51.994424236,21,5,7.408,44.677456154088,1.64042,12.0347372,46.880578928,0,0,0,341.3, 0.2, 2.4,0,0,1024,1024,1024,1024,0,0,0,0,351.8,0,0,37,3.709,3.7,0,0,0,0,4.715,88.52,44.021288154088,0.984252,6,P-GPS,
18600,2022-08-11 22:58:30,-34.9228225865582,-56.1513151853539,0.984252,19.3897644,24.631523754088,44.021288154088,12.467192,0,46.601379444,52.080382244,21,5,7.408,44.677456154088,1.64042,12.0347372,46.880578928,0,0,0,341.4, -0.1, 2.3,0,0,1024,1024,1024,1024,0,0,0,0,351.8,0,0,37,3.709,3.7,0,0,0,0,4.715,88.52,44.021288154088,0.984252,6,P-GPS,
18700,2022-08-11 22:58:30,-34.9228224023486,-56.1513161107476,0.984252,19.3241476,24.697140554088,44.021288154088,12.467192,0,46.370408308,52.365159156,21,5,7.408,44.677456154088,1.64042,12.0347372,46.880578928,0,0,0,341.4, -0.5, 1.9,0,0,1024,1024,1024,1024,0,0,0,0,351.8,0,0,37,3.709,3.7,0,0,0,0,4.715,88.52,44.021288154088,0.984252,6,P-GPS,
18800,2022-08-11 22:58:30,-34.922822445092,-56.1513162695024,0.984252,19.3241476,24.697140554088,44.021288154088,12.139108,0,46.35170752,52.415356008,21,5,7.408,44.677456154088,1.64042,12.0347372,46.880578928,0,0,0,341.3, -0.9, 1.7,0,0,1024,1024,1024,1024,0,0,0,0,351.8,0,0,37,3.709,3.7,0,0,0,0,4.715,88.52,44.021288154088,0.984252,6,P-GPS,
18900,2022-08-11 22:58:30,-34.9228224170958,-56.151316459728,0.984252,19.3241476,24.697140554088,44.021288154088,12.467192,0,46.307088096,52.473098792,21,5,7.408,44.677456154088,1.64042,12.0347372,46.880578928,0,0,0,341.3, -1, 1.7,0,0,1024,1024,1024,1024,0,0,0,0,351.8,0,0,37,3.709,3.7,0,0,0,0,4.715,88.52,44.021288154088,0.984252,6,P-GPS,
19000,2022-08-11 22:58:30,-34.9228223652657,-56.1513166750824,0.984252,19.2913392,24.729948954088,44.021288154088,12.467192,0,46.250985732,52.540027928,21,5,7.408,44.677456154088,1.64042,12.0347372,46.880578928,0,0,0,341.3, -1, 1.8,0,0,1024,1024,1024,1024,0,0,0,0,351.8,0,0,37,3.709,3.7,0,0,0,0,4.715,88.52,44.021288154088,0.984252,6,P-GPS,
19100,2022-08-11 22:58:30,-34.9228219808552,-56.1513172259281,0.984252,19.2913392,24.729948954088,44.021288154088,12.467192,0,46.037403048,52.756563368,21,5,7.408,44.677456154088,1.64042,12.0347372,46.880578928,0,0,0,341.4, -1, 2.2,0,0,1024,1024,1024,1024,0,0,0,0,351.8,0,0,37,3.709,3.7,0,0,0,0,4.715,88.52,44.021288154088,0.984252,6,P-GPS,
19200,2022-08-11 22:58:30,-34.9228219340277,-56.1513174796808,0.984252,19.2913392,24.729948954088,44.021288154088,12.467192,0,45.975395172,52.834319276,19,5,7.408,44.677456154088,1.64042,12.0347372,46.880578928,0,0,0,341.3, -1.1, 2.2,0,0,1024,1024,1024,1024,0,0,0,0,351.8,0,0,37,3.711,3.702,0,0,0,0,4.629,88.52,44.021288154088,0.984252,6,P-GPS,
19300,2022-08-11 22:58:30,-34.9228218818849,-56.1513176290423,0.984252,19.2585308,24.762757354088,44.021288154088,12.467192,0,45.932088084,52.882875708,19,5,7.408,44.677456154088,1.64042,12.0347372,46.880578928,0,0,0,341.3, -0.9, 2.3,0,0,1024,1024,1024,1024,0,0,0,0,351.8,0,0,37,3.711,3.702,0,0,0,0,4.629,88.52,44.021288154088,0.984252,6,P-GPS,
19400,2022-08-11 22:58:30,-34.9228218264136,-56.1513177428057,0.984252,19.2585308,24.762757354088,44.021288154088,12.467192,0,45.894686508,52.922573872,19,5,7.408,44.677456154088,1.64042,12.0347372,46.880578928,0,0,0,341.3, -1.1, 2.3,0,0,1024,1024,1024,1024,0,0,0,0,351.8,0,0,37,3.711,3.702,0,0,0,0,4.629,88.52,44.021288154088,0.984252,6,P-GPS,
19500,2022-08-11 22:58:30,-34.9228217250332,-56.151317453058,0.984252,19.2913392,24.729948954088,44.021288154088,12.467192,0,45.922245564,53.01673398,19,5,7.408,44.677456154088,1.64042,12.0347372,46.880578928,0,0,0,341.3, -1, 2.2,0,0,1024,1024,1024,1024,0,0,0,0,351.8,0,0,37,3.711,3.702,0,0,0,0,4.629,88.52,44.021288154088,0.984252,6,P-GPS,
19600,2022-08-11 22:58:31,-34.9228217162396,-56.1513174492234,0.984252,19.2913392,24.729948954088,44.021288154088,12.467192,0,45.920605144,53.02001482,19,5,7.408,44.677456154088,1.64042,12.0347372,46.880578928,0,0,0,341.3, -1.2, 2,0,0,1024,1024,1024,1024,0,0,0,0,351.8,0,0,37,3.711,3.702,0,0,0,0,4.629,88.52,44.021288154088,0.984252,6,P-GPS,
19700,2022-08-11 22:58:31,-34.9228217172557,-56.1513174246484,0.984252,19.2913392,24.729948954088,44.021288154088,12.467192,0,45.925526404,53.027560752,19,5,7.408,44.677456154088,1.64042,12.0347372,46.880578928,0,0,0,341.3, -1.1, 2.1,0,0,1024,1024,1024,1024,0,0,0,0,351.8,0,0,37,3.711,3.702,0,0,0,0,4.629,88.52,44.021288154088,0.984252,6,P-GPS,
19800,2022-08-11 22:58:31,-34.9228217194769,-56.1513173971062,0.984252,19.2913392,24.729948954088,44.021288154088,12.467192,0,45.931431916,53.035762852,19,5,7.408,44.677456154088,1.64042,12.0347372,46.880578928,0,0,0,341.3, -1.1, 2.2,0,0,1024,1024,1024,1024,0,0,0,0,351.8,0,0,37,3.711,3.702,0,0,0,0,4.629,88.52,44.021288154088,0.984252,6,P-GPS,
19900,2022-08-11 22:58:31,-34.9228216842244,-56.1513173765748,0.984252,19.2913392,24.729948954088,44.021288154088,12.467192,0,45.925526404,53.050198548,19,5,7.408,44.677456154088,1.64042,12.0347372,46.880578928,0,0,0,341.4, -0.8, 2.3,0,0,1024,1024,1024,1024,0,0,0,0,351.8,0,0,37,3.711,3.702,0,0,0,0,4.629,88.52,44.021288154088,0.984252,6,P-GPS,
20000,2022-08-11 22:58:31,-34.9228215977605,-56.1513171128438,0.984252,19.2913392,24.729948954088,44.021288154088,12.467192,0,45.952757376,53.135172304,19,5,7.408,44.677456154088,1.64042,12.0347372,46.880578928,0,0,0,341.3, -0.9, 2.3,0,0,1024,1024,1024,1024,0,0,0,0,351.8,0,0,37,3.711,3.702,0,0,0,0,4.629,88.52,44.021288154088,0.984252,6,P-GPS,
20100,2022-08-11 22:58:31,-34.9228215473048,-56.1513170325366,0.984252,19.2913392,24.729948954088,44.021288154088,12.467192,0,45.954069712,53.165356032,19,5,7.408,44.677456154088,1.64042,12.0347372,46.880578928,0,0,0,341.2, -1.4, 2.2,0,0,1024,1024,1024,1024,0,0,0,0,351.8,0,0,37,3.711,3.702,0,0,0,0,4.629,88.52,44.021288154088,0.984252,6,P-GPS,
20200,2022-08-11 22:58:31,-34.9228214863228,-56.1513169239556,0.984252,19.2585308,24.762757354088,44.021288154088,12.467192,0,45.958334804,53.204726112,20,5,7.407,44.677456154088,1.64042,12.0347372,46.880578928,0,0,0,341.3, -1.3, 1.9,0,0,1024,1024,1024,1024,0,0,0,0,351.8,0,0,37,3.708,3.699,0,0,0,0,4.568,88.52,44.021288154088,0.984252,6,P-GPS,
20300,2022-08-11 22:58:31,-34.9228213834703,-56.1513169195881,0.984252,19.2585308,24.762757354088,44.021288154088,12.467192,0,45.930447664,53.242127688,20,5,7.407,44.677456154088,1.64042,12.0347372,46.880578928,0,0,0,341.3, -1, 1.8,0,0,1024,1024,1024,1024,0,0,0,0,351.8,0,0,37,3.708,3.699,0,0,0,0,4.568,88.52,44.021288154088,0.984252,6,P-GPS,
