time(millisecond),datetime(utc),latitude,longitude,height_above_takeoff(feet),height_above_ground_at_drone_location(feet),ground_elevation_at_drone_location(feet),altitude_above_seaLevel(feet),height_sonar(feet),speed(mph),distance(feet),mileage(feet),satellites,gpslevel,voltage(v),max_altitude(feet),max_ascent(feet),max_speed(mph),max_distance(feet), xSpeed(mph), ySpeed(mph), zSpeed(mph), compass_heading(degrees), pitch(degrees), roll(degrees),isPhoto,isVideo,rc_elevator,rc_aileron,rc_throttle,rc_rudder,rc_elevator(percent),rc_aileron(percent),rc_throttle(percent),rc_rudder(percent),gimbal_heading(degrees),gimbal_pitch(degrees),gimbal_roll(degrees),battery_percent,voltageCell1,voltageCell2,voltageCell3,voltageCell4,voltageCell5,voltageCell6,current(A),battery_temperature(f),altitude(feet),ascent(feet),flycStateRaw,flycState,message
65400,2022-08-15 23:37:12,0,0,0,,,3.28084E-5,0.328084,0,0,0,0,0,0,3.28084E-5,0,0,0,0,0,0,183.1, 2.8, 0.1,0,0,364,364,364,1684,-100,-100,-100,100,183.1,0,0,79,4.14,4.133,0,0,0,0,0,95.18,3.28084E-5,0,41,Motors_Started,"En vuelo"
65500,2022-08-15 23:37:12,0,0,0,,,3.28084E-5,0.328084,0,0,0,0,0,0,3.28084E-5,0,0,0,0,0,0,183.1, 2.8, 0.1,0,0,364,364,364,1684,-100,-100,-100,100,183.1,0,0,79,4.14,4.133,0,0,0,0,0,95.18,3.28084E-5,0,41,Motors_Started,
65600,2022-08-15 23:37:13,0,0,0,,,3.28084E-5,0.328084,0,0,0,0,0,0,3.28084E-5,0,0,0,0,0,0,183.1, 2.8, 0.1,0,0,364,364,364,1684,-100,-100,-100,100,183.1,0,0,79,4.14,4.133,0,0,0,0,0,95.18,3.28084E-5,0,41,Motors_Started,
65700,2022-08-15 23:37:13,0,0,0,,,3.28084E-5,0.328084,0,0,0,0,0,0,3.28084E-5,0,0,0,0,0,0,183.1, 2.8, 0.1,0,0,364,364,364,1684,-100,-100,-100,100,183.1,0,0,79,4.14,4.133,0,0,0,0,0,95.18,3.28084E-5,0,41,Motors_Started,
65800,2022-08-15 23:37:13,0,0,0,,,3.28084E-5,0.328084,0,0,0,0,0,0,3.28084E-5,0,0,0,0,0,0,183.1, 2.8, 0.1,0,0,942,1024,1024,1024,-12,0,0,0,183.1,0,0,79,4.14,4.133,0,0,0,0,0,95.18,3.28084E-5,0,41,Motors_Started,
65900,2022-08-15 23:37:13,0,0,0,,,3.28084E-5,0.328084,0,0,0,0,0,8.289,3.28084E-5,0,0,0,0,0,0,183.1, 2.8, 0.1,0,0,1024,1024,1024,1024,0,0,0,0,183.1,0,0,79,4.14,4.133,0,0,0,0,0.571,95.18,3.28084E-5,0,41,Motors_Started,"Setting new Return-To-Home altitude to 15m (49 ft). Data Recorder File Index is 74. Setting new Maximum Flight Altitude to 30m (98 ft)"
66000,2022-08-15 23:37:13,0,0,0,,,3.28084E-5,0.328084,0,0,0,0,0,8.289,3.28084E-5,0,0,0,0,0,0,183.1, 2.8, 0.1,0,0,1024,1024,1024,1024,0,0,0,0,183.1,0,0,79,4.14,4.133,0,0,0,0,0.571,95.18,3.28084E-5,0,41,Motors_Started,
66100,2022-08-15 23:37:13,0,0,0,,,3.28084E-5,0.328084,0,0,0,0,0,8.289,3.28084E-5,0,0,0,0,0,0,183.1, 2.8, 0.1,0,0,1024,1024,1024,1024,0,0,0,0,183.1,0,0,79,4.14,4.133,0,0,0,0,0.571,95.18,3.28084E-5,0,41,Motors_Started,
66200,2022-08-15 23:37:13,0,0,0,,,3.28084E-5,0.328084,0,0,0,0,0,8.289,3.28084E-5,0,0,0,0,0,0,183.1, 2.8, 0,0,0,1024,1024,1024,1024,0,0,0,0,183.1,0,0,79,4.14,4.133,0,0,0,0,0.571,95.18,3.28084E-5,0,41,Motors_Started,
66300,2022-08-15 23:37:13,0,0,0,,,3.28084E-5,0.328084,0,0,0,0,0,8.289,3.28084E-5,0,0,0,0,0,0,183.1, 2.8, 0.1,0,0,1024,1024,1024,1024,0,0,0,0,183.1,0,0,79,4.14,4.133,0,0,0,0,0.571,95.18,3.28084E-5,0,41,Motors_Started,
66400,2022-08-15 23:37:13,0,0,0,,,3.28084E-5,0.328084,0,0,0,0,0,8.289,3.28084E-5,0,0,0,0,0,0,183.1, 2.8, 0.1,0,0,1024,1024,1024,1024,0,0,0,0,183.1,0,0,79,4.14,4.133,0,0,0,0,0.571,95.18,3.28084E-5,0,41,Motors_Started,
66500,2022-08-15 23:37:14,0,0,0,,,3.28084E-5,0.328084,0,0,0,0,0,8.289,3.28084E-5,0,0,0,0,0,0,183.1, 2.8, 0.1,0,0,1024,1024,1024,1024,0,0,0,0,183.1,0,0,79,4.14,4.133,0,0,0,0,0.571,95.18,3.28084E-5,0,10,Assisted_Takeoff,
66600,2022-08-15 23:37:14,0,0,0,,,3.28084E-5,0.328084,0,0,0,0,0,8.289,3.28084E-5,0,0,0,0,0,0,183.1, 2.7, 0.1,0,0,1024,1024,1024,1024,0,0,0,0,183.1,0,0,79,4.14,4.133,0,0,0,0,0.571,95.18,3.28084E-5,0,10,Assisted_Takeoff,
66700,2022-08-15 23:37:14,0,0,0,,,3.28084E-5,0.328084,0,0,0,0,0,8.289,3.28084E-5,0,0,0,0,0,0,183.1, 2.8, 0.1,0,0,1024,1024,1024,1024,0,0,0,0,183.1,0,0,79,4.14,4.133,0,0,0,0,0.571,95.18,3.28084E-5,0,10,Assisted_Takeoff,
66800,2022-08-15 23:37:14,0,0,0,,,3.28084E-5,0.328084,0,0,0,0,0,8.289,3.28084E-5,0,0,0,0,0,0,183.2, 2.8, 0.1,0,0,1024,1024,1024,1024,0,0,0,0,183.1,0,0,79,4.14,4.133,0,0,0,0,0.571,95.18,3.28084E-5,0,10,Assisted_Takeoff,
66900,2022-08-15 23:37:14,0,0,0,,,3.28084E-5,0.328084,0,0,0,0,0,8.289,3.28084E-5,0,0,0,0,0,0,183.2, 2.8, 0.1,0,0,1024,1024,1112,1024,0,0,13,0,183.1,0,0,79,4.14,4.133,0,0,0,0,0.571,95.18,3.28084E-5,0,10,Assisted_Takeoff,
67000,2022-08-15 23:37:14,0,0,0,,,3.28084E-5,0.328084,0,0,0,0,0,8.258,3.28084E-5,0,0,0,0,0,0,183.3, 2.7, 0.1,0,0,1024,1024,1475,1024,0,0,68,0,183.2,0,0,79,4.134,4.13,0,0,0,0,1.516,95.18,3.28084E-5,0,10,Assisted_Takeoff,
67100,2022-08-15 23:37:14,0,0,0,,,3.28084E-5,0.328084,0,0,0,0,0,8.258,3.28084E-5,0,0,0,0,0,0,183.3, 2.7, 0.1,0,0,1024,1024,1475,1024,0,0,68,0,183.2,0,0,79,4.134,4.13,0,0,0,0,1.516,95.18,3.28084E-5,0,10,Assisted_Takeoff,
67200,2022-08-15 23:37:14,0,0,0,,,3.28084E-5,0.328084,0,0,0,0,0,8.258,3.28084E-5,0,0,0,0,0,0,183.3, 2.7, 0.1,0,0,1024,1024,1671,1024,0,0,98,0,183.2,0,0,79,4.134,4.13,0,0,0,0,1.516,95.18,3.28084E-5,0,10,Assisted_Takeoff,
67300,2022-08-15 23:37:14,0,0,0,,,3.28084E-5,0.328084,0,0,0,0,0,8.258,3.28084E-5,0,0,0,0,0,0,183.3, 2.7, 0.1,0,0,1024,1024,1684,1024,0,0,100,0,183.3,0,0,79,4.134,4.13,0,0,0,0,1.516,95.18,3.28084E-5,0,10,Assisted_Takeoff,
67400,2022-08-15 23:37:14,0,0,0,,,3.28084E-5,0.328084,0,0,0,0,0,8.258,3.28084E-5,0,0,0,0,0,0,183, 2.8, 0.1,0,0,1024,1024,1684,1024,0,0,100,0,183.2,0,0,79,4.134,4.13,0,0,0,0,1.516,95.18,3.28084E-5,0,10,Assisted_Takeoff,
67500,2022-08-15 23:37:15,0,0,0,,,3.28084E-5,0.328084,0,0,0,0,0,8.258,3.28084E-5,0,0,0,0,0,0,183, 2, 0.1,0,0,1024,1024,1684,1024,0,0,100,0,183.1,0,0,79,4.134,4.13,0,0,0,0,1.516,95.18,3.28084E-5,0,10,Assisted_Takeoff,
67600,2022-08-15 23:37:15,0,0,0,,,3.28084E-5,0.328084,0,0,0,0,0,8.258,3.28084E-5,0,0,0,0,0,0,183.1, -1, 0.1,0,0,1024,1024,1684,1024,0,0,100,0,183.1,0,0,79,4.134,4.13,0,0,0,0,1.516,95.18,3.28084E-5,0,10,Assisted_Takeoff,
67700,2022-08-15 23:37:15,0,0,0,,,3.28084E-5,0.328084,0,0,0,0,0,8.258,3.28084E-5,0,0,0,0,0,-0.447388,183.3, -1, 0,0,0,1024,1024,1684,1024,0,0,100,0,183.1,0,0,79,4.134,4.13,0,0,0,0,1.516,95.18,3.28084E-5,0,38,Tripod,
67800,2022-08-15 23:37:15,0,0,0,,,3.28084E-5,0.328084,0,0,0,0,0,8.258,3.28084E-5,0,0,0,0,0,-0.894776,183.3, 0, 0.2,0,0,1024,1024,1296,1024,0,0,41,0,183.1,0,0,79,4.134,4.13,0,0,0,0,1.516,95.18,3.28084E-5,0,38,Tripod,
67900,2022-08-15 23:37:15,0,0,0,,,3.28084E-5,0.656168,0,0,0,0,0,8.258,3.28084E-5,0,0,0,0,0,-1.11847,183.4, 0.1, 0,0,0,1024,1024,1024,1024,0,0,0,0,183.1,0,0,79,4.134,4.13,0,0,0,0,1.516,95.18,3.28084E-5,0,38,Tripod,
68000,2022-08-15 23:37:15,0,0,0.328084,,,0.3281168084,0.656168,0,0,0,0,0,8.251,0.3281168084,0.328084,0,0,0,0,-1.342164,183.4, 0.3, 0,0,0,1024,1024,1024,1024,0,0,0,0,183.1,0,0,79,4.115,4.105,0,0,0,0,1.461,95.18,0.3281168084,0.328084,38,Tripod,
68100,2022-08-15 23:37:15,0,0,0.328084,,,0.3281168084,0.984252,0,0,0,0,0,8.251,0.3281168084,0.328084,0,0,0,0,-1.342164,183.2, 0.3, 0.1,0,0,1024,1024,1024,1024,0,0,0,0,183.1,0,0,79,4.115,4.105,0,0,0,0,1.461,95.18,0.3281168084,0.328084,38,Tripod,
68200,2022-08-15 23:37:15,0,0,0.656168,,,0.6562008084,0.984252,0,0,0,0,0,8.251,0.6562008084,0.656168,0,0,0,0,-1.342164,183.2, 0.2, 0,0,0,1024,1024,1024,1024,0,0,0,0,183.1,0,0,79,4.115,4.105,0,0,0,0,1.461,95.18,0.6562008084,0.656168,38,Tripod,
68300,2022-08-15 23:37:15,0,0,0.984252,,,0.9842848084,1.312336,0,0,0,0,0,8.251,0.9842848084,0.984252,0,0,0,0,-1.11847,183.2, 0, 0,0,0,1024,1024,1024,1024,0,0,0,0,183.1,0,0,79,4.115,4.105,0,0,0,0,1.461,95.18,0.9842848084,0.984252,38,Tripod,
68400,2022-08-15 23:37:15,0,0,0.984252,,,0.9842848084,1.312336,0,0,0,0,0,8.251,0.9842848084,0.984252,0,0,0,0,-0.894776,183.2, 0, 0,0,0,1024,1024,1024,1024,0,0,0,0,183.1,0,0,79,4.115,4.105,0,0,0,0,1.461,95.18,0.9842848084,0.984252,38,Tripod,
68500,2022-08-15 23:37:16,0,0,0.984252,,,0.9842848084,1.64042,0,0,0,0,0,8.251,0.9842848084,0.984252,0,0,0,0,-0.671082,183.2, 0, 0,0,0,1024,1024,1024,1024,0,0,0,0,183.1,0,0,79,4.115,4.105,0,0,0,0,1.461,95.18,0.9842848084,0.984252,38,Tripod,
68600,2022-08-15 23:37:16,0,0,1.312336,,,1.3123688084,1.64042,0,0,0,0,0,8.251,1.3123688084,1.312336,0,0,0,0,-0.447388,183.2, 0, 0,0,0,1024,1024,1024,1024,0,0,0,0,183.1,0,0,79,4.115,4.105,0,0,0,0,1.461,95.18,1.3123688084,1.312336,38,Tripod,
68700,2022-08-15 23:37:16,0,0,1.312336,,,1.3123688084,1.64042,0,0,0,0,0,8.251,1.3123688084,1.312336,0,0,0,0,-0.223694,183.2, 0, 0,0,0,1024,1024,1024,1024,0,0,0,0,183.1,0,0,79,4.115,4.105,0,0,0,0,1.461,95.18,1.3123688084,1.312336,38,Tripod,
68800,2022-08-15 23:37:16,0,0,1.312336,,,1.3123688084,1.64042,0,0,0,0,0,8.251,1.3123688084,1.312336,0,0,0,0,0,183.2, 0.1, 0,0,0,1024,1024,1024,544,0,0,0,-73,183.1,0,0,79,4.115,4.105,0,0,0,0,1.461,95.18,1.3123688084,1.312336,38,Tripod,
68900,2022-08-15 23:37:16,0,0,1.312336,,,1.3123688084,1.64042,0,0,0,0,0,8.251,1.3123688084,1.312336,0,0,0,0,0,183.2, 0.3, 0,0,0,1024,1024,1024,364,0,0,0,-100,183.1,0,0,79,4.115,4.105,0,0,0,0,1.461,95.18,1.3123688084,1.312336,38,Tripod,
69000,2022-08-15 23:37:16,0,0,1.312336,,,1.3123688084,1.64042,0,0,0,0,0,8.18,1.3123688084,1.312336,0,0,0,0,0,183.2, 0.2, 0,0,0,1024,1024,1024,364,0,0,0,-100,183.1,0,0,79,4.097,4.087,0,0,0,0,4.187,95.18,1.3123688084,1.312336,38,Tripod,
69100,2022-08-15 23:37:16,0,0,1.312336,,,1.3123688084,1.64042,0,0,0,0,0,8.18,1.3123688084,1.312336,0,0,0,0,0,183.2, 0.2, 0,0,0,1024,1024,1024,364,0,0,0,-100,183,0,0,79,4.097,4.087,0,0,0,0,4.187,95.18,1.3123688084,1.312336,38,Tripod,
69200,2022-08-15 23:37:16,0,0,1.312336,,,1.3123688084,1.64042,0,0,0,0,0,8.18,1.3123688084,1.312336,0,0,0,0,0,183.1, 0, 0,0,0,1024,1024,1024,364,0,0,0,-100,182.9,0,0,79,4.097,4.087,0,0,0,0,4.187,95.18,1.3123688084,1.312336,38,Tripod,
69300,2022-08-15 23:37:16,0,0,1.312336,,,1.3123688084,1.64042,0,0,0,0,0,8.18,1.3123688084,1.312336,0,0,0,0,0,182.9, 0, 0,0,0,1024,1024,1024,364,0,0,0,-100,182.8,0,0,79,4.097,4.087,0,0,0,0,4.187,95.18,1.3123688084,1.312336,38,Tripod,
69400,2022-08-15 23:37:16,0,0,1.312336,,,1.3123688084,1.64042,0,0,0,0,0,8.18,1.3123688084,1.312336,0,0,0,0,0,182.8, 0, 0,0,0,1024,1024,1024,364,0,0,0,-100,182.6,0,0,79,4.097,4.087,0,0,0,0,4.187,95.18,1.3123688084,1.312336,38,Tripod,
69500,2022-08-15 23:37:17,0,0,1.312336,,,1.3123688084,1.64042,0,0,0,0,0,8.18,1.3123688084,1.312336,0,0,0,0,0,182.5, 0.1, 0.1,0,0,1024,1024,1024,364,0,0,0,-100,182.3,0,0,79,4.097,4.087,0,0,0,0,4.187,95.18,1.3123688084,1.312336,38,Tripod,
69600,2022-08-15 23:37:17,0,0,1.312336,,,1.3123688084,1.64042,0,0,0,0,0,8.18,1.3123688084,1.312336,0,0,0,0,0,182.2, 0.3, 0.2,0,0,1024,1024,1024,364,0,0,0,-100,182,0,0,79,4.097,4.087,0,0,0,0,4.187,95.18,1.3123688084,1.312336,38,Tripod,
69700,2022-08-15 23:37:17,0,0,1.312336,,,1.3123688084,1.64042,0,0,0,0,0,8.18,1.3123688084,1.312336,0,0,0,0,0,182, 0.3, 0.2,0,0,1024,1024,1024,364,0,0,0,-100,181.7,0,0,79,4.097,4.087,0,0,0,0,4.187,95.18,1.3123688084,1.312336,38,Tripod,
69800,2022-08-15 23:37:17,0,0,1.312336,,,1.3123688084,1.64042,0,0,0,0,0,8.18,1.3123688084,1.312336,0,0,0,0,0,181.7, 0.4, 0.1,0,0,1024,1024,1024,364,0,0,0,-100,181.4,0,0,79,4.097,4.087,0,0,0,0,4.187,95.18,1.3123688084,1.312336,38,Tripod,
69900,2022-08-15 23:37:17,0,0,1.312336,,,1.3123688084,1.64042,0,0,0,0,0,8.18,1.3123688084,1.312336,0,0,0,0,0,181.3, 0.4, 0.1,0,0,1024,1024,1024,364,0,0,0,-100,181,0,0,79,4.097,4.087,0,0,0,0,4.187,95.18,1.3123688084,1.312336,38,Tripod,
70000,2022-08-15 23:37:17,0,0,1.312336,,,1.3123688084,1.64042,0,0,0,0,0,8.164,1.3123688084,1.312336,0,0,0,0,0,180.9, 0.4, 0.3,0,0,1024,1024,1024,364,0,0,0,-100,180.7,0,0,79,4.086,4.076,0,0,0,0,4.083,95.18,1.3123688084,1.312336,38,Tripod,
70100,2022-08-15 23:37:17,0,0,1.312336,,,1.3123688084,1.64042,0,0,0,0,0,8.164,1.3123688084,1.312336,0,0,0,0,0,180.6, 0.4, 0.1,0,0,1024,1024,1024,364,0,0,0,-100,180.3,0,0,79,4.086,4.076,0,0,0,0,4.083,95.18,1.3123688084,1.312336,38,Tripod,
70200,2022-08-15 23:37:17,0,0,1.312336,,,1.3123688084,1.64042,0,0,0,0,0,8.164,1.3123688084,1.312336,0,0,0,0,0,180.2, 0.4, 0.2,0,0,1024,1024,1024,364,0,0,0,-100,179.8,0,0,79,4.086,4.076,0,0,0,0,4.083,95.18,1.3123688084,1.312336,38,Tripod,
70300,2022-08-15 23:37:17,0,0,1.312336,,,1.3123688084,1.64042,0,0,0,0,0,8.164,1.3123688084,1.312336,0,0,0,0,0,179.7, 0.3, 0.1,0,0,1024,1024,1024,364,0,0,0,-100,179.4,0,0,79,4.086,4.076,0,0,0,0,4.083,95.18,1.3123688084,1.312336,38,Tripod,
70400,2022-08-15 23:37:17,0,0,1.312336,,,1.3123688084,1.64042,0,0,0,0,0,8.164,1.3123688084,1.312336,0,0,0,0,0,179.4, 0.3, 0.1,0,0,1024,1024,1024,364,0,0,0,-100,179,0,0,79,4.086,4.076,0,0,0,0,4.083,95.18,1.3123688084,1.312336,38,Tripod,
70500,2022-08-15 23:37:17,0,0,1.312336,,,1.3123688084,1.64042,0,0,0,0,0,8.164,1.3123688084,1.312336,0,0,0,0,0,179, 0.4, 0.5,0,0,1024,1024,1024,364,0,0,0,-100,178.7,0,0,79,4.086,4.076,0,0,0,0,4.083,95.18,1.3123688084,1.312336,38,Tripod,
70600,2022-08-15 23:37:18,0,0,1.312336,,,1.3123688084,1.64042,0,0,0,0,0,8.164,1.3123688084,1.312336,0,0,0,0,0,178.5, 0.3, 0.2,0,0,1024,1024,1024,364,0,0,0,-100,178.3,0,0,79,4.086,4.076,0,0,0,0,4.083,95.18,1.3123688084,1.312336,38,Tripod,
70700,2022-08-15 23:37:18,0,0,1.312336,,,1.3123688084,1.64042,0,0,0,0,0,8.164,1.3123688084,1.312336,0,0,0,0,0,178.2, 0.2, 0.2,0,0,1024,1024,1024,364,0,0,0,-100,177.9,0,0,79,4.086,4.076,0,0,0,0,4.083,95.18,1.3123688084,1.312336,38,Tripod,
70800,2022-08-15 23:37:18,0,0,1.312336,,,1.3123688084,1.64042,0,0,0,0,0,8.164,1.3123688084,1.312336,0,0,0,0,0,177.8, 0.2, 0.2,0,0,1024,1024,1024,364,0,0,0,-100,177.5,0,0,79,4.086,4.076,0,0,0,0,4.083,95.18,1.3123688084,1.312336,38,Tripod,
70900,2022-08-15 23:37:18,0,0,1.312336,,,1.3123688084,1.64042,0,0,0,0,0,8.164,1.3123688084,1.312336,0,0,0,0,0,177.3, 0.2, 0.2,0,0,1024,1024,1024,364,0,0,0,-100,177.1,0,0,79,4.086,4.076,0,0,0,0,4.083,95.18,1.3123688084,1.312336,38,Tripod,
71000,2022-08-15 23:37:18,0,0,1.312336,,,1.3123688084,1.64042,0,0,0,0,0,8.157,1.3123688084,1.312336,0,0,0,0,0,176.9, 0.3, 0,0,0,1024,1024,1024,364,0,0,0,-100,176.7,0,0,79,4.083,4.072,0,0,0,0,4.227,95.18,1.3123688084,1.312336,38,Tripod,
71100,2022-08-15 23:37:18,0,0,1.312336,,,1.3123688084,1.64042,0,0,0,0,0,8.157,1.3123688084,1.312336,0,0,0,0,0,176.5, 0.4, 0,0,0,1024,1024,1024,364,0,0,0,-100,176.3,0,0,79,4.083,4.072,0,0,0,0,4.227,95.18,1.3123688084,1.312336,38,Tripod,
71200,2022-08-15 23:37:18,0,0,1.312336,,,1.3123688084,1.64042,0,0,0,0,0,8.157,1.3123688084,1.312336,0,0,0,0,0,176.2, 0.3, 0,0,0,1024,1024,1024,364,0,0,0,-100,175.9,0,0,79,4.083,4.072,0,0,0,0,4.227,95.18,1.3123688084,1.312336,38,Tripod,
71300,2022-08-15 23:37:18,0,0,1.312336,,,1.3123688084,1.64042,0,0,0,0,0,8.157,1.3123688084,1.312336,0,0,0,0,0,175.8, 0.1, 0.2,0,0,1024,1024,1024,364,0,0,0,-100,175.5,0,0,79,4.083,4.072,0,0,0,0,4.227,95.18,1.3123688084,1.312336,38,Tripod,
71400,2022-08-15 23:37:18,0,0,1.312336,,,1.3123688084,1.64042,0,0,0,0,0,8.157,1.3123688084,1.312336,0,0,0,0,0,175.4, 0.1, 0.4,0,0,1024,1024,1024,364,0,0,0,-100,175.1,0,0,79,4.083,4.072,0,0,0,0,4.227,95.18,1.3123688084,1.312336,38,Tripod,
71500,2022-08-15 23:37:18,0,0,1.312336,,,1.3123688084,1.64042,0,0,0,0,0,8.157,1.3123688084,1.312336,0,0,0,0,0,174.9, 0.1, 0.3,0,0,1024,1024,1024,364,0,0,0,-100,174.7,0,0,79,4.083,4.072,0,0,0,0,4.227,95.18,1.3123688084,1.312336,38,Tripod,
71600,2022-08-15 23:37:19,0,0,1.312336,,,1.3123688084,1.64042,0,0,0,0,0,8.157,1.3123688084,1.312336,0,0,0,0,0,174.5, 0.4, 0.1,0,0,1024,1024,1024,364,0,0,0,-100,174.3,0,0,79,4.083,4.072,0,0,0,0,4.227,95.18,1.3123688084,1.312336,38,Tripod,
71700,2022-08-15 23:37:19,0,0,1.312336,,,1.3123688084,1.64042,0,0,0,0,0,8.157,1.3123688084,1.312336,0,0,0,0,0,174.1, 0.4, 0,0,0,1024,1024,1024,621,0,0,0,-61,173.9,0,0,79,4.083,4.072,0,0,0,0,4.227,95.18,1.3123688084,1.312336,38,Tripod,
71800,2022-08-15 23:37:19,0,0,1.312336,,,1.3123688084,1.64042,0,0,0,0,0,8.157,1.3123688084,1.312336,0,0,0,0,0,173.7, 0.2, 0,0,0,1024,1024,1024,1024,0,0,0,0,173.5,0,0,79,4.083,4.072,0,0,0,0,4.227,95.18,1.3123688084,1.312336,38,Tripod,
71900,2022-08-15 23:37:19,0,0,1.312336,,,1.3123688084,1.64042,0,0,0,0,0,8.157,1.3123688084,1.312336,0,0,0,0,0,173.4, 0.1, 0,0,0,1024,1024,1024,1024,0,0,0,0,173.1,0,0,79,4.083,4.072,0,0,0,0,4.227,95.18,1.3123688084,1.312336,38,Tripod,
72000,2022-08-15 23:37:19,0,0,1.312336,,,1.3123688084,1.64042,0,0,0,0,0,8.149,1.3123688084,1.312336,0,0,0,0,0,173.1, 0.1, 0,0,0,1024,1024,1024,1024,0,0,0,0,172.7,0,0,79,4.078,4.067,0,0,0,0,4.267,95.18,1.3123688084,1.312336,38,Tripod,
72100,2022-08-15 23:37:19,0,0,1.312336,,,1.3123688084,1.64042,0,0,0,0,0,8.149,1.3123688084,1.312336,0,0,0,0,0,172.8, 0.2, 0,0,0,1024,1024,1024,1024,0,0,0,0,172.4,0,0,79,4.078,4.067,0,0,0,0,4.267,95.18,1.3123688084,1.312336,38,Tripod,
72200,2022-08-15 23:37:19,0,0,1.312336,,,1.3123688084,1.64042,0,0,0,0,0,8.149,1.3123688084,1.312336,0,0,0,0,0,172.4, 0.2, 0,0,0,1024,1024,1024,1024,0,0,0,0,172.1,0,0,79,4.078,4.067,0,0,0,0,4.267,95.18,1.3123688084,1.312336,38,Tripod,
72300,2022-08-15 23:37:19,0,0,1.312336,,,1.3123688084,1.64042,0,0,0,0,0,8.149,1.3123688084,1.312336,0,0,0,0,0,172.1, 0.1, 0,0,0,1024,1024,1024,1024,0,0,0,0,171.8,0,0,79,4.078,4.067,0,0,0,0,4.267,95.18,1.3123688084,1.312336,38,Tripod,
72400,2022-08-15 23:37:19,0,0,1.312336,,,1.3123688084,1.64042,0,0,0,0,0,8.149,1.3123688084,1.312336,0,0,0,0,0,171.8, 0.2, 0.1,0,0,1024,1024,1024,1024,0,0,0,0,171.6,0,0,79,4.078,4.067,0,0,0,0,4.267,95.18,1.3123688084,1.312336,38,Tripod,
72500,2022-08-15 23:37:20,0,0,1.312336,,,1.3123688084,1.64042,0,0,0,0,0,8.149,1.3123688084,1.312336,0,0,0,0,0,171.6, 0, 0.4,0,0,1024,1024,1024,1024,0,0,0,0,171.3,0,0,79,4.078,4.067,0,0,0,0,4.267,95.18,1.3123688084,1.312336,38,Tripod,
72600,2022-08-15 23:37:20,0,0,1.312336,,,1.3123688084,1.64042,0,0,0,0,0,8.149,1.3123688084,1.312336,0,0,0,0,0,171.3, 0, 0.3,0,0,1024,1024,1024,1024,0,0,0,0,171.1,0,0,79,4.078,4.067,0,0,0,0,4.267,95.18,1.3123688084,1.312336,38,Tripod,
72700,2022-08-15 23:37:20,0,0,0.984252,,,0.9842848084,1.64042,0,0,0,0,0,8.149,1.3123688084,1.312336,0,0,0,0,0,171.1, 0.1, 0,0,0,1024,1024,1024,1024,0,0,0,0,171,0,0,79,4.078,4.067,0,0,0,0,4.267,95.18,0.9842848084,0.984252,38,Tripod,
72800,2022-08-15 23:37:20,0,0,0.984252,,,0.9842848084,1.64042,0,0,0,0,0,8.149,1.3123688084,1.312336,0,0,0,0,0,170.9, 0.3, 0,0,0,1024,1024,1024,1024,0,0,0,0,170.8,0,0,79,4.078,4.067,0,0,0,0,4.267,95.18,0.9842848084,0.984252,38,Tripod,
72900,2022-08-15 23:37:20,0,0,0.984252,,,0.9842848084,1.64042,0,0,0,0,0,8.149,1.3123688084,1.312336,0,0,0,0,0,170.8, 0.3, 0.2,0,0,1024,1024,1024,1024,0,0,0,0,170.7,0,0,79,4.078,4.067,0,0,0,0,4.267,95.18,0.9842848084,0.984252,38,Tripod,
73000,2022-08-15 23:37:20,0,0,0.984252,,,0.9842848084,1.64042,0,0,0,0,0,8.149,1.3123688084,1.312336,0,0,0,0,0,170.7, 0.2, 0.3,0,0,1024,1024,1024,1024,0,0,0,0,170.6,0,0,79,4.075,4.066,0,0,0,0,4.267,95.18,0.9842848084,0.984252,38,Tripod,
73100,2022-08-15 23:37:20,0,0,0.984252,,,0.9842848084,1.64042,0,0,0,0,0,8.149,1.3123688084,1.312336,0,0,0,0,0,170.6, 0, 0.2,0,0,1024,1024,1024,1024,0,0,0,0,170.5,0,0,79,4.075,4.066,0,0,0,0,4.267,95.18,0.9842848084,0.984252,38,Tripod,
73200,2022-08-15 23:37:20,0,0,0.984252,,,0.9842848084,1.64042,0,0,0,0,0,8.149,1.3123688084,1.312336,0,0,0,0,0,170.6, 0.1, 0,0,0,1024,1024,1024,1024,0,0,0,0,170.5,0,0,79,4.075,4.066,0,0,0,0,4.267,95.18,0.9842848084,0.984252,38,Tripod,
73300,2022-08-15 23:37:20,0,0,0.984252,,,0.9842848084,1.64042,0,0,0,0,0,8.149,1.3123688084,1.312336,0,0,0,0,0,170.5, 0, -0.3,0,0,1024,1024,1024,1024,0,0,0,0,170.5,0,0,79,4.075,4.066,0,0,0,0,4.267,95.18,0.9842848084,0.984252,6,P-GPS,
73400,2022-08-15 23:37:20,0,0,0.984252,,,0.9842848084,1.64042,0,0,0,0,0,8.149,1.3123688084,1.312336,0,0,0,0,0,170.5, 0, 0.1,0,0,1024,1024,1024,1024,0,0,0,0,170.5,0,0,79,4.075,4.066,0,0,0,0,4.267,95.18,0.9842848084,0.984252,6,P-GPS,
73500,2022-08-15 23:37:21,0,0,0.984252,,,0.9842848084,1.64042,0,0,0,0,0,8.149,1.3123688084,1.312336,0,0,0,0,0,170.5, 0.1, 0,0,0,1024,1024,1024,1024,0,0,0,0,170.5,0,0,79,4.075,4.066,0,0,0,0,4.267,95.18,0.9842848084,0.984252,6,P-GPS,
73600,2022-08-15 23:37:21,0,0,0.984252,,,0.9842848084,1.64042,0,0,0,0,0,8.149,1.3123688084,1.312336,0,0,0,0,0,170.4, 0.3, 0.1,0,0,1024,1024,1024,1024,0,0,0,0,170.5,0,0,79,4.075,4.066,0,0,0,0,4.267,95.18,0.9842848084,0.984252,6,P-GPS,
73700,2022-08-15 23:37:21,0,0,0.984252,,,0.9842848084,1.64042,0,0,0,0,0,8.149,1.3123688084,1.312336,0,0,0,0,0,170.4, 0.1, 0.3,0,0,1024,1024,1024,1024,0,0,0,0,170.5,0,0,79,4.075,4.066,0,0,0,0,4.267,95.18,0.9842848084,0.984252,6,P-GPS,
73800,2022-08-15 23:37:21,0,0,0.984252,,,0.9842848084,1.64042,0,0,0,0,0,8.149,1.3123688084,1.312336,0,0,0,0,0,170.4, -0.1, 0.3,0,0,1024,1024,1024,873,0,0,0,-23,170.5,0,0,79,4.075,4.066,0,0,0,0,4.267,95.18,0.9842848084,0.984252,6,P-GPS,
73900,2022-08-15 23:37:21,0,0,0.984252,,,0.9842848084,1.64042,0,0,0,0,0,8.149,1.3123688084,1.312336,0,0,0,0,0,170.4, 0.1, 0.3,0,0,1024,1024,1024,417,0,0,0,-92,170.4,0,0,79,4.075,4.066,0,0,0,0,4.267,95.18,0.9842848084,0.984252,6,P-GPS,
74000,2022-08-15 23:37:21,0,0,0.984252,,,0.9842848084,1.64042,0,0,0,0,0,8.145,1.3123688084,1.312336,0,0,0,0,0,170, 0, 0.1,0,0,1024,1024,1024,364,0,0,0,-100,169,0,0,79,4.071,4.062,0,0,0,0,4.25,95.18,0.9842848084,0.984252,6,P-GPS,
74100,2022-08-15 23:37:21,0,0,0.984252,,,0.9842848084,1.64042,0,0,0,0,0,8.145,1.3123688084,1.312336,0,0,0,0,0,167.7, 0.1, 0.1,0,0,1024,1024,1024,364,0,0,0,-100,165.3,0,0,79,4.071,4.062,0,0,0,0,4.25,95.18,0.9842848084,0.984252,6,P-GPS,
74200,2022-08-15 23:37:21,0,0,0.984252,,,0.9842848084,1.64042,0,0,0,0,0,8.145,1.3123688084,1.312336,0,0,0,0,0,163.5, 0.1, -0.2,0,0,1024,1024,1024,364,0,0,0,-100,160.7,0,0,79,4.071,4.062,0,0,0,0,4.25,95.18,0.9842848084,0.984252,6,P-GPS,
74300,2022-08-15 23:37:21,0,0,0.984252,,,0.9842848084,1.64042,0,0,0,0,0,8.145,1.3123688084,1.312336,0,0,0,0,0,159, 0, -0.3,0,0,1024,1024,1024,364,0,0,0,-100,156,0,0,79,4.071,4.062,0,0,0,0,4.25,95.18,0.9842848084,0.984252,6,P-GPS,
74400,2022-08-15 23:37:21,0,0,0.984252,,,0.9842848084,1.64042,0,0,0,0,0,8.145,1.3123688084,1.312336,0,0,0,0,0,154.3, 0, -0.2,0,0,1024,1024,1024,364,0,0,0,-100,151.2,0,0,79,4.071,4.062,0,0,0,0,4.25,95.18,0.9842848084,0.984252,6,P-GPS,
74500,2022-08-15 23:37:22,0,0,0.984252,,,0.9842848084,1.64042,0,0,0,0,0,8.145,1.3123688084,1.312336,0,0,0,0,0,149.6, 0, 0.1,0,0,1024,1024,1024,364,0,0,0,-100,146.4,0,0,79,4.071,4.062,0,0,0,0,4.25,95.18,0.9842848084,0.984252,6,P-GPS,
74600,2022-08-15 23:37:22,0,0,0.984252,,,0.9842848084,1.64042,0,0,0,0,0,8.145,1.3123688084,1.312336,0,0,0,0,0,144.8, 0, 0.1,0,0,1024,1024,1024,364,0,0,0,-100,141.6,0,0,79,4.071,4.062,0,0,0,0,4.25,95.18,0.9842848084,0.984252,6,P-GPS,
74700,2022-08-15 23:37:22,0,0,0.984252,,,0.9842848084,1.64042,0,0,0,0,0,8.145,1.3123688084,1.312336,0,0,0,0,0,139.9, 0.3, -0.1,0,0,1024,1024,1024,364,0,0,0,-100,136.8,0,0,79,4.071,4.062,0,0,0,0,4.25,95.18,0.9842848084,0.984252,6,P-GPS,
74800,2022-08-15 23:37:22,0,0,0.984252,,,0.9842848084,1.64042,0,0,0,0,0,8.145,1.3123688084,1.312336,0,0,0,0,0,135.2, 0.1, 0.2,0,0,1024,1024,1024,364,0,0,0,-100,132,0,0,79,4.071,4.062,0,0,0,0,4.25,95.18,0.9842848084,0.984252,6,P-GPS,
74900,2022-08-15 23:37:22,0,0,0.984252,,,0.9842848084,1.64042,0,0,0,0,0,8.145,1.3123688084,1.312336,0,0,0,0,0,130.3, 0.1, 0.2,0,0,1024,1024,1024,364,0,0,0,-100,127.2,0,0,79,4.071,4.062,0,0,0,0,4.25,95.18,0.9842848084,0.984252,6,P-GPS,
75000,2022-08-15 23:37:22,0,0,0.984252,,,0.9842848084,1.64042,0,0,0,0,0,8.136,1.3123688084,1.312336,0,0,0,0,0,125.5, 0.1, 0.3,0,0,1024,1024,1024,364,0,0,0,-100,122.4,0,0,79,4.068,4.058,0,0,0,0,4.287,95.36,0.9842848084,0.984252,6,P-GPS,
75100,2022-08-15 23:37:22,0,0,0.984252,,,0.9842848084,1.64042,0,0,0,0,0,8.136,1.3123688084,1.312336,0,0,0,0,0,120.7, 0.1, -0.2,0,0,1024,1024,1024,364,0,0,0,-100,117.6,0,0,79,4.068,4.058,0,0,0,0,4.287,95.36,0.9842848084,0.984252,6,P-GPS,
75200,2022-08-15 23:37:22,0,0,0.984252,,,0.9842848084,1.64042,0,0,0,0,0,8.136,1.3123688084,1.312336,0,0,0,0,0,115.8, 0.2, -0.2,0,0,1024,1024,1024,364,0,0,0,-100,112.8,0,0,79,4.068,4.058,0,0,0,0,4.287,95.36,0.9842848084,0.984252,6,P-GPS,
75300,2022-08-15 23:37:22,0,0,0.984252,,,0.9842848084,1.64042,0,0,0,0,0,8.136,1.3123688084,1.312336,0,0,0,0,0,111, 0.3, -0.4,0,0,1024,1024,1024,840,0,0,0,-28,108,0,0,79,4.068,4.058,0,0,0,0,4.287,95.36,0.9842848084,0.984252,6,P-GPS,
75400,2022-08-15 23:37:22,0,0,0.984252,,,0.9842848084,1.64042,0,0,0,0,0,8.136,1.3123688084,1.312336,0,0,0,0,0,106.4, 0.2, 0,0,0,1024,1024,1024,1024,0,0,0,0,103.3,0,0,79,4.068,4.058,0,0,0,0,4.287,95.36,0.9842848084,0.984252,6,P-GPS,
75500,2022-08-15 23:37:23,0,0,0.984252,,,0.9842848084,1.64042,0,0,0,0,0,8.136,1.3123688084,1.312336,0,0,0,0,0,102.4, 0.3, 0.1,0,0,1024,1024,1024,1024,0,0,0,0,100.5,0,0,79,4.068,4.058,0,0,0,0,4.287,95.36,0.9842848084,0.984252,6,P-GPS,
75600,2022-08-15 23:37:23,0,0,0.984252,,,0.9842848084,1.64042,0,0,0,0,0,8.136,1.3123688084,1.312336,0,0,0,0,0,100.4, 0.6, 0.3,0,0,1024,1024,1024,1024,0,0,0,0,99.4,0,0,79,4.068,4.058,0,0,0,0,4.287,95.36,0.9842848084,0.984252,6,P-GPS,
75700,2022-08-15 23:37:23,0,0,0.984252,,,0.9842848084,1.64042,0,0,0,0,0,8.136,1.3123688084,1.312336,0,0,0,0,0,99.7, 0.4, 0.8,0,0,1024,1024,1024,1024,0,0,0,0,99.2,0,0,79,4.068,4.058,0,0,0,0,4.287,95.36,0.9842848084,0.984252,6,P-GPS,
75800,2022-08-15 23:37:23,0,0,0.984252,,,0.9842848084,1.64042,0,0,0,0,0,8.136,1.3123688084,1.312336,0,0,0,0,0,99.6, 0.1, 0.9,0,0,1024,1024,1024,1024,0,0,0,0,99.2,0,0,79,4.068,4.058,0,0,0,0,4.287,95.36,0.9842848084,0.984252,6,P-GPS,
75900,2022-08-15 23:37:23,0,0,0.656168,,,0.6562008084,1.64042,0,0,0,0,0,8.136,1.3123688084,1.312336,0,0,0,0,0,99.4, 0.2, 0.4,0,0,1024,1024,1024,1024,0,0,0,0,99.2,0,0,79,4.068,4.058,0,0,0,0,4.287,95.36,0.6562008084,0.656168,6,P-GPS,
76000,2022-08-15 23:37:23,0,0,0.656168,,,0.6562008084,1.64042,0,0,0,0,0,8.132,1.3123688084,1.312336,0,0,0,0,0,99.4, 0, 0,0,0,1024,1024,1024,1024,0,0,0,0,99.2,0,0,79,4.066,4.056,0,0,0,0,4.293,95.36,0.6562008084,0.656168,6,P-GPS,
76100,2022-08-15 23:37:23,0,0,0.656168,,,0.6562008084,1.64042,0,0,0,0,0,8.132,1.3123688084,1.312336,0,0,0,0,0,99.4, 0.2, 0.3,0,0,1024,1024,1024,1024,0,0,0,0,99.2,0,0,79,4.066,4.056,0,0,0,0,4.293,95.36,0.6562008084,0.656168,6,P-GPS,
76200,2022-08-15 23:37:23,0,0,0.656168,,,0.6562008084,1.64042,0,0,0,0,0,8.132,1.3123688084,1.312336,0,0,0,0,0,99.4, 0.4, 0.7,0,0,1024,1024,1024,1024,0,0,0,0,99.2,0,0,79,4.066,4.056,0,0,0,0,4.293,95.36,0.6562008084,0.656168,6,P-GPS,
76300,2022-08-15 23:37:23,0,0,0.656168,,,0.6562008084,1.64042,0,0,0,0,0,8.132,1.3123688084,1.312336,0,0,0,0,0,99.5, 0.5, 0.5,0,0,1024,1024,1024,1024,0,0,0,0,99.2,0,0,79,4.066,4.056,0,0,0,0,4.293,95.36,0.6562008084,0.656168,6,P-GPS,
76400,2022-08-15 23:37:23,0,0,0.656168,,,0.6562008084,1.64042,0,0,0,0,0,8.132,1.3123688084,1.312336,0,0,0,0,0,99.5, 0.4, 0.2,0,0,1024,1024,1024,1024,0,0,0,0,99.2,0,0,79,4.066,4.056,0,0,0,0,4.293,95.36,0.6562008084,0.656168,38,Tripod,
76500,2022-08-15 23:37:23,0,0,0.656168,,,0.6562008084,1.64042,0,0,0,0,0,8.132,1.3123688084,1.312336,0,0,0,0,0,99.4, 0.6, 0.1,0,0,1024,1024,1024,1024,0,0,0,0,99.2,0,0,79,4.066,4.056,0,0,0,0,4.293,95.36,0.6562008084,0.656168,38,Tripod,
76600,2022-08-15 23:37:24,0,0,0.656168,,,0.6562008084,1.64042,0,0,0,0,0,8.132,1.3123688084,1.312336,0,0,0,0,0,99.3, 0.7, -0.1,0,0,1024,1024,1024,1024,0,0,0,0,99.2,0,0,79,4.066,4.056,0,0,0,0,4.293,95.36,0.6562008084,0.656168,38,Tripod,
76700,2022-08-15 23:37:24,0,0,0.656168,,,0.6562008084,1.64042,0,0,0,0,0,8.132,1.3123688084,1.312336,0,0,0,0,0,99.3, 0.6, 0,0,0,1024,1024,1024,769,0,0,0,-39,99.2,0,0,79,4.066,4.056,0,0,0,0,4.293,95.36,0.6562008084,0.656168,38,Tripod,
76800,2022-08-15 23:37:24,0,0,0.656168,,,0.6562008084,1.64042,0,0,0,0,0,8.132,1.3123688084,1.312336,0,0,0,0,0,99.3, 0.7, 0.1,0,0,1024,1024,1024,769,0,0,0,-39,99.2,0,0,79,4.066,4.056,0,0,0,0,4.293,95.36,0.6562008084,0.656168,38,Tripod,
76900,2022-08-15 23:37:24,0,0,0.656168,,,0.6562008084,1.64042,0,0,0,0,0,8.132,1.3123688084,1.312336,0,0,0,0,0,99.3, 0.2, -0.1,0,0,1024,1024,1024,364,0,0,0,-100,99.2,0,0,79,4.066,4.056,0,0,0,0,4.293,95.36,0.6562008084,0.656168,38,Tripod,
77000,2022-08-15 23:37:24,0,0,0.656168,,,0.6562008084,1.64042,0,0,0,0,0,8.126,1.3123688084,1.312336,0,0,0,0,0,99.2, 0, 0,0,0,1024,1024,1024,364,0,0,0,-100,99.2,0,0,79,4.065,4.053,0,0,0,0,4.319,95.36,0.6562008084,0.656168,38,Tripod,
77100,2022-08-15 23:37:24,0,0,0.656168,,,0.6562008084,1.64042,0,0,0,0,0,8.126,1.3123688084,1.312336,0,0,0,0,0,99.2, 0.1, 0.3,0,0,1024,1024,1024,364,0,0,0,-100,99.1,0,0,79,4.065,4.053,0,0,0,0,4.319,95.36,0.6562008084,0.656168,38,Tripod,
77200,2022-08-15 23:37:24,0,0,0.656168,,,0.6562008084,1.64042,0,0,0,0,0,8.126,1.3123688084,1.312336,0,0,0,0,0,99.2, 0.2, 0.4,0,0,1024,1024,1024,364,0,0,0,-100,99,0,0,79,4.065,4.053,0,0,0,0,4.319,95.36,0.6562008084,0.656168,38,Tripod,
77300,2022-08-15 23:37:24,0,0,0.656168,,,0.6562008084,1.64042,0,0,0,0,0,8.126,1.3123688084,1.312336,0,0,0,0,0,99, 0.1, 0,0,0,1024,1024,1024,364,0,0,0,-100,98.8,0,0,79,4.065,4.053,0,0,0,0,4.319,95.36,0.6562008084,0.656168,38,Tripod,
77400,2022-08-15 23:37:24,0,0,0.656168,,,0.6562008084,1.64042,0,0,0,0,0,8.126,1.3123688084,1.312336,0,0,0,0,0,98.8, 0.2, 0.2,0,0,1024,1024,1024,364,0,0,0,-100,98.6,0,0,79,4.065,4.053,0,0,0,0,4.319,95.36,0.6562008084,0.656168,38,Tripod,
77500,2022-08-15 23:37:25,0,0,0.656168,,,0.6562008084,1.64042,0,0,0,0,0,8.126,1.3123688084,1.312336,0,0,0,0,0,98.6, 0.2, 0.5,0,0,1024,1024,1024,364,0,0,0,-100,98.4,0,0,79,4.065,4.053,0,0,0,0,4.319,95.36,0.6562008084,0.656168,38,Tripod,
77600,2022-08-15 23:37:25,0,0,0.984252,,,0.9842848084,1.64042,0,0,0,0,0,8.126,1.3123688084,1.312336,0,0,0,0,0,98.3, 0.3, 0.5,0,0,1024,1024,1024,364,0,0,0,-100,98.1,0,0,79,4.065,4.053,0,0,0,0,4.319,95.36,0.9842848084,0.984252,38,Tripod,
77700,2022-08-15 23:37:25,0,0,0.984252,,,0.9842848084,1.64042,0,0,0,0,0,8.126,1.3123688084,1.312336,0,0,0,0,0,98, 0.8, 1,0,0,1024,1024,1024,364,0,0,0,-100,97.7,0,0,79,4.065,4.053,0,0,0,0,4.319,95.36,0.9842848084,0.984252,38,Tripod,
77800,2022-08-15 23:37:25,0,0,0.984252,,,0.9842848084,1.64042,0,0,0,0,0,8.126,1.3123688084,1.312336,0,0,0,0,0,97.6, 0.9, 0.7,0,0,1024,1024,1024,364,0,0,0,-100,97.4,0,0,79,4.065,4.053,0,0,0,0,4.319,95.36,0.9842848084,0.984252,38,Tripod,
77900,2022-08-15 23:37:25,0,0,0.984252,,,0.9842848084,1.64042,0,0,0,0,0,8.126,1.3123688084,1.312336,0,0,0,0,0,97.2, 0.4, 0.6,0,0,1024,1024,1024,364,0,0,0,-100,97,0,0,79,4.065,4.053,0,0,0,0,4.319,95.36,0.9842848084,0.984252,38,Tripod,
78000,2022-08-15 23:37:25,0,0,0.984252,,,0.9842848084,1.64042,0,0,0,0,0,8.119,1.3123688084,1.312336,0,0,0,0,0,96.9, 0.4, 0.5,0,0,1024,1024,1024,364,0,0,0,-100,96.7,0,0,79,4.062,4.051,0,0,0,0,4.313,95.36,0.9842848084,0.984252,38,Tripod,
78100,2022-08-15 23:37:25,0,0,0.984252,,,0.9842848084,1.64042,0,0,0,0,0,8.119,1.3123688084,1.312336,0,0,0,0,0,96.5, 0.3, 0.4,0,0,1024,1024,1024,364,0,0,0,-100,96.3,0,0,79,4.062,4.051,0,0,0,0,4.313,95.36,0.9842848084,0.984252,38,Tripod,
78200,2022-08-15 23:37:25,0,0,0.984252,,,0.9842848084,1.64042,0,0,0,0,0,8.119,1.3123688084,1.312336,0,0,0,0,0,96, 0.1, 0.1,0,0,1024,1024,1024,364,0,0,0,-100,95.9,0,0,79,4.062,4.051,0,0,0,0,4.313,95.36,0.9842848084,0.984252,38,Tripod,
78300,2022-08-15 23:37:25,0,0,0.984252,,,0.9842848084,1.64042,0,0,0,0,0,8.119,1.3123688084,1.312336,0,0,0,0,0,95.7, 0, 0.4,0,0,1024,1024,1024,364,0,0,0,-100,95.5,0,0,79,4.062,4.051,0,0,0,0,4.313,95.36,0.9842848084,0.984252,38,Tripod,
78400,2022-08-15 23:37:25,0,0,0.984252,,,0.9842848084,1.64042,0,0,0,0,0,8.119,1.3123688084,1.312336,0,0,0,0,0,95.4, 0.1, 0.6,0,0,1024,1024,1024,364,0,0,0,-100,95.1,0,0,79,4.062,4.051,0,0,0,0,4.313,95.36,0.9842848084,0.984252,38,Tripod,
78500,2022-08-15 23:37:26,0,0,0.984252,,,0.9842848084,1.64042,0,0,0,0,0,8.119,1.3123688084,1.312336,0,0,0,0,0,95, 0.2, 0.1,0,0,1024,1024,1024,364,0,0,0,-100,94.7,0,0,79,4.062,4.051,0,0,0,0,4.313,95.36,0.9842848084,0.984252,38,Tripod,
78600,2022-08-15 23:37:26,0,0,0.984252,,,0.9842848084,1.64042,0,0,0,0,0,8.119,1.3123688084,1.312336,0,0,0,0,0,94.7, 0.4, -0.1,0,0,1024,1024,1024,364,0,0,0,-100,94.3,0,0,79,4.062,4.051,0,0,0,0,4.313,95.36,0.9842848084,0.984252,38,Tripod,
78700,2022-08-15 23:37:26,0,0,0.984252,,,0.9842848084,1.64042,0,0,0,0,0,8.119,1.3123688084,1.312336,0,0,0,0,0,94.3, 0.5, -0.1,0,0,1024,1024,1024,364,0,0,0,-100,93.9,0,0,79,4.062,4.051,0,0,0,0,4.313,95.36,0.9842848084,0.984252,38,Tripod,
78800,2022-08-15 23:37:26,0,0,0.984252,,,0.9842848084,1.64042,0,0,0,0,0,8.119,1.3123688084,1.312336,0,0,0,0,0,93.9, 0.2, 0,0,0,1024,1024,1024,364,0,0,0,-100,93.5,0,0,79,4.062,4.051,0,0,0,0,4.313,95.36,0.9842848084,0.984252,38,Tripod,
78900,2022-08-15 23:37:26,0,0,0.984252,,,0.9842848084,1.64042,0,0,0,0,0,8.119,1.3123688084,1.312336,0,0,0,0,0,93.5, 0, 0,0,0,1024,1024,1024,364,0,0,0,-100,93.1,0,0,79,4.062,4.051,0,0,0,0,4.313,95.36,0.9842848084,0.984252,38,Tripod,
79000,2022-08-15 23:37:26,0,0,0.984252,,,0.9842848084,1.64042,0,0,0,0,0,8.119,1.3123688084,1.312336,0,0,0,0,0,93.1, 0.2, 0.2,0,0,1024,1024,1024,364,0,0,0,-100,92.7,0,0,79,4.059,4.049,0,0,0,0,4.264,95.36,0.9842848084,0.984252,38,Tripod,
79100,2022-08-15 23:37:26,0,0,0.984252,,,0.9842848084,1.64042,0,0,0,0,0,8.119,1.3123688084,1.312336,0,0,0,0,0,92.6, 0.5, 0.1,0,0,1024,1024,1024,364,0,0,0,-100,92.3,0,0,79,4.059,4.049,0,0,0,0,4.264,95.36,0.9842848084,0.984252,38,Tripod,
79200,2022-08-15 23:37:26,0,0,0.984252,,,0.9842848084,1.64042,0,0,0,0,0,8.119,1.3123688084,1.312336,0,0,0,0,0,92.2, 0.3, 0.2,0,0,1024,1024,1024,364,0,0,0,-100,91.9,0,0,79,4.059,4.049,0,0,0,0,4.264,95.36,0.9842848084,0.984252,38,Tripod,
79300,2022-08-15 23:37:26,0,0,0.984252,,,0.9842848084,1.64042,0,0,0,0,0,8.119,1.3123688084,1.312336,0,0,0,0,0,91.8, 0, 0,0,0,1024,1024,1024,364,0,0,0,-100,91.5,0,0,79,4.059,4.049,0,0,0,0,4.264,95.36,0.9842848084,0.984252,38,Tripod,
79400,2022-08-15 23:37:26,0,0,0.984252,,,0.9842848084,1.64042,0,0,0,0,0,8.119,1.3123688084,1.312336,0,0,0,0,0,91.5, 0, 0,0,0,1024,1024,1024,364,0,0,0,-100,91.1,0,0,79,4.059,4.049,0,0,0,0,4.264,95.36,0.9842848084,0.984252,38,Tripod,
79500,2022-08-15 23:37:27,0,0,0.984252,,,0.9842848084,1.64042,0,0,0,0,0,8.119,1.3123688084,1.312336,0,0,0,0,0,91.1, 0, 0,0,0,1024,1024,1024,364,0,0,0,-100,90.7,0,0,79,4.059,4.049,0,0,0,0,4.264,95.36,0.9842848084,0.984252,38,Tripod,
79600,2022-08-15 23:37:27,0,0,0.984252,,,0.9842848084,1.64042,0,0,0,0,0,8.119,1.3123688084,1.312336,0,0,0,0,0,90.6, 0, 0,0,0,1024,1024,1024,364,0,0,0,-100,90.3,0,0,79,4.059,4.049,0,0,0,0,4.264,95.36,0.9842848084,0.984252,38,Tripod,
79700,2022-08-15 23:37:27,0,0,0.984252,,,0.9842848084,1.64042,0,0,0,0,0,8.119,1.3123688084,1.312336,0,0,0,0,0,90.3, 0.4, 0.2,0,0,1024,1024,1024,364,0,0,0,-100,89.9,0,0,79,4.059,4.049,0,0,0,0,4.264,95.36,0.9842848084,0.984252,38,Tripod,
79800,2022-08-15 23:37:27,0,0,0.984252,,,0.9842848084,1.64042,0,0,0,0,0,8.119,1.3123688084,1.312336,0,0,0,0,0,89.9, 0.2, -0.2,0,0,1024,1024,1024,364,0,0,0,-100,89.5,0,0,79,4.059,4.049,0,0,0,0,4.264,95.36,0.9842848084,0.984252,38,Tripod,
79900,2022-08-15 23:37:27,0,0,0.984252,,,0.9842848084,1.64042,0,0,0,0,0,8.119,1.3123688084,1.312336,0,0,0,0,0,89.4, 0.1, -0.6,0,0,1024,1024,1024,364,0,0,0,-100,89.1,0,0,79,4.059,4.049,0,0,0,0,4.264,95.36,0.9842848084,0.984252,38,Tripod,
80000,2022-08-15 23:37:27,0,0,1.312336,,,1.3123688084,1.64042,0,0,0,0,0,8.119,1.3123688084,1.312336,0,0,0,0,0,88.9, 0.1, -0.5,0,0,1024,1024,1024,364,0,0,0,-100,88.7,0,0,79,4.059,4.049,0,0,0,0,4.264,95.36,1.3123688084,1.312336,38,Tripod,
80100,2022-08-15 23:37:27,0,0,1.312336,,,1.3123688084,1.64042,0,0,0,0,0,8.112,1.3123688084,1.312336,0,0,0,0,0,88.6, 0.1, -0.5,0,0,1024,1024,1024,364,0,0,0,-100,88.3,0,0,79,4.059,4.048,0,0,0,0,4.343,95.36,1.3123688084,1.312336,38,Tripod,
80200,2022-08-15 23:37:27,0,0,1.312336,,,1.3123688084,1.64042,0,0,0,0,0,8.112,1.3123688084,1.312336,0,0,0,0,0,88.2, 0, 0,0,0,1024,1024,1024,364,0,0,0,-100,87.9,0,0,79,4.059,4.048,0,0,0,0,4.343,95.36,1.3123688084,1.312336,38,Tripod,
80300,2022-08-15 23:37:27,0,0,1.312336,,,1.3123688084,1.64042,0,0,0,0,0,8.112,1.3123688084,1.312336,0,0,0,0,0,87.8, -0.2, 0.4,0,0,1024,1024,1024,364,0,0,0,-100,87.5,0,0,79,4.059,4.048,0,0,0,0,4.343,95.36,1.3123688084,1.312336,38,Tripod,
80400,2022-08-15 23:37:27,0,0,1.312336,,,1.3123688084,1.64042,0,0,0,0,0,8.112,1.3123688084,1.312336,0,0,0,0,0,87.4, -0.1, 0.4,0,0,1024,1024,1024,364,0,0,0,-100,87.1,0,0,79,4.059,4.048,0,0,0,0,4.343,95.36,1.3123688084,1.312336,38,Tripod,
80500,2022-08-15 23:37:28,0,0,1.312336,,,1.3123688084,1.64042,0,0,0,0,0,8.112,1.3123688084,1.312336,0,0,0,0,0,87, -0.1, 0.4,0,0,1024,1024,1024,364,0,0,0,-100,86.7,0,0,79,4.059,4.048,0,0,0,0,4.343,95.36,1.3123688084,1.312336,38,Tripod,
80600,2022-08-15 23:37:28,0,0,1.312336,,,1.3123688084,1.64042,0,0,0,0,0,8.112,1.3123688084,1.312336,0,0,0,0,0,86.6, 0, 0.3,0,0,1024,1024,1024,364,0,0,0,-100,86.3,0,0,79,4.059,4.048,0,0,0,0,4.343,95.36,1.3123688084,1.312336,38,Tripod,
80700,2022-08-15 23:37:28,0,0,1.312336,,,1.3123688084,1.64042,0,0,0,0,0,8.112,1.3123688084,1.312336,0,0,0,0,0,86.1, 0, 0.5,0,0,1024,1024,1024,364,0,0,0,-100,85.9,0,0,79,4.059,4.048,0,0,0,0,4.343,95.36,1.3123688084,1.312336,38,Tripod,
80800,2022-08-15 23:37:28,0,0,1.312336,,,1.3123688084,1.64042,0,0,0,0,0,8.112,1.3123688084,1.312336,0,0,0,0,0,85.7, -0.2, 0.8,0,0,1024,1024,1024,364,0,0,0,-100,85.5,0,0,79,4.059,4.048,0,0,0,0,4.343,95.36,1.3123688084,1.312336,38,Tripod,
80900,2022-08-15 23:37:28,0,0,1.312336,,,1.3123688084,1.64042,0,0,0,0,0,8.112,1.3123688084,1.312336,0,0,0,0,0,85.4, 0, 0.8,0,0,1024,1024,1024,364,0,0,0,-100,85.1,0,0,79,4.059,4.048,0,0,0,0,4.343,95.36,1.3123688084,1.312336,38,Tripod,
81000,2022-08-15 23:37:28,0,0,1.312336,,,1.3123688084,1.64042,0,0,0,0,0,8.112,1.3123688084,1.312336,0,0,0,0,0,85, -0.1, 0.2,0,0,1024,1024,1024,364,0,0,0,-100,84.7,0,0,79,4.059,4.048,0,0,0,0,4.343,95.36,1.3123688084,1.312336,38,Tripod,
81100,2022-08-15 23:37:28,0,0,1.312336,,,1.3123688084,1.64042,0,0,0,0,0,8.112,1.3123688084,1.312336,0,0,0,0,0,84.6, 0, -0.3,0,0,1024,1024,1024,364,0,0,0,-100,84.3,0,0,79,4.059,4.048,0,0,0,0,4.343,95.36,1.3123688084,1.312336,38,Tripod,
81200,2022-08-15 23:37:28,0,0,1.64042,,,1.6404528084,1.64042,0,0,0,0,0,8.108,1.6404528084,1.64042,0,0,0,0,0,84.3, 0.1, -0.3,0,0,1024,1024,1024,364,0,0,0,-100,83.9,0,0,79,4.057,4.046,0,0,0,0,4.266,95.36,1.6404528084,1.64042,38,Tripod,
81300,2022-08-15 23:37:28,0,0,1.64042,,,1.6404528084,1.64042,0,0,0,0,0,8.108,1.6404528084,1.64042,0,0,0,0,0,83.9, 0, -0.5,0,0,1024,1024,1024,364,0,0,0,-100,83.5,0,0,79,4.057,4.046,0,0,0,0,4.266,95.36,1.6404528084,1.64042,38,Tripod,
81400,2022-08-15 23:37:28,0,0,1.64042,,,1.6404528084,1.64042,0,0,0,0,0,8.108,1.6404528084,1.64042,0,0,0,0,0,83.4, 0.1, -0.4,0,0,1024,1024,1024,364,0,0,0,-100,83.1,0,0,79,4.057,4.046,0,0,0,0,4.266,95.36,1.6404528084,1.64042,38,Tripod,
81500,2022-08-15 23:37:29,0,0,1.64042,,,1.6404528084,1.64042,0,0,0,0,0,8.108,1.6404528084,1.64042,0,0,0,0,0,83.1, 0, -0.4,0,0,1024,1024,1024,364,0,0,0,-100,82.7,0,0,79,4.057,4.046,0,0,0,0,4.266,95.36,1.6404528084,1.64042,38,Tripod,
81600,2022-08-15 23:37:29,0,0,1.64042,,,1.6404528084,1.64042,0,0,0,0,0,8.108,1.6404528084,1.64042,0,0,0,0,0,82.8, 0, 0,0,0,1024,1024,1024,364,0,0,0,-100,82.3,0,0,79,4.057,4.046,0,0,0,0,4.266,95.36,1.6404528084,1.64042,38,Tripod,
81700,2022-08-15 23:37:29,0,0,1.64042,,,1.6404528084,1.64042,0,0,0,0,0,8.108,1.6404528084,1.64042,0,0,0,0,0,82.4, 0.1, 0.4,0,0,1024,1024,1024,364,0,0,0,-100,81.9,0,0,79,4.057,4.046,0,0,0,0,4.266,95.36,1.6404528084,1.64042,38,Tripod,
81800,2022-08-15 23:37:29,0,0,1.64042,,,1.6404528084,1.64042,0,0,0,0,0,8.108,1.6404528084,1.64042,0,0,0,0,0,81.8, -0.1, 0,0,0,1024,1024,1024,364,0,0,0,-100,81.5,0,0,79,4.057,4.046,0,0,0,0,4.266,95.36,1.6404528084,1.64042,38,Tripod,
81900,2022-08-15 23:37:29,0,0,1.64042,,,1.6404528084,1.64042,0,0,0,0,0,8.108,1.6404528084,1.64042,0,0,0,0,0,81.5, 0, -0.2,0,0,1024,1024,1024,364,0,0,0,-100,81.1,0,0,79,4.057,4.046,0,0,0,0,4.266,95.36,1.6404528084,1.64042,38,Tripod,
82000,2022-08-15 23:37:29,0,0,1.968504,,,1.9685368084,1.64042,0,0,0,0,0,8.108,1.9685368084,1.968504,0,0,0,0,0,81, 0, -0.2,0,0,1024,1024,1024,364,0,0,0,-100,80.7,0,0,79,4.057,4.046,0,0,0,0,4.266,95.36,1.9685368084,1.968504,38,Tripod,
82100,2022-08-15 23:37:29,0,0,1.968504,,,1.9685368084,1.64042,0,0,0,0,0,8.108,1.9685368084,1.968504,0,0,0,0,0,80.5, -0.3, -0.3,0,0,1024,1024,1024,364,0,0,0,-100,80.3,0,0,79,4.057,4.046,0,0,0,0,4.266,95.36,1.9685368084,1.968504,38,Tripod,
82200,2022-08-15 23:37:29,0,0,1.968504,,,1.9685368084,1.64042,0,0,0,0,0,8.101,1.9685368084,1.968504,0,0,0,0,0,80.1, 0, -0.1,0,0,1024,1024,1024,364,0,0,0,-100,79.9,0,0,79,4.056,4.044,0,0,0,0,4.259,95.54,1.9685368084,1.968504,38,Tripod,
82300,2022-08-15 23:37:29,0,0,1.968504,,,1.9685368084,1.64042,0,0,0,0,0,8.101,1.9685368084,1.968504,0,0,0,0,0,79.6, 0.1, 0,0,0,1024,1024,1024,364,0,0,0,-100,79.5,0,0,79,4.056,4.044,0,0,0,0,4.259,95.54,1.9685368084,1.968504,38,Tripod,
82400,2022-08-15 23:37:29,0,0,1.968504,,,1.9685368084,1.64042,0,0,0,0,0,8.101,1.9685368084,1.968504,0,0,0,0,0,79.3, 0.2, 0,0,0,1024,1024,1024,364,0,0,0,-100,79.1,0,0,79,4.056,4.044,0,0,0,0,4.259,95.54,1.9685368084,1.968504,38,Tripod,
82500,2022-08-15 23:37:29,0,0,1.968504,,,1.9685368084,1.64042,0,0,0,0,0,8.101,1.9685368084,1.968504,0,0,0,0,0,79, 0, 0.1,0,0,1024,1024,1024,364,0,0,0,-100,78.7,0,0,79,4.056,4.044,0,0,0,0,4.259,95.54,1.9685368084,1.968504,38,Tripod,
82600,2022-08-15 23:37:30,0,0,1.968504,,,1.9685368084,1.64042,0,0,0,0,0,8.101,1.9685368084,1.968504,0,0,0,0,0,78.6, 0, 0,0,0,1024,1024,1024,364,0,0,0,-100,78.3,0,0,79,4.056,4.044,0,0,0,0,4.259,95.54,1.9685368084,1.968504,38,Tripod,
82700,2022-08-15 23:37:30,0,0,1.968504,,,1.9685368084,1.64042,0,0,0,0,0,8.101,1.9685368084,1.968504,0,0,0,0,0,78.1, 0, -0.3,0,0,1024,1024,1024,364,0,0,0,-100,77.9,0,0,79,4.056,4.044,0,0,0,0,4.259,95.54,1.9685368084,1.968504,38,Tripod,
82800,2022-08-15 23:37:30,0,0,1.968504,,,1.9685368084,1.64042,0,0,0,0,0,8.101,1.9685368084,1.968504,0,0,0,0,0,77.7, 0, -0.1,0,0,1024,1024,1024,364,0,0,0,-100,77.5,0,0,79,4.056,4.044,0,0,0,0,4.259,95.54,1.9685368084,1.968504,38,Tripod,
82900,2022-08-15 23:37:30,0,0,1.968504,,,1.9685368084,1.64042,0,0,0,0,0,8.101,1.9685368084,1.968504,0,0,0,0,0,77.4, 0.1, 0,0,0,1024,1024,1024,364,0,0,0,-100,77.1,0,0,79,4.056,4.044,0,0,0,0,4.259,95.54,1.9685368084,1.968504,38,Tripod,
83000,2022-08-15 23:37:30,0,0,1.968504,,,1.9685368084,1.64042,0,0,0,0,0,8.101,1.9685368084,1.968504,0,0,0,0,0,76.9, 0.4, -0.1,0,0,1024,1024,1024,364,0,0,0,-100,76.7,0,0,79,4.056,4.044,0,0,0,0,4.259,95.54,1.9685368084,1.968504,38,Tripod,
83100,2022-08-15 23:37:30,0,0,1.968504,,,1.9685368084,1.64042,0,0,0,0,0,8.101,1.9685368084,1.968504,0,0,0,0,0,76.5, 0.5, -0.1,0,0,1024,1024,1024,364,0,0,0,-100,76.3,0,0,79,4.056,4.044,0,0,0,0,4.259,95.54,1.9685368084,1.968504,38,Tripod,
83200,2022-08-15 23:37:30,0,0,1.968504,,,1.9685368084,1.64042,0,0,0,0,0,8.101,1.9685368084,1.968504,0,0,0,0,0,76.2, 0.2, 0,0,0,1024,1024,1024,364,0,0,0,-100,75.9,0,0,79,4.056,4.044,0,0,0,0,4.259,95.54,1.9685368084,1.968504,38,Tripod,
83300,2022-08-15 23:37:30,0,0,1.968504,,,1.9685368084,1.64042,0,0,0,0,0,8.101,1.9685368084,1.968504,0,0,0,0,0,75.8, 0, 0.1,0,0,1024,1024,1024,364,0,0,0,-100,75.5,0,0,79,4.056,4.044,0,0,0,0,4.259,95.54,1.9685368084,1.968504,38,Tripod,
83400,2022-08-15 23:37:30,0,0,1.968504,,,1.9685368084,1.64042,0,0,0,0,0,8.101,1.9685368084,1.968504,0,0,0,0,0,75.4, 0, 0,0,0,1024,1024,1024,364,0,0,0,-100,75.1,0,0,79,4.056,4.044,0,0,0,0,4.259,95.54,1.9685368084,1.968504,38,Tripod,
83500,2022-08-15 23:37:31,0,0,2.296588,,,2.2966208084,1.64042,0,0,0,0,0,8.101,2.2966208084,2.296588,0,0,0,0,0,75.1, 0.1, 0.4,0,0,1024,1024,1024,364,0,0,0,-100,74.7,0,0,79,4.056,4.044,0,0,0,0,4.259,95.54,2.2966208084,2.296588,38,Tripod,
83600,2022-08-15 23:37:31,0,0,2.296588,,,2.2966208084,1.64042,0,0,0,0,0,8.101,2.2966208084,2.296588,0,0,0,0,0,74.6, 0.2, 0.4,0,0,1024,1024,1024,364,0,0,0,-100,74.3,0,0,79,4.056,4.044,0,0,0,0,4.259,95.54,2.2966208084,2.296588,38,Tripod,
83700,2022-08-15 23:37:31,0,0,2.296588,,,2.2966208084,1.64042,0,0,0,0,0,8.101,2.2966208084,2.296588,0,0,0,0,0,74.2, 0.3, 0.4,0,0,1024,1024,1024,364,0,0,0,-100,73.9,0,0,79,4.056,4.044,0,0,0,0,4.259,95.54,2.2966208084,2.296588,38,Tripod,
83800,2022-08-15 23:37:31,0,0,2.296588,,,2.2966208084,1.64042,0,0,0,0,0,8.101,2.2966208084,2.296588,0,0,0,0,0,73.9, 0.5, 0.6,0,0,1024,1024,1024,364,0,0,0,-100,73.5,0,0,79,4.056,4.044,0,0,0,0,4.259,95.54,2.2966208084,2.296588,38,Tripod,
83900,2022-08-15 23:37:31,0,0,2.296588,,,2.2966208084,1.64042,0,0,0,0,0,8.101,2.2966208084,2.296588,0,0,0,0,0,73.4, 0.2, 0.7,0,0,1024,1024,1024,364,0,0,0,-100,73.1,0,0,78,4.056,4.044,0,0,0,0,4.259,95.54,2.2966208084,2.296588,38,Tripod,
84000,2022-08-15 23:37:31,0,0,2.296588,,,2.2966208084,1.64042,0,0,0,0,0,8.095,2.2966208084,2.296588,0,0,0,0,0,73, 0.2, 0.6,0,0,1024,1024,1024,364,0,0,0,-100,72.7,0,0,78,4.055,4.044,0,0,0,0,4.343,95.54,2.2966208084,2.296588,38,Tripod,
84100,2022-08-15 23:37:31,0,0,2.296588,,,2.2966208084,1.64042,0,0,0,0,0,8.095,2.2966208084,2.296588,0,0,0,0,0,72.5, -0.2, 0.2,0,0,1024,1024,1024,364,0,0,0,-100,72.3,0,0,78,4.055,4.044,0,0,0,0,4.343,95.54,2.2966208084,2.296588,38,Tripod,
84200,2022-08-15 23:37:31,0,0,1.968504,,,1.9685368084,1.64042,0,0,0,0,0,8.095,2.2966208084,2.296588,0,0,0,0,0,72.1, -0.3, 0,0,0,1024,1024,1024,364,0,0,0,-100,71.9,0,0,78,4.055,4.044,0,0,0,0,4.343,95.54,1.9685368084,1.968504,38,Tripod,
84300,2022-08-15 23:37:31,0,0,1.968504,,,1.9685368084,1.64042,0,0,0,0,0,8.095,2.2966208084,2.296588,0,0,0,0,0,71.7, -0.3, -0.2,0,0,1024,1024,1024,364,0,0,0,-100,71.5,0,0,78,4.055,4.044,0,0,0,0,4.343,95.54,1.9685368084,1.968504,38,Tripod,
84400,2022-08-15 23:37:31,0,0,1.968504,,,1.9685368084,1.64042,0,0,0,0,0,8.095,2.2966208084,2.296588,0,0,0,0,0,71.3, 0, 0,0,0,1024,1024,1024,364,0,0,0,-100,71.1,0,0,78,4.055,4.044,0,0,0,0,4.343,95.54,1.9685368084,1.968504,38,Tripod,
84500,2022-08-15 23:37:32,0,0,1.968504,,,1.9685368084,1.64042,0,0,0,0,0,8.095,2.2966208084,2.296588,0,0,0,0,0,70.9, -0.1, 0.1,0,0,1024,1024,1024,364,0,0,0,-100,70.7,0,0,78,4.055,4.044,0,0,0,0,4.343,95.54,1.9685368084,1.968504,38,Tripod,
84600,2022-08-15 23:37:32,0,0,1.968504,,,1.9685368084,1.64042,0,0,0,0,0,8.095,2.2966208084,2.296588,0,0,0,0,0,70.5, 0.1, 0,0,0,1024,1024,1024,364,0,0,0,-100,70.3,0,0,78,4.055,4.044,0,0,0,0,4.343,95.54,1.9685368084,1.968504,38,Tripod,
84700,2022-08-15 23:37:32,0,0,1.968504,,,1.9685368084,1.64042,0,0,0,0,0,8.095,2.2966208084,2.296588,0,0,0,0,0,70.1, 0.4, 0.2,0,0,1024,1024,1024,364,0,0,0,-100,69.9,0,0,78,4.055,4.044,0,0,0,0,4.343,95.54,1.9685368084,1.968504,38,Tripod,
84800,2022-08-15 23:37:32,0,0,1.968504,,,1.9685368084,1.64042,0,0,0,0,0,8.095,2.2966208084,2.296588,0,0,0,0,0,69.7, 0.3, 0.5,0,0,1024,1024,1024,364,0,0,0,-100,69.5,0,0,78,4.055,4.044,0,0,0,0,4.343,95.54,1.9685368084,1.968504,38,Tripod,
84900,2022-08-15 23:37:32,0,0,1.968504,,,1.9685368084,1.64042,0,0,0,0,0,8.095,2.2966208084,2.296588,0,0,0,0,0,69.4, 0.4, 0.6,0,0,1024,1024,1024,364,0,0,0,-100,69.1,0,0,78,4.055,4.044,0,0,0,0,4.343,95.54,1.9685368084,1.968504,38,Tripod,
85000,2022-08-15 23:37:32,0,0,1.968504,,,1.9685368084,1.64042,0,0,0,0,0,8.092,2.2966208084,2.296588,0,0,0,0,0,68.9, 0.4, 1.1,0,0,1024,1024,1024,390,0,0,0,-96,68.7,0,0,78,4.051,4.041,0,0,0,0,4.319,95.54,1.9685368084,1.968504,38,Tripod,
85100,2022-08-15 23:37:32,0,0,1.968504,,,1.9685368084,1.64042,0,0,0,0,0,8.092,2.2966208084,2.296588,0,0,0,0,0,68.4, 0.3, 1.1,0,0,1024,1024,1024,1024,0,0,0,0,68.3,0,0,78,4.051,4.041,0,0,0,0,4.319,95.54,1.9685368084,1.968504,38,Tripod,
85200,2022-08-15 23:37:32,0,0,1.968504,,,1.9685368084,1.64042,0,0,0,0,0,8.092,2.2966208084,2.296588,0,0,0,0,0,68.1, 0, 0.7,0,0,1024,1024,1024,1024,0,0,0,0,68,0,0,78,4.051,4.041,0,0,0,0,4.319,95.54,1.9685368084,1.968504,38,Tripod,
85300,2022-08-15 23:37:32,0,0,1.968504,,,1.9685368084,1.64042,0,0,0,0,0,8.092,2.2966208084,2.296588,0,0,0,0,0,67.8, 0.5, 0.6,0,0,1024,1024,1024,1024,0,0,0,0,67.6,0,0,78,4.051,4.041,0,0,0,0,4.319,95.54,1.9685368084,1.968504,38,Tripod,
85400,2022-08-15 23:37:32,0,0,1.968504,,,1.9685368084,1.64042,0,0,0,0,0,8.092,2.2966208084,2.296588,0,0,0,0,0,67.6, 0.4, 0.5,0,0,1024,1024,1024,1024,0,0,0,0,67.3,0,0,78,4.051,4.041,0,0,0,0,4.319,95.54,1.9685368084,1.968504,38,Tripod,
85500,2022-08-15 23:37:33,0,0,1.968504,,,1.9685368084,1.64042,0,0,0,0,0,8.092,2.2966208084,2.296588,0,0,0,0,0,67.2, 0.1, 0,0,0,1024,1024,1024,1024,0,0,0,0,67,0,0,78,4.051,4.041,0,0,0,0,4.319,95.54,1.9685368084,1.968504,38,Tripod,
85600,2022-08-15 23:37:33,0,0,1.968504,,,1.9685368084,1.64042,0,0,0,0,0,8.092,2.2966208084,2.296588,0,0,0,0,0,66.8, 0, -0.2,0,0,1024,1024,1024,1024,0,0,0,0,66.7,0,0,78,4.051,4.041,0,0,0,0,4.319,95.54,1.9685368084,1.968504,38,Tripod,
85700,2022-08-15 23:37:33,0,0,1.968504,,,1.9685368084,1.64042,0,0,0,0,0,8.092,2.2966208084,2.296588,0,0,0,0,0,66.6, 0, -0.2,0,0,1024,1024,1024,1024,0,0,0,0,66.4,0,0,78,4.051,4.041,0,0,0,0,4.319,95.54,1.9685368084,1.968504,38,Tripod,
85800,2022-08-15 23:37:33,0,0,1.968504,,,1.9685368084,1.64042,0,0,0,0,0,8.092,2.2966208084,2.296588,0,0,0,0,0,66.5, 0.2, 0.2,0,0,1024,1024,1024,1024,0,0,0,0,66.2,0,0,78,4.051,4.041,0,0,0,0,4.319,95.54,1.9685368084,1.968504,38,Tripod,
85900,2022-08-15 23:37:33,0,0,1.968504,,,1.9685368084,1.64042,0,0,0,0,0,8.092,2.2966208084,2.296588,0,0,0,0,0,66.3, 0.2, 0.5,0,0,1024,1024,1024,1024,0,0,0,0,66,0,0,78,4.051,4.041,0,0,0,0,4.319,95.54,1.9685368084,1.968504,38,Tripod,
86000,2022-08-15 23:37:33,0,0,1.64042,,,1.6404528084,1.64042,0,0,0,0,0,8.092,2.2966208084,2.296588,0,0,0,0,0,66.2, 0.1, 0.6,0,0,1024,1024,1024,1024,0,0,0,0,65.8,0,0,78,4.051,4.04,0,0,0,0,4.267,95.54,1.6404528084,1.64042,38,Tripod,
86100,2022-08-15 23:37:33,0,0,1.64042,,,1.6404528084,1.64042,0,0,0,0,0,8.092,2.2966208084,2.296588,0,0,0,0,0,66, 0.1, 0.6,0,0,1024,1024,1024,728,0,0,0,-45,65.7,0,0,78,4.051,4.04,0,0,0,0,4.267,95.54,1.6404528084,1.64042,38,Tripod,
86200,2022-08-15 23:37:33,0,0,1.64042,,,1.6404528084,1.64042,0,0,0,0,0,8.092,2.2966208084,2.296588,0,0,0,0,0,65.8, 0.2, 0.4,0,0,1024,1024,1024,378,0,0,0,-98,65.5,0,0,78,4.051,4.04,0,0,0,0,4.267,95.54,1.6404528084,1.64042,38,Tripod,
86300,2022-08-15 23:37:33,0,0,1.64042,,,1.6404528084,1.64042,0,0,0,0,0,8.092,2.2966208084,2.296588,0,0,0,0,0,65.6, 0.3, 0.1,0,0,1024,1024,1024,364,0,0,0,-100,65.4,0,0,78,4.051,4.04,0,0,0,0,4.267,95.54,1.6404528084,1.64042,38,Tripod,
86400,2022-08-15 23:37:33,0,0,1.64042,,,1.6404528084,1.64042,0,0,0,0,0,8.092,2.2966208084,2.296588,0,0,0,0,0,65.4, 0.5, -0.1,0,0,1024,1024,1024,364,0,0,0,-100,65.2,0,0,78,4.051,4.04,0,0,0,0,4.267,95.54,1.6404528084,1.64042,38,Tripod,
86500,2022-08-15 23:37:34,0,0,1.64042,,,1.6404528084,1.64042,0,0,0,0,0,8.092,2.2966208084,2.296588,0,0,0,0,0,65.3, 0.4, -0.1,0,0,1024,1024,1024,364,0,0,0,-100,65.1,0,0,78,4.051,4.04,0,0,0,0,4.267,95.54,1.6404528084,1.64042,38,Tripod,
86600,2022-08-15 23:37:34,0,0,1.64042,,,1.6404528084,1.64042,0,0,0,0,0,8.092,2.2966208084,2.296588,0,0,0,0,0,65.1, 0.2, 0,0,0,1024,1024,1024,364,0,0,0,-100,64.8,0,0,78,4.051,4.04,0,0,0,0,4.267,95.54,1.6404528084,1.64042,38,Tripod,
86700,2022-08-15 23:37:34,0,0,1.64042,,,1.6404528084,1.64042,0,0,0,0,0,8.092,2.2966208084,2.296588,0,0,0,0,0,64.8, 0.2, -0.3,0,0,1024,1024,1024,364,0,0,0,-100,64.6,0,0,78,4.051,4.04,0,0,0,0,4.267,95.54,1.6404528084,1.64042,38,Tripod,
86800,2022-08-15 23:37:34,0,0,1.64042,,,1.6404528084,1.64042,0,0,0,0,0,8.092,2.2966208084,2.296588,0,0,0,0,0,64.6, 0, -0.1,0,0,1024,1024,1024,364,0,0,0,-100,64.3,0,0,78,4.051,4.04,0,0,0,0,4.267,95.54,1.6404528084,1.64042,38,Tripod,
86900,2022-08-15 23:37:34,0,0,1.64042,,,1.6404528084,1.64042,0,0,0,0,0,8.092,2.2966208084,2.296588,0,0,0,0,0,64.2, 0, 0,0,0,1024,1024,1024,364,0,0,0,-100,64,0,0,78,4.051,4.04,0,0,0,0,4.267,95.54,1.6404528084,1.64042,38,Tripod,
87000,2022-08-15 23:37:34,0,0,1.64042,,,1.6404528084,1.64042,0,0,0,0,0,8.092,2.2966208084,2.296588,0,0,0,0,0,63.7, 0, 0,0,0,1024,1024,1024,364,0,0,0,-100,63.6,0,0,78,4.051,4.04,0,0,0,0,4.267,95.54,1.6404528084,1.64042,38,Tripod,
87100,2022-08-15 23:37:34,0,0,1.312336,,,1.3123688084,1.64042,0,0,0,0,0,8.087,2.2966208084,2.296588,0,0,0,0,0,63.4, 0.1, 0,0,0,1024,1024,1024,364,0,0,0,-100,63.3,0,0,78,4.048,4.037,0,0,0,0,4.309,95.54,1.3123688084,1.312336,38,Tripod,
87200,2022-08-15 23:37:34,0,0,1.312336,,,1.3123688084,1.64042,0,0,0,0,0,8.087,2.2966208084,2.296588,0,0,0,0,0,63.1, 0.4, 0.3,0,0,1024,1024,1024,364,0,0,0,-100,62.9,0,0,78,4.048,4.037,0,0,0,0,4.309,95.54,1.3123688084,1.312336,38,Tripod,
87300,2022-08-15 23:37:34,0,0,1.312336,,,1.3123688084,1.64042,0,0,0,0,0,8.087,2.2966208084,2.296588,0,0,0,0,0,62.8, 0.5, 0.5,0,0,1024,1024,1024,364,0,0,0,-100,62.5,0,0,78,4.048,4.037,0,0,0,0,4.309,95.54,1.3123688084,1.312336,38,Tripod,
87400,2022-08-15 23:37:34,0,0,1.312336,,,1.3123688084,1.64042,0,0,0,0,0,8.087,2.2966208084,2.296588,0,0,0,0,0,62.5, 0.3, 0.5,0,0,1024,1024,1024,364,0,0,0,-100,62.2,0,0,78,4.048,4.037,0,0,0,0,4.309,95.54,1.3123688084,1.312336,38,Tripod,
87500,2022-08-15 23:37:35,0,0,1.312336,,,1.3123688084,1.64042,0,0,0,0,0,8.087,2.2966208084,2.296588,0,0,0,0,0,61.9, 0, 0.5,0,0,1024,1024,1024,364,0,0,0,-100,61.8,0,0,78,4.048,4.037,0,0,0,0,4.309,95.54,1.3123688084,1.312336,38,Tripod,
87600,2022-08-15 23:37:35,0,0,1.312336,,,1.3123688084,1.64042,0,0,0,0,0,8.087,2.2966208084,2.296588,0,0,0,0,0,61.4, -0.2, 0.5,0,0,1024,1024,1024,364,0,0,0,-100,61.4,0,0,78,4.048,4.037,0,0,0,0,4.309,95.54,1.3123688084,1.312336,38,Tripod,
87700,2022-08-15 23:37:35,0,0,1.312336,,,1.3123688084,1.64042,0,0,0,0,0,8.087,2.2966208084,2.296588,0,0,0,0,0,61.1, -0.1, 0.6,0,0,1024,1024,1024,364,0,0,0,-100,61,0,0,78,4.048,4.037,0,0,0,0,4.309,95.54,1.3123688084,1.312336,38,Tripod,
87800,2022-08-15 23:37:35,0,0,1.312336,,,1.3123688084,1.64042,0,0,0,0,0,8.087,2.2966208084,2.296588,0,0,0,0,0,60.7, 0, 0.5,0,0,1024,1024,1024,364,0,0,0,-100,60.6,0,0,78,4.048,4.037,0,0,0,0,4.309,95.54,1.3123688084,1.312336,38,Tripod,
87900,2022-08-15 23:37:35,0,0,1.312336,,,1.3123688084,1.64042,0,0,0,0,0,8.087,2.2966208084,2.296588,0,0,0,0,0,60.3, 0, 0.4,0,0,1024,1024,1024,364,0,0,0,-100,60.2,0,0,78,4.048,4.037,0,0,0,0,4.309,95.54,1.3123688084,1.312336,38,Tripod,
88000,2022-08-15 23:37:35,0,0,1.312336,,,1.3123688084,1.64042,0,0,0,0,0,8.087,2.2966208084,2.296588,0,0,0,0,0,59.8, 0.2, 0.6,0,0,1024,1024,1024,364,0,0,0,-100,59.8,0,0,78,4.048,4.037,0,0,0,0,4.309,95.54,1.3123688084,1.312336,38,Tripod,
88100,2022-08-15 23:37:35,0,0,0.984252,,,0.9842848084,1.64042,0,0,0,0,0,8.086,2.2966208084,2.296588,0,0,0,0,0,59.5, 0.3, 0.9,0,0,1024,1024,1024,364,0,0,0,-100,59.4,0,0,78,4.048,4.036,0,0,0,0,4.285,95.54,0.9842848084,0.984252,38,Tripod,
88200,2022-08-15 23:37:35,0,0,0.984252,,,0.9842848084,1.64042,0,0,0,0,0,8.086,2.2966208084,2.296588,0,0,0,0,0,59.2, 0, 0.6,0,0,1024,1024,1024,364,0,0,0,-100,59,0,0,78,4.048,4.036,0,0,0,0,4.285,95.54,0.9842848084,0.984252,38,Tripod,
88300,2022-08-15 23:37:35,0,0,0.984252,,,0.9842848084,1.64042,0,0,0,0,0,8.086,2.2966208084,2.296588,0,0,0,0,0,58.8, 0.1, 0.1,0,0,1024,1024,1024,364,0,0,0,-100,58.6,0,0,78,4.048,4.036,0,0,0,0,4.285,95.54,0.9842848084,0.984252,38,Tripod,
88400,2022-08-15 23:37:35,0,0,0.984252,,,0.9842848084,1.64042,0,0,0,0,0,8.086,2.2966208084,2.296588,0,0,0,0,0,58.5, 0.6, 0.1,0,0,1024,1024,1024,364,0,0,0,-100,58.2,0,0,78,4.048,4.036,0,0,0,0,4.285,95.54,0.9842848084,0.984252,38,Tripod,
88500,2022-08-15 23:37:35,0,0,0.984252,,,0.9842848084,1.64042,0,0,0,0,0,8.086,2.2966208084,2.296588,0,0,0,0,0,58, 0.6, 0.1,0,0,1024,1024,1024,364,0,0,0,-100,57.8,0,0,78,4.048,4.036,0,0,0,0,4.285,95.54,0.9842848084,0.984252,38,Tripod,
88600,2022-08-15 23:37:36,0,0,0.984252,,,0.9842848084,1.64042,0,0,0,0,0,8.086,2.2966208084,2.296588,0,0,0,0,0,57.6, 0.7, 0.2,0,0,1024,1024,1024,364,0,0,0,-100,57.4,0,0,78,4.048,4.036,0,0,0,0,4.285,95.54,0.9842848084,0.984252,38,Tripod,
88700,2022-08-15 23:37:36,0,0,0.984252,,,0.9842848084,1.64042,0,0,0,0,0,8.086,2.2966208084,2.296588,0,0,0,0,0,57.1, 0.3, 0.2,0,0,1024,1024,1024,364,0,0,0,-100,57,0,0,78,4.048,4.036,0,0,0,0,4.285,95.54,0.9842848084,0.984252,38,Tripod,
88800,2022-08-15 23:37:36,0,0,0.656168,,,0.6562008084,1.64042,0,0,0,0,0,8.086,2.2966208084,2.296588,0,0,0,0,0,56.7, 0.4, 0.6,0,0,1024,1024,1024,364,0,0,0,-100,56.6,0,0,78,4.048,4.036,0,0,0,0,4.285,95.54,0.6562008084,0.656168,38,Tripod,
88900,2022-08-15 23:37:36,0,0,0.656168,,,0.6562008084,1.64042,0,0,0,0,0,8.086,2.2966208084,2.296588,0,0,0,0,0,56.2, 0.5, 0.4,0,0,1024,1024,1024,364,0,0,0,-100,56.2,0,0,78,4.048,4.036,0,0,0,0,4.285,95.54,0.6562008084,0.656168,38,Tripod,
89000,2022-08-15 23:37:36,0,0,0.656168,,,0.6562008084,1.64042,0,0,0,0,0,8.081,2.2966208084,2.296588,0,0,0,0,0,56, 0.5, 0.4,0,0,1024,1024,1024,364,0,0,0,-100,55.8,0,0,78,4.048,4.035,0,0,0,0,4.308,95.72,0.6562008084,0.656168,38,Tripod,
89100,2022-08-15 23:37:36,0,0,0.656168,,,0.6562008084,1.64042,0,0,0,0,0,8.081,2.2966208084,2.296588,0,0,0,0,0,55.6, 0.3, 0.5,0,0,1024,1024,1024,364,0,0,0,-100,55.4,0,0,78,4.048,4.035,0,0,0,0,4.308,95.72,0.6562008084,0.656168,38,Tripod,
89200,2022-08-15 23:37:36,0,0,0.656168,,,0.6562008084,1.64042,0,0,0,0,0,8.081,2.2966208084,2.296588,0,0,0,0,0,55.2, 0.2, 0,0,0,1024,1024,1024,364,0,0,0,-100,55,0,0,78,4.048,4.035,0,0,0,0,4.308,95.72,0.6562008084,0.656168,38,Tripod,
89300,2022-08-15 23:37:36,0,0,0.656168,,,0.6562008084,1.64042,0,0,0,0,0,8.081,2.2966208084,2.296588,0,0,0,0,0,54.9, 0.1, 0,0,0,1024,1024,1024,364,0,0,0,-100,54.6,0,0,78,4.048,4.035,0,0,0,0,4.308,95.72,0.6562008084,0.656168,38,Tripod,
89400,2022-08-15 23:37:36,0,0,0.328084,,,0.3281168084,1.64042,0,0,0,0,0,8.081,2.2966208084,2.296588,0,0,0,0,0,54.4, 0, 0,0,0,1024,1024,1024,364,0,0,0,-100,54.2,0,0,78,4.048,4.035,0,0,0,0,4.308,95.72,0.3281168084,0.328084,38,Tripod,
89500,2022-08-15 23:37:37,0,0,0.328084,,,0.3281168084,1.64042,0,0,0,0,0,8.081,2.2966208084,2.296588,0,0,0,0,0,54.1, 0.3, 0,0,0,1024,1024,1024,364,0,0,0,-100,53.8,0,0,78,4.048,4.035,0,0,0,0,4.308,95.72,0.3281168084,0.328084,38,Tripod,
89600,2022-08-15 23:37:37,0,0,0.328084,,,0.3281168084,1.64042,0,0,0,0,0,8.081,2.2966208084,2.296588,0,0,0,0,0,53.7, 0.3, 0,0,0,1024,1024,1024,364,0,0,0,-100,53.4,0,0,78,4.048,4.035,0,0,0,0,4.308,95.72,0.3281168084,0.328084,38,Tripod,
89700,2022-08-15 23:37:37,0,0,0.328084,,,0.3281168084,1.64042,0,0,0,0,0,8.081,2.2966208084,2.296588,0,0,0,0,0,53.3, 0.3, 0,0,0,1024,1024,1024,364,0,0,0,-100,53,0,0,78,4.048,4.035,0,0,0,0,4.308,95.72,0.3281168084,0.328084,38,Tripod,
89800,2022-08-15 23:37:37,0,0,0.328084,,,0.3281168084,1.64042,0,0,0,0,0,8.081,2.2966208084,2.296588,0,0,0,0,0,52.9, 0.6, 0,0,0,1024,1024,1024,364,0,0,0,-100,52.6,0,0,78,4.048,4.035,0,0,0,0,4.308,95.72,0.3281168084,0.328084,38,Tripod,
89900,2022-08-15 23:37:37,0,0,0,,,3.28084E-5,1.64042,0,0,0,0,0,8.081,2.2966208084,2.296588,0,0,0,0,0,52.5, 0.3, 0.1,0,0,1024,1024,1024,364,0,0,0,-100,52.2,0,0,78,4.048,4.035,0,0,0,0,4.308,95.72,3.28084E-5,0,38,Tripod,
90000,2022-08-15 23:37:37,0,0,0,,,3.28084E-5,1.64042,0,0,0,0,0,8.081,2.2966208084,2.296588,0,0,0,0,0,52.1, 0.3, 0.2,0,0,1024,1024,1024,364,0,0,0,-100,51.8,0,0,78,4.048,4.035,0,0,0,0,4.308,95.72,3.28084E-5,0,38,Tripod,
90100,2022-08-15 23:37:37,0,0,0,,,3.28084E-5,1.64042,0,0,0,0,0,8.078,2.2966208084,2.296588,0,0,0,0,0,51.8, 0, 0,0,0,1024,1024,1024,364,0,0,0,-100,51.4,0,0,78,4.045,4.033,0,0,0,0,4.344,95.72,3.28084E-5,0,38,Tripod,
90200,2022-08-15 23:37:37,0,0,0,,,3.28084E-5,1.64042,0,0,0,0,0,8.078,2.2966208084,2.296588,0,0,0,0,0,51.5, -0.2, -0.1,0,0,1024,1024,1024,364,0,0,0,-100,51,0,0,78,4.045,4.033,0,0,0,0,4.344,95.72,3.28084E-5,0,38,Tripod,
90300,2022-08-15 23:37:37,0,0,0,,,3.28084E-5,1.64042,0,0,0,0,0,8.078,2.2966208084,2.296588,0,0,0,0,0,51, -0.2, -0.3,0,0,1024,1024,1024,364,0,0,0,-100,50.6,0,0,78,4.045,4.033,0,0,0,0,4.344,95.72,3.28084E-5,0,38,Tripod,
90400,2022-08-15 23:37:37,0,0,0,,,3.28084E-5,1.64042,0,0,0,0,0,8.078,2.2966208084,2.296588,0,0,0,0,0,50.5, 0, -0.5,0,0,1024,1024,1024,364,0,0,0,-100,50.2,0,0,78,4.045,4.033,0,0,0,0,4.344,95.72,3.28084E-5,0,38,Tripod,
90500,2022-08-15 23:37:38,0,0,0,,,3.28084E-5,1.64042,0,0,0,0,0,8.078,2.2966208084,2.296588,0,0,0,0,0,50.2, 0, -0.4,0,0,1024,1024,1024,364,0,0,0,-100,49.8,0,0,78,4.045,4.033,0,0,0,0,4.344,95.72,3.28084E-5,0,38,Tripod,
90600,2022-08-15 23:37:38,0,0,0,,,3.28084E-5,1.64042,0,0,0,0,0,8.078,2.2966208084,2.296588,0,0,0,0,0,49.8, 0, 0.2,0,0,1024,1024,1024,364,0,0,0,-100,49.4,0,0,78,4.045,4.033,0,0,0,0,4.344,95.72,3.28084E-5,0,38,Tripod,
90700,2022-08-15 23:37:38,0,0,0,,,3.28084E-5,1.64042,0,0,0,0,0,8.078,2.2966208084,2.296588,0,0,0,0,0,49.4, 0, 0.2,0,0,1024,1024,1024,364,0,0,0,-100,49,0,0,78,4.045,4.033,0,0,0,0,4.344,95.72,3.28084E-5,0,38,Tripod,
