time(millisecond),datetime(utc),latitude,longitude,height_above_takeoff(feet),height_above_ground_at_drone_location(feet),ground_elevation_at_drone_location(feet),altitude_above_seaLevel(feet),height_sonar(feet),speed(mph),distance(feet),mileage(feet),satellites,gpslevel,voltage(v),max_altitude(feet),max_ascent(feet),max_speed(mph),max_distance(feet), xSpeed(mph), ySpeed(mph), zSpeed(mph), compass_heading(degrees), pitch(degrees), roll(degrees),isPhoto,isVideo,rc_elevator,rc_aileron,rc_throttle,rc_rudder,rc_elevator(percent),rc_aileron(percent),rc_throttle(percent),rc_rudder(percent),gimbal_heading(degrees),gimbal_pitch(degrees),gimbal_roll(degrees),battery_percent,voltageCell1,voltageCell2,voltageCell3,voltageCell4,voltageCell5,voltageCell6,current(A),battery_temperature(f),altitude(feet),ascent(feet),flycStateRaw,flycState,message
0,2025-05-01 19:00:34,0,0,0,,,0,4.265092,0,0,0,0,0,0,0,0,0,0,0,0,0,16, -5.7, 3.3,0,0,364,364,364,1684,-100,-100,-100,100,16.6,0,0,95,4.277,4.278,0,0,0,0,0,85.46,0,0,41,Motors_Started,"Error de calibración del estabilizador No hay señal de posicionamiento por satélite. No se puede mantener vuelo estacionario. Vuela con precaución (Code: 30007). Error de calibración del estabilizador. Reinicia la aeronave o contacta con la Asistencia DJI (Code: 40011). Aeronave en modo A"
100,2025-05-01 19:00:34,0,0,0,,,0,4.265092,0,0,0,0,0,0,0,0,0,0,0,0,0,16, -5.6, 3.2,0,0,364,364,364,1684,-100,-100,-100,100,16.7,0,0,95,4.277,4.278,0,0,0,0,0,85.46,0,0,41,Motors_Started,
200,2025-05-01 19:00:34,0,0,0,,,0,0.328084,0,0,0,0,0,0,0,0,0,0,0,0,0,16, -5.6, 3.2,0,0,483,484,584,1566,-82,-82,-67,82,16.9,0,0,95,4.277,4.278,0,0,0,0,0,85.46,0,0,41,Motors_Started,
300,2025-05-01 19:00:35,0,0,0,,,0,0.328084,0,0,0,0,0,0,0,0,0,0,0,0,0,16.1, -5.7, 3.3,0,0,1024,1024,1024,1024,0,0,0,0,17.1,0,0,95,4.277,4.278,0,0,0,0,0,85.46,0,0,41,Motors_Started,
400,2025-05-01 19:00:35,0,0,0,,,0,0.328084,0,0,0,0,0,0,0,0,0,0,0,0,0,16.2, -5.7, 3.3,0,0,1024,1024,1024,1024,0,0,0,0,17.2,0,0,95,4.277,4.278,0,0,0,0,0,85.46,0,0,41,Motors_Started,
500,2025-05-01 19:00:35,0,0,0,,,0,0.328084,0,0,0,0,0,0,0,0,0,0,0,0,0,16.2, -5.7, 3.2,0,0,1024,1024,1024,1024,0,0,0,0,17.2,0,0,95,4.277,4.278,0,0,0,0,0,85.46,0,0,41,Motors_Started,"Setting new Return-To-Home altitude to 100m (328 ft). Data Recorder File Index is 55. Setting new Maximum Flight Altitude to 30m (98 ft)"
600,2025-05-01 19:00:35,0,0,0,,,0,0.328084,0,0,0,0,0,0,0,0,0,0,0,0,0,16.3, -5.7, 3.3,0,0,1024,1024,1024,1024,0,0,0,0,17.3,0,0,95,4.277,4.278,0,0,0,0,0,85.46,0,0,41,Motors_Started,
700,2025-05-01 19:00:35,0,0,0,,,0,0.328084,0,0,0,0,0,0,0,0,0,0,0,0,0,16.3, -5.7, 3.3,0,0,1024,1024,1024,1024,0,0,0,0,17.3,0,0,95,4.277,4.278,0,0,0,0,0,85.46,0,0,41,Motors_Started,
800,2025-05-01 19:00:35,0,0,0,,,0,0.328084,0,0,0,0,0,0,0,0,0,0,0,0,0,16.4, -5.7, 3.3,0,0,1024,1024,1035,1024,0,0,2,0,17.3,0,0,95,4.277,4.278,0,0,0,0,0,85.46,0,0,41,Motors_Started,
900,2025-05-01 19:00:35,0,0,0,,,0,0.328084,0,0,0,0,0,0,0,0,0,0,0,0,0,16.4, -5.7, 3.3,0,0,1024,1024,1024,1024,0,0,0,0,17.3,0,0,95,4.277,4.278,0,0,0,0,0,85.46,0,0,41,Motors_Started,
1000,2025-05-01 19:00:35,0,0,0,,,0,0.328084,0,0,0,0,0,0,0,0,0,0,0,0,0,16.4, -5.7, 3.3,0,0,1024,1024,1024,1024,0,0,0,0,17.3,0,0,95,4.277,4.278,0,0,0,0,0,85.46,0,0,41,Motors_Started,
1100,2025-05-01 19:00:35,0,0,0,,,0,0.328084,0,0,0,0,0,8.586,0,0,0,0,0,0,0,16.5, -5.7, 3.2,0,0,1024,1024,1172,1024,0,0,22,0,17.3,0,0,95,4.277,4.278,0,0,0,0,0.616,85.46,0,0,10,Assisted_Takeoff,
1200,2025-05-01 19:00:35,0,0,0,,,0,0.328084,0,0,0,0,0,8.586,0,0,0,0,0,0,0,16.5, -5.6, 3.2,0,0,1024,1024,1554,1024,0,0,80,0,17.3,0,0,95,4.277,4.278,0,0,0,0,0.616,85.46,0,0,10,Assisted_Takeoff,
1300,2025-05-01 19:00:36,0,0,0,,,0,0.328084,0,0,0,0,0,8.586,0,0,0,0,0,0,0,16.5, -5.6, 3.1,0,0,1024,1024,1554,1024,0,0,80,0,17.3,0,0,95,4.277,4.278,0,0,0,0,0.616,85.46,0,0,10,Assisted_Takeoff,
1400,2025-05-01 19:00:36,0,0,0,,,0,0.328084,0,0,0,0,0,8.586,0,0,0,0,0,0,0,16.5, -5.4, 2.6,0,0,1024,1024,1684,1024,0,0,100,0,17.3,0,0,95,4.277,4.278,0,0,0,0,0.616,85.46,0,0,10,Assisted_Takeoff,
1500,2025-05-01 19:00:36,0,0,0,,,0,0.328084,0,0,0,0,0,8.586,0,0,0,0,0,0,0,16.5, -5.3, 1.8,0,0,1024,1024,1684,1024,0,0,100,0,17.2,0,0,95,4.277,4.278,0,0,0,0,0.616,85.46,0,0,10,Assisted_Takeoff,
1600,2025-05-01 19:00:36,0,0,0,,,0,0.328084,0,0,0,0,0,8.586,0,0,0,0,0,0,0,16.5, -5.4, 1.2,0,0,1024,1024,1684,1024,0,0,100,0,17.1,0,0,95,4.277,4.278,0,0,0,0,0.616,85.46,0,0,10,Assisted_Takeoff,
1700,2025-05-01 19:00:36,0,0,0,,,0,0.328084,0,0,0,0,0,8.586,0,0,0,0,0,0,0,16.1, -5.3, 0.1,0,0,1024,1024,1684,1024,0,0,100,0,16.9,0,0,95,4.277,4.278,0,0,0,0,0.616,85.46,0,0,10,Assisted_Takeoff,
1800,2025-05-01 19:00:36,0,0,0,,,0,0.328084,0,0,0,0,0,8.586,0,0,0,0,0,0,0,15.3, -4.7, -1.7,0,0,1024,1024,1684,1024,0,0,100,0,16.2,0,0,95,4.277,4.278,0,0,0,0,0.616,85.46,0,0,10,Assisted_Takeoff,
1900,2025-05-01 19:00:36,0,0,0,,,0,0.328084,0,0,0,0,0,8.586,0,0,0,0,0,0,0,14.7, -3, -4.2,0,0,1024,1024,1684,1024,0,0,100,0,15.3,0,0,95,4.277,4.278,0,0,0,0,0.616,85.46,0,0,10,Assisted_Takeoff,
2000,2025-05-01 19:00:36,0,0,0,,,0,0.328084,0,0,0,0,0,8.586,0,0,0,0,0,0,-0.223694,14.2, -2.4, -3.5,0,0,1024,1024,1684,1024,0,0,100,0,14.8,0,0,95,4.277,4.278,0,0,0,0,0.616,85.46,0,0,10,Assisted_Takeoff,
2100,2025-05-01 19:00:36,0,0,0,,,0,0.328084,0,0,0,0,0,8.533,0,0,0,0,0,0,-0.671082,14.1, -0.1, -0.1,0,0,1024,1024,1684,1024,0,0,100,0,14.8,0,0,95,4.272,4.272,0,0,0,0,1.515,85.46,0,0,6,P-GPS,
2200,2025-05-01 19:00:36,0,0,0.328084,,,0.328084,0.656168,0,0,0,0,0,8.533,0.328084,0.328084,0,0,0,0,-1.342164,14.3, 1.4, 3,0,0,1024,1024,1684,1024,0,0,100,0,14.8,0,0,95,4.272,4.272,0,0,0,0,1.515,85.46,0.328084,0.328084,6,P-GPS,
2300,2025-05-01 19:00:37,0,0,0.656168,,,0.656168,0.984252,0,0,0,0,0,8.533,0.656168,0.656168,0,0,0,0,-2.013246,14.2, 1.9, 3.1,0,0,1024,1024,1684,1024,0,0,100,0,14.8,0,0,95,4.272,4.272,0,0,0,0,1.515,85.46,0.656168,0.656168,6,P-GPS,
2400,2025-05-01 19:00:37,0,0,0.984252,,,0.984252,1.312336,0,0,0,0,0,8.533,0.984252,0.984252,0,0,0,0,-2.908022,14.4, 1.3, 2.8,0,0,1024,1024,1684,1024,0,0,100,0,14.8,0,0,95,4.272,4.272,0,0,0,0,1.515,85.46,0.984252,0.984252,6,P-GPS,
2500,2025-05-01 19:00:37,0,0,1.312336,,,1.312336,1.968504,0,0,0,0,0,8.533,1.312336,1.312336,0,0,0,0,-3.579104,14.7, 1.7, 2.6,0,0,1024,1024,1543,1024,0,0,79,0,14.8,0,0,95,4.272,4.272,0,0,0,0,1.515,85.46,1.312336,1.312336,6,P-GPS,
2600,2025-05-01 19:00:37,0,0,1.968504,,,1.968504,2.624672,0,0,0,0,0,8.533,1.968504,1.968504,0,0,0,0,-4.250186,14.6, 0.9, 0.9,0,0,1024,1024,1024,1024,0,0,0,0,14.8,0,0,95,4.272,4.272,0,0,0,0,1.515,85.46,1.968504,1.968504,6,P-GPS,
2700,2025-05-01 19:00:37,0,0,2.952756,,,2.952756,3.28084,0,0,0,0,0,8.533,2.952756,2.952756,0,0,0,0,-4.697574,14.5, -0.3, 0.4,0,0,1618,1024,1024,1024,90,0,0,0,14.8,0,0,95,4.272,4.272,0,0,0,0,1.515,85.46,2.952756,2.952756,6,P-GPS,
2800,2025-05-01 19:00:37,0,0,3.608924,,,3.608924,3.937008,0,0,0,0,0,8.533,3.608924,3.608924,0,0,0,0,-4.47388,14.4, -1.9, -0.3,0,0,1684,962,1024,1024,100,-9,0,0,14.8,0,0,95,4.272,4.272,0,0,0,0,1.515,85.46,3.608924,3.608924,1,Atti,"Vuela con cuidado (modo Atti) Aeronave en modo Atti. No se puede hacer vuelo estacionario. Vuela con cuidado (Code: 30022). Error de calibración del estabilizador. Reinicia la aeronave o contacta con la Asistencia DJI (Code: 40011). Aeronave en modo Atti. No se puede hacer vuelo "
2900,2025-05-01 19:00:37,0,0,4.265092,,,4.265092,4.593176,0.4921268,0,0,0,0,8.533,4.265092,4.265092,0,0,0.447388,-0.223694,-4.250186,14.2, -6.1, -0.9,0,0,1684,1024,1024,1024,100,0,0,0,14.6,0,0,95,4.272,4.272,0,0,0,0,1.515,85.46,4.265092,4.265092,6,P-GPS,"Aeronave en modo Atti. No se puede hacer vuelo estacionario. Vuela con cuidado (Code: 30020). Error de calibración del estabilizador. Reinicia la aeronave o contacta con la Asistencia DJI (Code: 40011). Señal de posicionamiento por satélite débil. Vu"
3000,2025-05-01 19:00:37,0,0,4.92126,,,4.92126,5.249344,0.8052984,0,0,0,0,8.533,4.92126,4.92126,0,0,0.671082,-0.447388,-3.802798,14.5, -9.8, 0.2,0,0,1684,1024,1024,1024,100,0,0,0,14.6,0,0,95,4.272,4.272,0,0,0,0,1.515,85.46,4.92126,4.92126,6,P-GPS,
3100,2025-05-01 19:00:37,0,0,5.249344,,,5.249344,5.905512,1.2079476,0,0,0,0,8.378,5.249344,5.249344,0,0,1.11847,-0.447388,-3.131716,14.4, -17.2, 2.5,0,0,1684,1024,1024,1024,100,0,0,0,14.6,0,0,95,4.142,4.139,0,0,0,0,3.448,85.46,5.249344,5.249344,6,P-GPS,
3200,2025-05-01 19:00:37,0,0,5.577428,,,5.577428,6.233596,1.6329662,0,0,0,0,8.378,5.577428,5.577428,0,0,1.565858,-0.447388,-2.23694,14, -19.3, 2.2,0,0,1684,1024,1024,1024,100,0,0,0,14.6,0,0,95,4.142,4.139,0,0,0,0,3.448,85.46,5.577428,5.577428,6,P-GPS,
3300,2025-05-01 19:00:38,0,0,5.905512,,,5.905512,6.56168,2.2816788,0,0,0,0,8.378,5.905512,5.905512,0,0,2.23694,-0.447388,-1.565858,13.6, -19.5, 2.8,0,0,1684,1024,1124,1024,100,0,15,0,14.6,0,0,95,4.142,4.139,0,0,0,0,3.448,85.46,5.905512,5.905512,6,P-GPS,
3400,2025-05-01 19:00:38,0,0,6.233596,,,6.233596,6.56168,2.7290668,0,0,0,0,8.378,6.233596,6.233596,0,0,2.684328,-0.447388,-0.671082,13.2, -19.4, 2.3,0,0,1684,1024,1124,1024,100,0,15,0,14.6,0,0,95,4.142,4.139,0,0,0,0,3.448,85.46,6.233596,6.233596,6,P-GPS,
3500,2025-05-01 19:00:38,0,0,6.233596,,,6.233596,6.56168,3.35541,0,0,0,0,8.378,6.233596,6.233596,0,0,3.35541,-0.223694,-0.223694,12.9, -19.1, 2.8,0,0,1684,1024,1684,1024,100,0,100,0,14.6,0,0,95,4.142,4.139,0,0,0,0,3.448,85.46,6.233596,6.233596,6,P-GPS,
3600,2025-05-01 19:00:38,0,0,6.56168,,,6.56168,6.889764,4.026492,0,0,0,0,8.378,6.56168,6.56168,0,0,4.026492,-0.223694,0,12.4, -18.6, 3.3,0,0,1684,1024,1684,1024,100,0,100,0,14.6,0,0,95,4.142,4.139,0,0,0,0,3.448,85.46,6.56168,6.56168,6,P-GPS,
3700,2025-05-01 19:00:38,0,0,6.56168,,,6.56168,6.889764,4.921268,0,0,0,0,8.378,6.56168,6.56168,0,0,4.921268,0,-0.447388,11.9, -15.2, 2.3,0,0,1684,1024,1684,1024,100,0,100,0,14.6,0,0,95,4.142,4.139,0,0,0,0,3.448,85.46,6.56168,6.56168,6,P-GPS,
3800,2025-05-01 19:00:38,0,0,6.889764,,,6.889764,7.217848,5.59235,0,0,0,0,8.378,6.889764,6.889764,0,0,5.59235,0,-1.11847,11.8, -13, 2.9,0,0,1684,1024,1684,1024,100,0,100,0,14.6,0,0,95,4.142,4.139,0,0,0,0,3.448,85.46,6.889764,6.889764,6,P-GPS,
3900,2025-05-01 19:00:38,0,0,7.217848,,,7.217848,7.545932,6.039738,0,0,0,0,8.378,7.217848,7.217848,0,0,6.039738,0,-1.789552,11.5, -12, 3.9,0,0,1684,1024,1684,1024,100,0,100,0,14.6,0,0,95,4.142,4.139,0,0,0,0,3.448,85.46,7.217848,7.217848,6,P-GPS,
4000,2025-05-01 19:00:38,0,0,7.545932,,,7.545932,7.874016,6.487126,0,0,0,0,8.378,7.545932,7.545932,0,0,6.487126,0,-2.460634,11.2, -11.3, 3.7,0,0,1684,1024,1684,1024,100,0,100,0,14.6,0,0,95,4.142,4.139,0,0,0,0,3.448,85.46,7.545932,7.545932,6,P-GPS,
4100,2025-05-01 19:00:38,0,0,8.2021,,,8.2021,8.2021,6.934514,0,0,0,0,8.409,8.2021,8.2021,0,0,6.934514,0.223694,-3.131716,10.9, -11.4, 3.7,0,0,1684,1024,1684,1024,100,0,100,0,14.6,0,0,95,4.207,4.204,0,0,0,0,4.896,85.46,8.2021,8.2021,6,P-GPS,
4200,2025-05-01 19:00:38,0,0,8.530184,,,8.530184,8.858268,7.381902,0,0,0,0,8.409,8.530184,8.530184,0,0,7.381902,0.223694,-3.802798,11.1, -11, 2.4,0,0,1684,1024,1684,1024,100,0,100,0,14.6,0,0,95,4.207,4.204,0,0,0,0,4.896,85.46,8.530184,8.530184,6,P-GPS,
4300,2025-05-01 19:00:39,0,0,9.186352,,,9.186352,9.514436,7.605596,0,0,0,0,8.409,9.186352,9.186352,0,0,7.605596,0.223694,-4.250186,10.7, -12, 2.6,0,0,1684,1024,1684,1024,100,0,100,0,14.6,0,0,95,4.207,4.204,0,0,0,0,4.896,85.46,9.186352,9.186352,6,P-GPS,
4400,2025-05-01 19:00:39,0,0,9.84252,,,9.84252,10.170604,7.8516594,0,0,0,0,8.409,9.84252,9.84252,0,0,7.82929,0.447388,-4.026492,10.5, -13.8, 3.5,0,0,1684,1024,1684,1024,100,0,100,0,14.6,0,0,95,4.207,4.204,0,0,0,0,4.896,85.46,9.84252,9.84252,6,P-GPS,
4500,2025-05-01 19:00:39,0,0,10.498688,,,10.498688,10.826772,8.2990474,0,0,0,0,8.409,10.498688,10.498688,0,0,8.276678,0.447388,-3.579104,10.3, -13.7, 2.6,0,0,1684,1024,1684,1024,100,0,100,0,14.6,0,0,95,4.207,4.204,0,0,0,0,4.896,85.46,10.498688,10.498688,6,P-GPS,
4600,2025-05-01 19:00:39,0,0,11.154856,,,11.154856,11.48294,8.5227414,0,0,0,0,8.409,11.154856,11.154856,0,0,8.500372,0.447388,-3.35541,10.1, -13.9, 3.1,0,0,1684,1024,1684,1024,100,0,100,0,14.6,0,0,95,4.207,4.204,0,0,0,0,4.896,85.46,11.154856,11.154856,6,P-GPS,
4700,2025-05-01 19:00:39,0,0,11.48294,,,11.48294,12.139108,8.94776,0,0,0,0,8.409,11.48294,11.48294,0,0,8.94776,0.447388,-2.908022,9.9, -13.5, 3.2,0,0,1684,1024,1684,1024,100,0,100,0,14.6,0,0,95,4.207,4.204,0,0,0,0,4.896,85.46,11.48294,11.48294,6,P-GPS,
4800,2025-05-01 19:00:39,0,0,12.139108,,,12.139108,12.467192,9.171454,0,0,0,0,8.409,12.139108,12.139108,0,0,9.171454,0.447388,-2.684328,9.6, -13.5, 3.7,0,0,1684,1024,1684,1024,100,0,100,0,14.6,0,0,95,4.207,4.204,0,0,0,0,4.896,85.46,12.139108,12.139108,6,P-GPS,
4900,2025-05-01 19:00:39,0,0,12.467192,,,12.467192,13.12336,9.618842,0,0,0,0,8.409,12.467192,12.467192,0,0,9.618842,0.447388,-2.460634,9.4, -12.9, 3.9,0,0,1684,1024,1684,1024,100,0,100,0,14.6,0,0,95,4.207,4.204,0,0,0,0,4.896,85.46,12.467192,12.467192,6,P-GPS,
5000,2025-05-01 19:00:39,0,0,12.795276,,,12.795276,13.451444,9.842536,0,0,0,0,8.409,12.795276,12.795276,0,0,9.842536,0.447388,-2.23694,9.2, -13.8, 4.6,0,0,1684,1024,1684,1024,100,0,100,0,14.6,0,0,95,4.207,4.204,0,0,0,0,4.896,85.46,12.795276,12.795276,6,P-GPS,
5100,2025-05-01 19:00:39,0,0,13.12336,,,13.12336,13.779528,9.842536,0,0,0,0,8.247,13.12336,13.12336,0,0,10.06623,0.447388,-1.789552,8.8, -13.8, 3.7,0,0,1684,1024,1684,1024,100,0,100,0,14.6,0,0,95,4.166,4.162,0,0,0,0,5.421,85.64,13.12336,13.12336,6,P-GPS,
5200,2025-05-01 19:00:39,0,0,13.451444,,,13.451444,14.107612,10.289924,0,0,0,0,8.247,13.451444,13.451444,0,0,10.289924,0.447388,-1.565858,8.8, -14.1, 4.3,0,0,1684,1024,1684,1024,100,0,100,0,14.6,0,0,95,4.166,4.162,0,0,0,0,5.421,85.64,13.451444,13.451444,6,P-GPS,
5300,2025-05-01 19:00:40,0,0,13.451444,,,13.451444,14.435696,10.7596814,0,0,0,0,8.247,13.451444,13.451444,0,0,10.737312,0.671082,-1.342164,8.7, -13.6, 4.4,0,0,1684,1024,1684,1024,100,0,100,0,14.6,0,0,95,4.166,4.162,0,0,0,0,5.421,85.64,13.451444,13.451444,6,P-GPS,
5400,2025-05-01 19:00:40,0,0,13.779528,,,13.779528,14.76378,10.9833754,0,0,0,0,8.247,13.779528,13.779528,0,0,10.961006,0.671082,-1.11847,8.6, -13.3, 4.5,0,0,1684,1024,1684,1024,100,0,100,0,14.6,0,0,95,4.166,4.162,0,0,0,0,5.421,85.64,13.779528,13.779528,6,P-GPS,
5500,2025-05-01 19:00:40,0,0,14.107612,,,14.107612,15.091864,11.2070694,0,0,0,0,8.247,14.107612,14.107612,0,0,11.1847,0.671082,-0.894776,8.6, -13.4, 4.8,0,0,1684,1024,1684,1024,100,0,100,0,14.6,0,0,95,4.166,4.162,0,0,0,0,5.421,85.64,14.107612,14.107612,6,P-GPS,"Se ha alcanzado la altitud máxima (Code: 20000001)"
5600,2025-05-01 19:00:40,0,0,14.107612,,,14.107612,15.419948,11.4307634,0,0,0,0,8.247,14.107612,14.107612,0,0,11.408394,0.671082,-0.671082,8.5, -12.6, 4.6,0,0,1684,1024,1684,1024,100,0,100,0,14.6,0,0,95,4.166,4.162,0,0,0,0,5.421,85.64,14.107612,14.107612,6,P-GPS,
5700,2025-05-01 19:00:40,0,0,14.107612,,,14.107612,15.748032,11.8781514,0,0,0,0,8.247,14.107612,14.107612,0,0,11.855782,0.671082,-0.671082,8.3, -12.6, 4.9,0,0,1684,1024,1684,1024,100,0,100,0,14.6,0,0,95,4.166,4.162,0,0,0,0,5.421,85.64,14.107612,14.107612,6,P-GPS,
5800,2025-05-01 19:00:40,0,0,14.435696,,,14.435696,15.748032,12.1018454,0,0,0,0,8.247,14.435696,14.435696,0,0,12.079476,0.894776,-0.447388,8.3, -12.8, 5,0,0,1684,1024,1684,1024,100,0,100,0,14.6,0,0,95,4.166,4.162,0,0,0,0,5.421,85.64,14.435696,14.435696,6,P-GPS,"Error de calibración del estabilizador"
5900,2025-05-01 19:00:40,0,0,14.435696,,,14.435696,16.076116,12.3255394,0,0,0,0,8.247,14.435696,14.435696,0,0,12.30317,0.894776,-0.223694,8.2, -12.4, 3.6,0,0,1684,1024,1684,1024,100,0,100,0,14.6,0,0,95,4.166,4.162,0,0,0,0,5.421,85.64,14.435696,14.435696,6,P-GPS,
6000,2025-05-01 19:00:40,0,0,14.435696,,,14.435696,16.4042,12.5492334,0,0,0,0,8.247,14.435696,14.435696,0,0,12.526864,0.894776,-0.223694,8.1, -11.4, 4.4,0,0,1684,1024,1684,1024,100,0,100,0,14.6,0,0,95,4.166,4.162,0,0,0,0,5.421,85.64,14.435696,14.435696,6,P-GPS,
6100,2025-05-01 19:00:40,0,0,14.435696,,,14.435696,16.732284,12.7729274,0,0,0,0,8.374,14.435696,14.435696,0,0,12.750558,0.894776,-0.223694,7.9, -11.7, 4.1,0,0,1684,1024,1684,1024,100,0,100,0,14.6,0,0,95,4.186,4.186,0,0,0,0,4.364,85.64,14.435696,14.435696,6,P-GPS,
6200,2025-05-01 19:00:40,0,0,14.435696,,,14.435696,16.732284,12.9966214,0,0,0,0,8.374,14.435696,14.435696,0,0,12.974252,0.894776,0,7.6, -11.7, 5.4,0,0,1684,1024,1684,1024,100,0,100,0,14.6,0,0,95,4.186,4.186,0,0,0,0,4.364,85.64,14.435696,14.435696,6,P-GPS,
6300,2025-05-01 19:00:41,0,0,14.435696,,,14.435696,17.060368,12.9966214,0,0,0,0,8.374,14.435696,14.435696,0,0,12.974252,0.894776,0,7.4, -12.4, 5.5,0,0,1684,1024,1684,1024,100,0,100,0,14.6,0,0,95,4.186,4.186,0,0,0,0,4.364,85.64,14.435696,14.435696,6,P-GPS,
6400,2025-05-01 19:00:41,0,0,14.435696,,,14.435696,16.732284,13.2203154,0,0,0,0,8.374,14.435696,14.435696,0,0,13.197946,0.894776,0,7.5, -12.1, 5.4,0,0,1684,1024,1684,1024,100,0,100,0,14.6,0,0,95,4.186,4.186,0,0,0,0,4.364,85.64,14.435696,14.435696,6,P-GPS,
6500,2025-05-01 19:00:41,0,0,14.435696,,,14.435696,16.732284,13.4663788,0,0,0,0,8.374,14.435696,14.435696,0,0,13.42164,1.11847,0,7.5, -11.8, 5.4,0,0,1684,1024,1684,1024,100,0,100,0,14.6,0,0,95,4.186,4.186,0,0,0,0,4.364,85.64,14.435696,14.435696,6,P-GPS,
6600,2025-05-01 19:00:41,0,0,14.435696,,,14.435696,16.732284,13.6900728,0,0,0,0,8.374,14.435696,14.435696,0,0,13.645334,1.11847,0,7.4, -11.9, 5.4,0,0,1684,1024,1684,1024,100,0,100,0,14.6,0,0,95,4.186,4.186,0,0,0,0,4.364,85.64,14.435696,14.435696,6,P-GPS,
6700,2025-05-01 19:00:41,0,0,14.435696,,,14.435696,16.732284,13.9137668,0,0,0,0,8.374,14.435696,14.435696,0,0,13.869028,1.11847,0,7.4, -12.2, 5.4,0,0,1684,1024,1684,1024,100,0,100,0,14.6,0,0,95,4.186,4.186,0,0,0,0,4.364,85.64,14.435696,14.435696,6,P-GPS,
6800,2025-05-01 19:00:41,0,0,14.435696,,,14.435696,17.060368,13.9137668,0,0,0,0,8.374,14.435696,14.435696,0,0,13.869028,1.11847,0,7.4, -11.8, 5.3,0,0,1684,1024,1684,1024,100,0,100,0,14.6,0,0,95,4.186,4.186,0,0,0,0,4.364,85.64,14.435696,14.435696,6,P-GPS,
6900,2025-05-01 19:00:41,0,0,14.435696,,,14.435696,17.060368,14.1374608,0,0,0,0,8.374,14.435696,14.435696,0,0,14.092722,1.11847,0,7.3, -11.7, 5.3,0,0,1684,1024,1684,1024,100,0,100,0,14.6,0,0,95,4.186,4.186,0,0,0,0,4.364,85.64,14.435696,14.435696,6,P-GPS,
7000,2025-05-01 19:00:41,0,0,14.107612,,,14.107612,17.060368,14.3835242,0,0,0,0,8.374,14.435696,14.435696,0,0,14.316416,1.342164,0,7.3, -11.9, 5.3,0,0,1684,1024,1684,1024,100,0,100,0,14.6,0,0,95,4.186,4.186,0,0,0,0,4.364,85.64,14.107612,14.107612,6,P-GPS,
7100,2025-05-01 19:00:41,0,0,14.107612,,,14.107612,17.060368,14.3835242,0,0,0,0,8.37,14.435696,14.435696,0,0,14.316416,1.342164,0,7.3, -11.9, 5.2,0,0,1684,1024,1684,1024,100,0,100,0,14.6,0,0,95,4.185,4.185,0,0,0,0,3.91,85.64,14.107612,14.107612,6,P-GPS,
7200,2025-05-01 19:00:41,0,0,14.107612,,,14.107612,17.060368,14.6072182,0,0,0,0,8.37,14.435696,14.435696,0,0,14.54011,1.342164,0,7.3, -11.7, 5,0,0,1684,1024,1684,1024,100,0,100,0,14.6,0,0,95,4.185,4.185,0,0,0,0,3.91,85.64,14.107612,14.107612,6,P-GPS,
7300,2025-05-01 19:00:42,0,0,14.107612,,,14.107612,17.388452,14.8532816,0,0,0,0,8.37,14.435696,14.435696,0,0,14.763804,1.565858,0,7.2, -11.7, 5,0,0,1684,1024,1684,1024,100,0,100,0,14.6,0,0,95,4.185,4.185,0,0,0,0,3.91,85.64,14.107612,14.107612,6,P-GPS,
7400,2025-05-01 19:00:42,0,0,14.107612,,,14.107612,17.388452,14.8532816,0,0,0,0,8.37,14.435696,14.435696,0,0,14.763804,1.565858,0.223694,7.3, -11.6, 4.9,0,0,1301,1024,1684,1024,42,0,100,0,14.6,0,0,95,4.185,4.185,0,0,0,0,3.91,85.64,14.107612,14.107612,6,P-GPS,
7500,2025-05-01 19:00:42,0,0,13.779528,,,13.779528,17.716536,15.099345,0,0,0,0,8.37,14.435696,14.435696,0,0,14.987498,1.789552,0.223694,7.3, -11, 4.5,0,0,1024,1024,1684,1024,0,0,100,0,14.6,0,0,95,4.185,4.185,0,0,0,0,3.91,85.64,13.779528,13.779528,6,P-GPS,
7600,2025-05-01 19:00:42,0,0,13.779528,,,13.779528,18.04462,15.099345,0,0,0,0,8.37,14.435696,14.435696,0,0,14.987498,1.789552,0.223694,7.6, -4.1, 4.3,0,0,1024,1024,1684,1024,0,0,100,0,14.6,0,0,95,4.185,4.185,0,0,0,0,3.91,85.64,13.779528,13.779528,6,P-GPS,
7700,2025-05-01 19:00:42,0,0,13.779528,,,13.779528,18.04462,14.875651,0,0,0,0,8.37,14.435696,14.435696,0,0,14.763804,1.789552,0.223694,8.4, 16.5, 3.2,0,0,1024,1024,1684,1024,0,0,100,0,14.6,0,0,95,4.185,4.185,0,0,0,0,3.91,85.64,13.779528,13.779528,6,P-GPS,
7800,2025-05-01 19:00:42,0,0,13.451444,,,13.451444,18.372704,14.875651,0,0,0,0,8.37,14.435696,14.435696,0,0,13.869028,1.565858,0.223694,8.5, 19.5, 1.6,0,0,1024,1024,1684,1024,0,0,100,0,14.6,0,0,95,4.185,4.185,0,0,0,0,3.91,85.64,13.451444,13.451444,6,P-GPS,
7900,2025-05-01 19:00:42,0,0,13.451444,,,13.451444,18.700788,13.0413602,0,0,0,0,8.37,14.435696,14.435696,0,0,12.974252,1.342164,0.223694,8.2, 19.9, 0.4,0,0,1024,1024,1684,1024,0,0,100,0,14.6,0,0,95,4.185,4.185,0,0,0,0,3.91,85.64,13.451444,13.451444,6,P-GPS,"Señal de posicionamiento por satélite débil. Altitud de vuelo limitada. Espera a que la aeronave obtenga la señal de posicionamiento por satélite antes de ascender (Code: 30214)"
8000,2025-05-01 19:00:42,0,0,13.451444,,,13.451444,19.028872,12.3479088,0,0,0,0,8.37,14.435696,14.435696,0,0,12.30317,1.11847,0.447388,8.2, 19.7, 0.5,0,0,1024,1024,1684,1024,0,0,100,0,14.6,0,0,95,4.185,4.185,0,0,0,0,3.91,85.64,13.451444,13.451444,6,P-GPS,
8100,2025-05-01 19:00:42,0,0,13.12336,,,13.12336,19.356956,11.4531328,0,0,0,0,8.365,14.435696,14.435696,0,0,11.408394,0.894776,0.671082,8.1, 20.1, 1.1,0,0,1024,1024,1684,1024,0,0,100,0,14.6,0,0,95,4.179,4.18,0,0,0,0,3.998,85.64,13.12336,13.12336,6,P-GPS,
8200,2025-05-01 19:00:42,0,0,13.12336,,,13.12336,20.013124,10.5359874,0,0,0,0,8.365,14.435696,14.435696,0,0,10.513618,0.671082,0.671082,8.2, 20.4, 1.4,0,0,1024,1024,1684,1024,0,0,100,0,14.6,0,0,95,4.179,4.18,0,0,0,0,3.998,85.64,13.12336,13.12336,6,P-GPS,
8300,2025-05-01 19:00:43,0,0,13.12336,,,13.12336,20.341208,9.618842,0,0,0,0,8.365,14.435696,14.435696,0,0,9.618842,0.447388,0.671082,8.1, 19.9, 1.4,0,0,1024,1024,1684,1024,0,0,100,0,14.6,0,0,95,4.179,4.18,0,0,0,0,3.998,85.64,13.12336,13.12336,6,P-GPS,
8400,2025-05-01 19:00:43,0,0,13.12336,,,13.12336,20.341208,8.724066,0,0,0,0,8.365,14.435696,14.435696,0,0,8.724066,0.223694,0.447388,8.2, 19.3, 0.8,0,0,1024,1024,1684,1024,0,0,100,0,14.6,0,0,95,4.179,4.18,0,0,0,0,3.998,85.64,13.12336,13.12336,6,P-GPS,
8500,2025-05-01 19:00:43,0,0,13.451444,,,13.451444,20.669292,7.605596,0,0,0,0,8.365,14.435696,14.435696,0,0,7.605596,0,0,8.4, 18.5, 1.4,0,0,1024,1024,1024,1024,0,0,0,0,14.6,0,0,95,4.179,4.18,0,0,0,0,3.998,85.64,13.451444,13.451444,6,P-GPS,
8600,2025-05-01 19:00:43,0,0,13.451444,,,13.451444,20.997376,6.71082,0,0,0,0,8.365,14.435696,14.435696,0,0,6.71082,-0.223694,0,8.5, 17.9, 2.7,0,0,1024,1024,1024,1024,0,0,0,0,14.6,0,0,95,4.179,4.18,0,0,0,0,3.998,85.64,13.451444,13.451444,6,P-GPS,
8700,2025-05-01 19:00:43,0,0,13.779528,,,13.779528,21.32546,5.8384134,0,0,0,0,8.365,14.435696,14.435696,0,0,5.816044,-0.447388,-0.223694,8.4, 16.9, 4.3,0,0,1024,1024,1024,1024,0,0,0,0,14.6,0,0,95,4.179,4.18,0,0,0,0,3.998,85.64,13.779528,13.779528,6,P-GPS,
8800,2025-05-01 19:00:43,0,0,13.779528,,,13.779528,21.653544,5.1897008,0,0,0,0,8.365,14.435696,14.435696,0,0,5.144962,-0.671082,-0.223694,8.3, 16.7, 5.1,0,0,1024,1024,1024,1024,0,0,0,0,14.6,0,0,95,4.179,4.18,0,0,0,0,3.998,85.64,13.779528,13.779528,6,P-GPS,
8900,2025-05-01 19:00:43,0,0,14.107612,,,14.107612,21.653544,4.5633576,0,0,0,0,8.365,14.435696,14.435696,0,0,4.47388,-0.894776,0,8.3, 16.4, 6,0,0,1024,1024,1684,1024,0,0,100,0,14.6,0,0,95,4.179,4.18,0,0,0,0,3.998,85.64,14.107612,14.107612,6,P-GPS,
9000,2025-05-01 19:00:43,0,0,14.107612,,,14.107612,21.653544,3.690951,0,0,0,0,8.365,14.435696,14.435696,0,0,3.579104,-0.894776,-0.223694,8.4, 16.6, 6.2,0,0,1024,1024,1684,1024,0,0,100,0,14.6,0,0,95,4.179,4.18,0,0,0,0,3.998,85.64,14.107612,14.107612,6,P-GPS,
9100,2025-05-01 19:00:43,0,0,14.107612,,,14.107612,21.981628,2.8185444,0,0,0,0,8.391,14.435696,14.435696,0,0,2.684328,-0.894776,-0.894776,8.5, 16.2, 7.6,0,0,1024,1024,1684,1024,0,0,100,0,14.6,0,0,95,4.159,4.149,0,0,0,0,3.717,85.64,14.107612,14.107612,6,P-GPS,
9200,2025-05-01 19:00:43,0,0,14.435696,,,14.435696,21.981628,1.9908766,0,0,0,0,8.391,14.435696,14.435696,0,0,1.789552,-0.894776,-1.342164,8.5, 15.9, 9.4,0,0,1024,1024,1684,1024,0,0,100,0,14.6,0,0,95,4.159,4.149,0,0,0,0,3.717,85.64,14.435696,14.435696,6,P-GPS,
9300,2025-05-01 19:00:44,0,0,14.76378,,,14.76378,22.309712,1.11847,0,0,0,0,8.391,14.76378,14.76378,0,0,0.894776,-0.671082,-1.565858,8, 12, 8.8,0,0,1024,1024,1684,1024,0,0,100,0,14.6,0,0,95,4.159,4.149,0,0,0,0,3.717,85.64,14.76378,14.76378,6,P-GPS,
9400,2025-05-01 19:00:44,0,0,15.091864,,,15.091864,22.637796,0.8052984,0,0,0,0,8.391,15.091864,15.091864,0,0,0.447388,-0.671082,-2.013246,7.5, 8.2, 7.3,0,0,1024,1024,1684,1024,0,0,100,0,14.6,0,0,95,4.159,4.149,0,0,0,0,3.717,85.64,15.091864,15.091864,6,P-GPS,
9500,2025-05-01 19:00:44,0,0,15.419948,,,15.419948,22.96588,0.671082,0,0,0,0,8.391,15.419948,15.419948,0,0,0,-0.671082,-2.23694,7.3, 5.4, 6.2,0,0,1024,1024,1684,1024,0,0,100,0,14.6,0,0,95,4.159,4.149,0,0,0,0,3.717,85.64,15.419948,15.419948,6,P-GPS,
9600,2025-05-01 19:00:44,0,0,16.076116,,,16.076116,23.293964,0.447388,0,0,0,0,8.391,16.076116,16.076116,0,0,0,-0.447388,-2.684328,7.3, 3.6, 5.7,0,0,1024,1024,1684,1024,0,0,100,0,14.6,0,0,95,4.159,4.149,0,0,0,0,3.717,85.64,16.076116,16.076116,6,P-GPS,
9700,2025-05-01 19:00:44,0,0,16.4042,,,16.4042,23.950132,0.447388,0,0,0,0,8.391,16.4042,16.4042,0,0,0,-0.447388,-2.908022,7.3, 2.8, 5.3,0,0,1024,1024,1684,1024,0,0,100,0,14.6,0,0,95,4.159,4.149,0,0,0,0,3.717,85.64,16.4042,16.4042,6,P-GPS,
9800,2025-05-01 19:00:44,0,0,16.732284,,,16.732284,24.278216,0.447388,0,0,0,0,8.391,16.732284,16.732284,0,0,0,-0.447388,-3.131716,7.4, 2.2, 5.1,0,0,1024,1024,1684,1024,0,0,100,0,14.6,0,0,95,4.159,4.149,0,0,0,0,3.717,85.64,16.732284,16.732284,6,P-GPS,
9900,2025-05-01 19:00:44,0,0,17.388452,,,17.388452,24.278216,0.447388,0,0,0,0,8.391,17.388452,17.388452,0,0,0,-0.447388,-3.35541,7.3, 1.9, 5,0,0,1024,1024,1684,1024,0,0,100,0,14.6,0,0,95,4.159,4.149,0,0,0,0,3.717,85.64,17.388452,17.388452,6,P-GPS,
10000,2025-05-01 19:00:44,0,0,17.716536,,,17.716536,20.341208,0.447388,0,0,0,0,8.391,17.716536,17.716536,0,0,0,-0.447388,-3.35541,7.5, 2.3, 5,0,0,1024,1024,1684,1024,0,0,100,0,14.6,0,0,95,4.159,4.149,0,0,0,0,3.717,85.64,17.716536,17.716536,6,P-GPS,
10100,2025-05-01 19:00:44,0,0,18.372704,,,18.372704,20.669292,0.447388,0,0,0,0,8.244,18.372704,18.372704,0,0,0,-0.447388,-3.579104,7.4, 2.3, 4.9,0,0,1024,1024,1684,1024,0,0,100,0,14.6,0,0,95,4.137,4.136,0,0,0,0,5.093,85.64,18.372704,18.372704,6,P-GPS,
10200,2025-05-01 19:00:44,0,0,19.028872,,,19.028872,21.32546,0.4921268,0,0,0,0,8.244,19.028872,19.028872,0,0,0.223694,-0.447388,-3.802798,7.4, 2.1, 5.1,0,0,1024,1024,1684,1024,0,0,100,0,14.6,0,0,95,4.137,4.136,0,0,0,0,5.093,85.64,19.028872,19.028872,6,P-GPS,
10300,2025-05-01 19:00:45,0,0,19.356956,,,19.356956,22.309712,0.3131716,0,0,0,0,8.244,19.356956,19.356956,0,0,0.223694,-0.223694,-4.026492,7.4, 2.4, 5.4,0,0,1024,1024,1684,1024,0,0,100,0,14.6,0,0,95,4.137,4.136,0,0,0,0,5.093,85.64,19.356956,19.356956,6,P-GPS,
10400,2025-05-01 19:00:45,0,0,20.013124,,,20.013124,22.96588,0.3131716,0,0,0,0,8.244,20.013124,20.013124,0,0,0.223694,-0.223694,-4.250186,7.4, 2.4, 5.2,0,0,1024,1024,1684,1024,0,0,100,0,14.6,0,0,95,4.137,4.136,0,0,0,0,5.093,85.64,20.013124,20.013124,6,P-GPS,
10500,2025-05-01 19:00:45,0,0,20.669292,,,20.669292,23.622048,0.3131716,0,0,0,0,8.244,20.669292,20.669292,0,0,0.223694,-0.223694,-4.47388,7.5, 3.2, 5.7,0,0,1024,1024,1684,1024,0,0,100,0,14.6,0,0,95,4.137,4.136,0,0,0,0,5.093,85.64,20.669292,20.669292,6,P-GPS,
10600,2025-05-01 19:00:45,0,0,21.32546,,,21.32546,24.934384,0.3131716,0,0,0,0,8.244,21.32546,21.32546,0,0,0.223694,-0.223694,-4.697574,7.6, 3.1, 5.4,0,0,1024,1024,1684,1024,0,0,100,0,14.6,0,0,95,4.137,4.136,0,0,0,0,5.093,85.64,21.32546,21.32546,6,P-GPS,
10700,2025-05-01 19:00:45,0,0,21.981628,,,21.981628,25.590552,0.223694,0,0,0,0,8.244,21.981628,21.981628,0,0,0.223694,0,-4.921268,7.6, 3.3, 5.2,0,0,1024,1024,1684,1024,0,0,100,0,14.6,0,0,95,4.137,4.136,0,0,0,0,5.093,85.64,21.981628,21.981628,6,P-GPS,
10800,2025-05-01 19:00:45,0,0,22.637796,,,22.637796,26.574804,0.223694,0,0,0,0,8.244,22.637796,22.637796,0,0,0.223694,0,-5.144962,7.5, 3.1, 5,0,0,1024,1024,1684,1024,0,0,100,0,14.6,0,0,95,4.137,4.136,0,0,0,0,5.093,85.64,22.637796,22.637796,6,P-GPS,
10900,2025-05-01 19:00:45,0,0,23.293964,,,23.293964,27.88714,0.223694,0,0,0,0,8.244,23.293964,23.293964,0,0,0.223694,0,-5.368656,7.5, 3, 5.2,0,0,1024,1024,1684,1024,0,0,100,0,14.6,0,0,95,4.137,4.136,0,0,0,0,5.093,85.64,23.293964,23.293964,6,P-GPS,
11000,2025-05-01 19:00:45,0,0,23.950132,,,23.950132,29.199476,0.223694,0,0,0,0,8.244,23.950132,23.950132,0,0,0.223694,0,-5.59235,7.5, 2.9, 5.4,0,0,1024,1024,1684,1024,0,0,100,0,14.6,0,0,95,4.137,4.136,0,0,0,0,5.093,85.64,23.950132,23.950132,6,P-GPS,
11100,2025-05-01 19:00:45,0,0,24.6063,,,24.6063,30.183728,0.223694,0,0,0,0,8.278,24.6063,24.6063,0,0,0.223694,0,-5.816044,7.5, 2.9, 5,0,0,1024,1024,1684,1024,0,0,100,0,14.6,0,0,95,4.131,4.129,0,0,0,0,5.336,85.82,24.6063,24.6063,6,P-GPS,
11200,2025-05-01 19:00:45,0,0,25.262468,,,25.262468,31.16798,0.223694,0,0,0,0,8.278,25.262468,25.262468,0,0,0.223694,0,-6.039738,7.5, 2.9, 4.7,0,0,1024,1024,1684,1024,0,0,100,0,14.6,0,0,95,4.131,4.129,0,0,0,0,5.336,85.82,25.262468,25.262468,6,P-GPS,
11300,2025-05-01 19:00:46,0,0,25.918636,,,25.918636,32.152232,0.223694,0,0,0,0,8.278,25.918636,25.918636,0,0,0.223694,0,-6.263432,7.5, 2.9, 4.5,0,0,1024,1024,1684,1024,0,0,100,0,14.6,0,0,95,4.131,4.129,0,0,0,0,5.336,85.82,25.918636,25.918636,6,P-GPS,
11400,2025-05-01 19:00:46,0,0,26.902888,,,26.902888,33.464568,0.223694,0,0,0,0,8.278,26.902888,26.902888,0,0,0.223694,0,-6.487126,7.7, 3.2, 5.1,0,0,1024,1024,1684,1024,0,0,100,0,14.6,0,0,95,4.131,4.129,0,0,0,0,5.336,85.82,26.902888,26.902888,6,P-GPS,
11500,2025-05-01 19:00:46,0,0,27.88714,,,27.88714,34.120736,0,0,0,0,0,8.278,27.88714,27.88714,0,0,0,0,-6.487126,7.6, 2.8, 4.5,0,0,1024,1024,1684,1024,0,0,100,0,14.6,0,0,95,4.131,4.129,0,0,0,0,5.336,85.82,27.88714,27.88714,6,P-GPS,
11600,2025-05-01 19:00:46,0,0,28.543308,,,28.543308,35.104988,0,0,0,0,0,8.278,28.543308,28.543308,0,0,0,0,-6.71082,7.6, 2.6, 5,0,0,1024,1024,1684,1024,0,0,100,0,14.6,0,0,95,4.131,4.129,0,0,0,0,5.336,85.82,28.543308,28.543308,6,P-GPS,
11700,2025-05-01 19:00:46,0,0,29.52756,,,29.52756,36.08924,0,0,0,0,0,8.278,29.52756,29.52756,0,0,0,0,-6.71082,7.4, 2.3, 4.6,0,0,1024,1024,1684,1024,0,0,100,0,14.6,0,0,95,4.131,4.129,0,0,0,0,5.336,85.82,29.52756,29.52756,6,P-GPS,
11800,2025-05-01 19:00:46,0,0,30.183728,,,30.183728,37.073492,0,0,0,0,0,8.278,30.183728,30.183728,0,0,0,0,-6.71082,7.5, 2.6, 4.8,0,0,1024,1024,1684,1024,0,0,100,0,14.6,0,0,95,4.131,4.129,0,0,0,0,5.336,85.82,30.183728,30.183728,6,P-GPS,
11900,2025-05-01 19:00:46,0,0,31.16798,,,31.16798,38.057744,0,0,0,0,0,8.278,31.16798,31.16798,0,0,0,0,-6.487126,7.6, 2.5, 4.5,0,0,1024,1024,1684,1024,0,0,100,0,14.6,0,0,95,4.131,4.129,0,0,0,0,5.336,85.82,31.16798,31.16798,6,P-GPS,
12000,2025-05-01 19:00:46,0,0,32.152232,,,32.152232,39.041996,0,0,0,0,0,8.278,32.152232,32.152232,0,0,0,0,-6.487126,7.5, 2.4, 4.7,0,0,1024,1024,1684,1024,0,0,100,0,14.6,0,0,95,4.131,4.129,0,0,0,0,5.336,85.82,32.152232,32.152232,6,P-GPS,
12100,2025-05-01 19:00:46,0,0,32.8084,,,32.8084,40.026248,0,0,0,0,0,8.23,32.8084,32.8084,0,0,0,0,-6.487126,7.5, 2.2, 4.7,0,0,1024,1024,1684,1024,0,0,100,0,14.6,0,0,95,4.124,4.122,0,0,0,0,5.792,85.82,32.8084,32.8084,6,P-GPS,
12200,2025-05-01 19:00:46,0,0,33.792652,,,33.792652,41.0105,0,0,0,0,0,8.23,33.792652,33.792652,0,0,0,0,-6.487126,7.5, 2.2, 4.8,0,0,1024,1024,1684,1024,0,0,100,0,14.6,0,0,95,4.124,4.122,0,0,0,0,5.792,85.82,33.792652,33.792652,6,P-GPS,
12300,2025-05-01 19:00:47,0,0,34.776904,,,34.776904,41.994752,0,0,0,0,0,8.23,34.776904,34.776904,0,0,0,0,-6.487126,7.5, 2, 4.7,0,0,1024,1024,1684,1024,0,0,100,0,14.6,0,0,95,4.124,4.122,0,0,0,0,5.792,85.82,34.776904,34.776904,6,P-GPS,
12400,2025-05-01 19:00:47,0,0,35.761156,,,35.761156,42.979004,0,0,0,0,0,8.23,35.761156,35.761156,0,0,0,0,-6.487126,7.3, 2, 4.6,0,0,1024,1024,1684,1024,0,0,100,0,14.6,0,0,95,4.124,4.122,0,0,0,0,5.792,85.82,35.761156,35.761156,6,P-GPS,
12500,2025-05-01 19:00:47,0,0,36.417324,,,36.417324,42.979004,0,0,0,0,0,8.23,36.417324,36.417324,0,0,0,0,-6.487126,7.2, 2.2, 4.2,0,0,1024,364,1414,1024,0,-100,59,0,14.6,0,0,95,4.124,4.122,0,0,0,0,5.792,85.82,36.417324,36.417324,6,P-GPS,
12600,2025-05-01 19:00:47,0,0,37.401576,,,37.401576,42.979004,0,0,0,0,0,8.23,37.401576,37.401576,0,0,0.223694,0,-6.487126,7.3, 2.4, 2.5,0,0,1024,364,1113,1024,0,-100,13,0,14.6,0,0,95,4.124,4.122,0,0,0,0,5.792,85.82,37.401576,37.401576,6,P-GPS,
12700,2025-05-01 19:00:47,0,0,38.385828,,,38.385828,42.979004,0.223694,0,0,0,0,8.23,38.385828,38.385828,0,0,0.223694,0,-6.263432,6.9, 3.1, -7.5,0,0,1024,364,1024,1024,0,-100,0,0,14.6,0,0,95,4.124,4.122,0,0,0,0,5.792,85.82,38.385828,38.385828,6,P-GPS,
12800,2025-05-01 19:00:47,0,0,39.041996,,,39.041996,42.979004,0.4921268,0,0,0,0,8.23,39.041996,39.041996,0,0,0.223694,-0.447388,-5.59235,6.7, 3.5, -13.3,0,0,1024,364,1024,1024,0,-100,0,0,14.6,0,0,95,4.124,4.122,0,0,0,0,5.792,85.82,39.041996,39.041996,6,P-GPS,
12900,2025-05-01 19:00:47,0,0,39.698164,,,39.698164,42.979004,1.006623,0,0,0,0,8.23,39.698164,39.698164,0,0,0.447388,-0.894776,-4.921268,6.9, 3.7, -15.1,0,0,1024,364,1024,1024,0,-100,0,0,14.6,0,0,95,4.124,4.122,0,0,0,0,5.792,85.82,39.698164,39.698164,6,P-GPS,
13000,2025-05-01 19:00:47,0,0,40.354332,,,40.354332,42.979004,1.6329662,0,0,0,0,8.23,40.354332,40.354332,0,0,0.447388,-1.565858,-4.250186,6.9, 4, -15.8,0,0,1024,364,1024,1024,0,-100,0,0,14.6,0,0,95,4.124,4.122,0,0,0,0,5.792,85.82,40.354332,40.354332,6,P-GPS,
13100,2025-05-01 19:00:47,0,0,41.0105,,,41.0105,42.979004,2.0579848,0,0,0,0,8.258,41.0105,41.0105,0,0,0.447388,-2.013246,-3.35541,6.9, 3.9, -16.3,0,0,1024,364,1024,567,0,-100,0,-69,14.6,0,0,95,4.121,4.12,0,0,0,0,5.367,85.82,41.0105,41.0105,6,P-GPS,
13200,2025-05-01 19:00:47,0,0,41.338584,,,41.338584,42.979004,2.7738056,0,0,0,0,8.258,41.338584,41.338584,0,0,0.671082,-2.684328,-2.460634,6.8, 4.2, -16.4,0,0,1024,364,1024,364,0,-100,0,-100,14.1,0,0,95,4.121,4.12,0,0,0,0,5.367,85.82,41.338584,41.338584,6,P-GPS,
13300,2025-05-01 19:00:48,0,0,41.666668,,,41.666668,42.979004,3.4225182,0,0,0,0,8.258,41.666668,41.666668,0,0,0.671082,-3.35541,-1.565858,5.1, 4, -16.6,0,0,1024,364,1024,364,0,-100,0,-100,10.8,0,0,95,4.121,4.12,0,0,0,0,5.367,85.82,41.666668,41.666668,6,P-GPS,
13400,2025-05-01 19:00:48,0,0,41.666668,,,41.666668,42.979004,3.914645,0,0,0,0,8.258,41.666668,41.666668,0,0,0.894776,-3.802798,-0.894776,1.2, 2.7, -17,0,0,1024,364,1024,928,0,-100,0,-15,6.2,0,0,95,4.121,4.12,0,0,0,0,5.367,85.82,41.666668,41.666668,6,P-GPS,
13500,2025-05-01 19:00:48,0,0,41.994752,,,41.994752,42.979004,4.5633576,0,0,0,0,8.258,41.994752,41.994752,0,0,0.894776,-4.47388,-0.447388,357, 2.4, -16.4,0,0,1024,364,1024,1024,0,-100,0,0,2.3,0,0,95,4.121,4.12,0,0,0,0,5.367,85.82,41.994752,41.994752,6,P-GPS,
13600,2025-05-01 19:00:48,0,0,41.994752,,,41.994752,42.979004,5.2120702,0,0,0,0,8.258,41.994752,41.994752,0,0,0.894776,-5.144962,-0.223694,354.3, 3.4, -15,0,0,1024,364,1024,1024,0,-100,0,0,0.7,0,0,95,4.121,4.12,0,0,0,0,5.367,85.82,41.994752,41.994752,6,P-GPS,
13700,2025-05-01 19:00:48,0,0,41.994752,,,41.994752,42.979004,5.8831522,0,0,0,0,8.258,41.994752,41.994752,0,0,0.894776,-5.816044,0,352.9, 4.4, -13.4,0,0,1024,364,1024,1024,0,-100,0,0,0.1,0,0,95,4.121,4.12,0,0,0,0,5.367,85.82,41.994752,41.994752,6,P-GPS,
13800,2025-05-01 19:00:48,0,0,41.994752,,,41.994752,42.979004,6.3081708,0,0,0,0,8.258,41.994752,41.994752,0,0,0.671082,-6.263432,0,352.7, 5.2, -12,0,0,1024,364,1024,1024,0,-100,0,0,0.1,0,0,95,4.121,4.12,0,0,0,0,5.367,85.82,41.994752,41.994752,6,P-GPS,
13900,2025-05-01 19:00:48,0,0,41.994752,,,41.994752,42.979004,6.7331894,0,0,0,0,8.258,41.994752,41.994752,0,0,0.671082,-6.71082,0,352.6, 5.6, -11.4,0,0,1024,364,1024,1024,0,-100,0,0,0.1,0,0,95,4.121,4.12,0,0,0,0,5.367,85.82,41.994752,41.994752,6,P-GPS,
14000,2025-05-01 19:00:48,0,0,41.994752,,,41.994752,42.979004,7.1805774,0,0,0,0,8.391,41.994752,41.994752,0,0,0.447388,-7.158208,0,352.6, 5.7, -11.1,0,0,1024,364,1024,1024,0,-100,0,0,0.1,0,0,95,4.176,4.174,0,0,0,0,3.294,85.82,41.994752,41.994752,6,P-GPS,
14100,2025-05-01 19:00:48,0,0,41.994752,,,41.994752,42.979004,7.605596,0,0,0,0,8.391,41.994752,41.994752,0,0,0.223694,-7.605596,0,352.7, 5.5, -11.1,0,0,1024,505,1024,1024,0,-79,0,0,0.1,0,0,95,4.176,4.174,0,0,0,0,3.294,85.82,41.994752,41.994752,6,P-GPS,
14200,2025-05-01 19:00:48,0,0,41.994752,,,41.994752,42.979004,8.052984,0,0,0,0,8.391,41.994752,41.994752,0,0,0.223694,-8.052984,0,352.9, 5.1, -10.1,0,0,1024,1024,1024,1024,0,0,0,0,0.1,0,0,95,4.176,4.174,0,0,0,0,3.294,85.82,41.994752,41.994752,6,P-GPS,
14300,2025-05-01 19:00:49,0,0,41.994752,,,41.994752,42.979004,8.276678,0,0,0,0,8.391,41.994752,41.994752,0,0,0,-8.276678,0,353.7, 5.4, 4.3,0,0,1024,946,1024,1024,0,-12,0,0,0.1,0,0,95,4.176,4.174,0,0,0,0,3.294,85.82,41.994752,41.994752,6,P-GPS,
14400,2025-05-01 19:00:49,0,0,41.994752,,,41.994752,42.979004,7.82929,0,0,0,0,8.391,41.994752,41.994752,0,0,0,-7.82929,0,354.3, 4, 18.1,0,0,1024,364,1024,1024,0,-100,0,0,0.1,0,0,95,4.176,4.174,0,0,0,0,3.294,85.82,41.994752,41.994752,6,P-GPS,
14500,2025-05-01 19:00:49,0,0,41.666668,,,41.666668,42.979004,7.158208,0,0,0,0,8.391,41.994752,41.994752,0,0,0,-7.158208,0,353.8, 5.4, 13.6,0,0,1024,364,1024,1024,0,-100,0,0,0.1,0,0,95,4.176,4.174,0,0,0,0,3.294,85.82,41.666668,41.666668,6,P-GPS,
14600,2025-05-01 19:00:49,0,0,41.666668,,,41.666668,42.979004,6.71082,0,0,0,0,8.391,41.994752,41.994752,0,0,0,-6.71082,0,353.3, 7.3, 5.9,0,0,1024,364,1024,1024,0,-100,0,0,0.1,0,0,95,4.176,4.174,0,0,0,0,3.294,85.82,41.666668,41.666668,6,P-GPS,
14700,2025-05-01 19:00:49,0,0,41.666668,,,41.666668,42.979004,6.71082,0,0,0,0,8.391,41.994752,41.994752,0,0,0,-6.487126,0,352.8, 6.5, -1.5,0,0,1024,569,1024,1024,0,-69,0,0,0.1,0,0,95,4.176,4.174,0,0,0,0,3.294,85.82,41.666668,41.666668,6,P-GPS,
14800,2025-05-01 19:00:49,0,0,41.666668,,,41.666668,42.979004,6.71082,0,0,0,0,8.391,41.994752,41.994752,0,0,-0.223694,-6.71082,0,352.7, 5.5, -5.2,0,0,1024,1024,1332,1024,0,0,47,0,0.1,0,0,95,4.176,4.174,0,0,0,0,3.294,85.82,41.666668,41.666668,6,P-GPS,
14900,2025-05-01 19:00:49,0,0,41.666668,,,41.666668,42.979004,6.71082,0,0,0,0,8.391,41.994752,41.994752,0,0,-0.223694,-6.71082,0,352.9, 4.9, -1.8,0,0,1024,1024,1332,1024,0,0,47,0,0.1,0,0,95,4.176,4.174,0,0,0,0,3.294,85.82,41.666668,41.666668,6,P-GPS,
15000,2025-05-01 19:00:49,0,0,41.666668,,,41.666668,42.979004,6.7331894,0,0,0,0,8.324,41.994752,41.994752,0,0,-0.447388,-6.71082,0,353.8, 4.3, 14.5,0,0,1024,1024,1684,1024,0,0,100,0,0.1,0,0,94,4.152,4.153,0,0,0,0,3.985,86,41.666668,41.666668,6,P-GPS,
15100,2025-05-01 19:00:49,0,0,41.666668,,,41.666668,42.979004,6.039738,0,0,0,0,8.324,41.994752,41.994752,0,0,-0.223694,-6.039738,-0.671082,353.6, 2.9, 18.2,0,0,1024,1024,1684,1024,0,0,100,0,0.1,0,0,94,4.152,4.153,0,0,0,0,3.985,86,41.666668,41.666668,6,P-GPS,
15200,2025-05-01 19:00:49,0,0,41.994752,,,41.994752,42.979004,5.144962,0,0,0,0,8.324,41.994752,41.994752,0,0,-0.223694,-5.144962,-1.342164,353.6, 3.9, 18.6,0,0,1024,1024,1684,1024,0,0,100,0,0.1,0,0,94,4.152,4.153,0,0,0,0,3.985,86,41.994752,41.994752,6,P-GPS,
15300,2025-05-01 19:00:50,0,0,41.994752,,,41.994752,42.979004,4.026492,0,0,0,0,8.324,41.994752,41.994752,0,0,-0.223694,-4.026492,-2.013246,353.8, 5.1, 18.8,0,0,1230,1024,1684,1024,31,0,100,0,0.1,0,0,94,4.152,4.153,0,0,0,0,3.985,86,41.994752,41.994752,6,P-GPS,
15400,2025-05-01 19:00:50,0,0,42.65092,,,42.65092,42.979004,3.131716,0,0,0,0,8.324,42.65092,42.65092,0,0,-0.223694,-3.131716,-2.908022,353.9, 5.9, 18.9,0,0,1684,1024,1684,1024,100,0,100,0,0.1,0,0,94,4.152,4.153,0,0,0,0,3.985,86,42.65092,42.65092,6,P-GPS,
15500,2025-05-01 19:00:50,0,0,42.979004,,,42.979004,42.979004,2.23694,0,0,0,0,8.324,42.979004,42.979004,0,0,0,-2.23694,-3.579104,352.3, 0, 13.3,0,0,1684,1024,1684,1024,100,0,100,0,0.1,0,0,94,4.152,4.153,0,0,0,0,3.985,86,42.979004,42.979004,6,P-GPS,
15600,2025-05-01 19:00:50,0,0,43.635172,,,43.635172,42.979004,1.8119214,0,0,0,0,8.324,43.635172,43.635172,0,0,0.223694,-1.789552,-4.47388,351.3, -9.1, 8.1,0,0,1684,1024,1591,1024,100,0,86,0,0.1,0,0,94,4.152,4.153,0,0,0,0,3.985,86,43.635172,43.635172,6,P-GPS,
15700,2025-05-01 19:00:50,0,0,44.619424,,,44.619424,42.979004,1.7448132,0,0,0,0,8.324,44.619424,44.619424,0,0,1.11847,-1.342164,-5.368656,351.6, -10.8, 5.9,0,0,1684,1024,1335,1024,100,0,47,0,0.1,0,0,94,4.152,4.153,0,0,0,0,3.985,86,44.619424,44.619424,6,P-GPS,
15800,2025-05-01 19:00:50,0,0,45.275592,,,45.275592,42.979004,2.23694,0,0,0,0,8.324,45.275592,45.275592,0,0,1.789552,-1.342164,-5.59235,352.3, -9.3, 5.6,0,0,1684,1024,1335,1024,100,0,47,0,0.1,0,0,94,4.152,4.153,0,0,0,0,3.985,86,45.275592,45.275592,6,P-GPS,
15900,2025-05-01 19:00:50,0,0,45.93176,,,45.93176,42.979004,2.6172198,0,0,0,0,8.324,45.93176,45.93176,0,0,2.23694,-1.342164,-5.144962,352.4, -10.6, 5.4,0,0,1684,1024,1097,1024,100,0,11,0,0.1,0,0,94,4.152,4.153,0,0,0,0,3.985,86,45.93176,45.93176,6,P-GPS,
16000,2025-05-01 19:00:50,0,0,46.587928,,,46.587928,42.979004,2.9974996,0,0,0,0,8.182,46.587928,46.587928,0,0,2.684328,-1.342164,-4.47388,352.5, -12.4, 5,0,0,1439,1024,1024,1024,63,0,0,0,0.1,0,0,94,4.072,4.072,0,0,0,0,5.525,86,46.587928,46.587928,6,P-GPS,
16100,2025-05-01 19:00:50,0,0,47.244096,,,47.244096,42.979004,3.7133204,0,0,0,0,8.182,47.244096,47.244096,0,0,3.35541,-1.565858,-3.579104,352.7, -11.1, 5.1,0,0,1151,1024,1024,1024,19,0,0,0,0.1,0,0,94,4.072,4.072,0,0,0,0,5.525,86,47.244096,47.244096,6,P-GPS,
16200,2025-05-01 19:00:50,0,0,47.57218,,,47.57218,42.979004,3.914645,0,0,0,0,8.182,47.57218,47.57218,0,0,3.579104,-1.565858,-2.684328,353.1, -3.7, 5.3,0,0,1024,1024,1024,1024,0,0,0,0,0.1,0,0,94,4.072,4.072,0,0,0,0,5.525,86,47.57218,47.57218,6,P-GPS,
16300,2025-05-01 19:00:51,0,0,47.900264,,,47.900264,42.979004,4.1159696,0,0,0,0,8.182,47.900264,47.900264,0,0,3.802798,-1.565858,-1.789552,353.5, 3, 5.4,0,0,1024,1024,1024,1024,0,0,0,0,0.1,0,0,94,4.072,4.072,0,0,0,0,5.525,86,47.900264,47.900264,6,P-GPS,
16400,2025-05-01 19:00:51,0,0,47.900264,,,47.900264,42.979004,3.914645,0,0,0,0,8.182,47.900264,47.900264,0,0,3.579104,-1.565858,-1.11847,354.6, 16.7, 8.2,0,0,1024,1024,1024,1024,0,0,0,0,0.1,0,0,94,4.072,4.072,0,0,0,0,5.525,86,47.900264,47.900264,6,P-GPS,
16500,2025-05-01 19:00:51,0,0,47.900264,,,47.900264,42.979004,3.6238428,0,0,0,0,8.182,47.900264,47.900264,0,0,3.35541,-1.342164,-0.447388,354.6, 17.6, 7.4,0,0,1024,1024,1024,1024,0,0,0,0,0.1,0,0,94,4.072,4.072,0,0,0,0,5.525,86,47.900264,47.900264,6,P-GPS,
16600,2025-05-01 19:00:51,0,0,47.900264,,,47.900264,42.979004,3.1093466,0,0,0,0,8.182,47.900264,47.900264,0,0,2.908022,-1.11847,-0.223694,354.3, 17.6, 7.5,0,0,1024,1024,1110,1024,0,0,13,0,0.1,0,0,94,4.072,4.072,0,0,0,0,5.525,86,47.900264,47.900264,6,P-GPS,
16700,2025-05-01 19:00:51,0,0,47.900264,,,47.900264,42.979004,3.1093466,0,0,0,0,8.182,47.900264,47.900264,0,0,2.23694,-1.11847,0,354.2, 17.4, 7.8,0,0,1024,1024,1684,1024,0,0,100,0,0.1,0,0,94,4.072,4.072,0,0,0,0,5.525,86,47.900264,47.900264,6,P-GPS,
16800,2025-05-01 19:00:51,0,0,48.228348,,,48.228348,42.979004,1.9908766,0,0,0,0,8.182,48.228348,48.228348,0,0,1.789552,-0.894776,0,354.1, 16.4, 7.7,0,0,1024,1024,1684,1024,0,0,100,0,0.1,0,0,94,4.072,4.072,0,0,0,0,5.525,86,48.228348,48.228348,6,P-GPS,
16900,2025-05-01 19:00:51,0,0,48.228348,,,48.228348,42.979004,1.2079476,0,0,0,0,8.182,48.228348,48.228348,0,0,1.11847,-0.447388,-0.447388,353.5, 12.6, 6.4,0,0,1024,1024,1684,1024,0,0,100,0,0.1,0,0,94,4.072,4.072,0,0,0,0,5.525,86,48.228348,48.228348,6,P-GPS,
17000,2025-05-01 19:00:51,0,0,48.228348,,,48.228348,42.979004,0.8052984,0,0,0,0,8.361,48.228348,48.228348,0,0,0.671082,-0.447388,-1.342164,353.2, 9.6, 5.6,0,0,1024,1024,1684,1024,0,0,100,0,0.1,0,0,94,4.153,4.153,0,0,0,0,4.205,86,48.228348,48.228348,6,P-GPS,
17100,2025-05-01 19:00:51,0,0,48.556432,,,48.556432,42.979004,0.3131716,0,0,0,0,8.361,48.556432,48.556432,0,0,0.223694,-0.223694,-2.013246,353, 7.8, 5.1,0,0,1024,1024,1684,1024,0,0,100,0,0.1,0,0,94,4.153,4.153,0,0,0,0,4.205,86,48.556432,48.556432,6,P-GPS,
17200,2025-05-01 19:00:51,0,0,49.2126,,,49.2126,42.979004,0.223694,0,0,0,0,8.361,49.2126,49.2126,0,0,0,-0.223694,-2.908022,352.9, 6.2, 5.2,0,0,1024,1024,1684,1024,0,0,100,0,0.1,0,0,94,4.153,4.153,0,0,0,0,4.205,86,49.2126,49.2126,6,P-GPS,
17300,2025-05-01 19:00:52,0,0,49.540684,,,49.540684,42.979004,0,0,0,0,0,8.361,49.540684,49.540684,0,0,0,0,-3.802798,352.9, 5.4, 4.7,0,0,1024,1024,1684,1024,0,0,100,0,0.1,0,0,94,4.153,4.153,0,0,0,0,4.205,86,49.540684,49.540684,6,P-GPS,
17400,2025-05-01 19:00:52,0,0,50.196852,,,50.196852,42.979004,0,0,0,0,0,8.361,50.196852,50.196852,0,0,0,0,-4.47388,353.1, 5.1, 4.5,0,0,1024,1024,1684,1024,0,0,100,0,0.1,0,0,94,4.153,4.153,0,0,0,0,4.205,86,50.196852,50.196852,6,P-GPS,
17500,2025-05-01 19:00:52,0,0,51.181104,,,51.181104,42.979004,0,0,0,0,0,8.361,51.181104,51.181104,0,0,0,0,-5.368656,353.1, 5.2, 4.4,0,0,1024,1024,1684,1024,0,0,100,0,0.1,0,0,94,4.153,4.153,0,0,0,0,4.205,86,51.181104,51.181104,6,P-GPS,
17600,2025-05-01 19:00:52,0,0,52.165356,,,52.165356,42.979004,0,0,0,0,0,8.361,52.165356,52.165356,0,0,0,0,-5.816044,353.1, 5.2, 4.3,0,0,1024,1024,1684,1024,0,0,100,0,0.1,0,0,94,4.153,4.153,0,0,0,0,4.205,86,52.165356,52.165356,6,P-GPS,
17700,2025-05-01 19:00:52,0,0,52.821524,,,52.821524,42.979004,0,0,0,0,0,8.361,52.821524,52.821524,0,0,0,0,-6.039738,353.1, 5.4, 3.9,0,0,1024,1024,1684,1024,0,0,100,0,0.1,0,0,94,4.153,4.153,0,0,0,0,4.205,86,52.821524,52.821524,6,P-GPS,
17800,2025-05-01 19:00:52,0,0,53.805776,,,53.805776,42.979004,0,0,0,0,0,8.361,53.805776,53.805776,0,0,0,0,-6.263432,353.1, 5.8, 3.6,0,0,1024,1024,1684,1024,0,0,100,0,0.1,0,0,94,4.153,4.153,0,0,0,0,4.205,86,53.805776,53.805776,6,P-GPS,
17900,2025-05-01 19:00:52,0,0,54.790028,,,54.790028,42.979004,0,0,0,0,0,8.361,54.790028,54.790028,0,0,0,0,-6.487126,353.1, 5.5, 3.5,0,0,1024,1024,1684,1024,0,0,100,0,0.1,0,0,94,4.153,4.153,0,0,0,0,4.205,86,54.790028,54.790028,6,P-GPS,
18000,2025-05-01 19:00:52,0,0,55.77428,,,55.77428,42.979004,0,0,0,0,0,8.156,55.77428,55.77428,0,0,0,0,-6.487126,353.2, 5.6, 3.5,0,0,1024,1024,1684,1024,0,0,100,0,0.1,0,0,94,4.079,4.078,0,0,0,0,6.273,86,55.77428,55.77428,6,P-GPS,
18100,2025-05-01 19:00:52,0,0,56.758532,,,56.758532,42.979004,0,0,0,0,0,8.156,56.758532,56.758532,0,0,0,0,-6.487126,353.2, 5.7, 3.4,0,0,1024,1024,1684,1024,0,0,100,0,0.1,0,0,94,4.079,4.078,0,0,0,0,6.273,86,56.758532,56.758532,6,P-GPS,
18200,2025-05-01 19:00:52,0,0,57.4147,,,57.4147,42.979004,0,0,0,0,0,8.156,57.4147,57.4147,0,0,0,0,-6.487126,353.1, 5.9, 2.9,0,0,1024,1024,1684,1024,0,0,100,0,0.1,0,0,94,4.079,4.078,0,0,0,0,6.273,86,57.4147,57.4147,6,P-GPS,
18300,2025-05-01 19:00:53,0,0,58.398952,,,58.398952,42.979004,0,0,0,0,0,8.156,58.398952,58.398952,0,0,0,0,-6.487126,353.1, 5.6, 3,0,0,1024,1024,1684,1024,0,0,100,0,0.1,0,0,94,4.079,4.078,0,0,0,0,6.273,86,58.398952,58.398952,6,P-GPS,
18400,2025-05-01 19:00:53,0,0,59.383204,,,59.383204,42.979004,0,0,0,0,0,8.156,59.383204,59.383204,0,0,0,0,-6.487126,353.2, 5.5, 3.6,0,0,1024,1024,1684,1024,0,0,100,0,0.1,0,0,94,4.079,4.078,0,0,0,0,6.273,86,59.383204,59.383204,6,P-GPS,
18500,2025-05-01 19:00:53,0,0,60.039372,,,60.039372,42.979004,0,0,0,0,0,8.156,60.039372,60.039372,0,0,0,0,-6.487126,353.1, 5, 3.8,0,0,1024,1024,1684,1024,0,0,100,0,0.1,0,0,94,4.079,4.078,0,0,0,0,6.273,86,60.039372,60.039372,31,Sport,
18600,2025-05-01 19:00:53,0,0,61.023624,,,61.023624,42.979004,0,0,0,0,0,8.156,61.023624,61.023624,0,0,0,0,-6.934514,352.9, 3.9, 3.6,0,0,1024,1024,1684,1024,0,0,100,0,0.1,0,0,94,4.079,4.078,0,0,0,0,6.273,86,61.023624,61.023624,31,Sport,
18700,2025-05-01 19:00:53,0,0,62.007876,,,62.007876,42.979004,0,0,0,0,0,8.156,62.007876,62.007876,0,0,0,0,-7.82929,352.9, 4.6, 3.8,0,0,1024,1024,1684,1024,0,0,100,0,0.1,0,0,94,4.079,4.078,0,0,0,0,6.273,86,62.007876,62.007876,31,Sport,
18800,2025-05-01 19:00:53,0,0,63.320212,,,63.320212,42.979004,0,0,0,0,0,8.156,63.320212,63.320212,0,0,0,0,-8.500372,352.8, 4.2, 4.1,0,0,1024,1024,1684,1024,0,0,100,0,0.1,0,0,94,4.079,4.078,0,0,0,0,6.273,86,63.320212,63.320212,31,Sport,
18900,2025-05-01 19:00:53,0,0,64.632548,,,64.632548,42.979004,0,0,0,0,0,8.156,64.632548,64.632548,0,0,0,0,-9.395148,352.8, 4.5, 4.2,0,0,1024,1024,1684,1024,0,0,100,0,0.1,0,0,94,4.079,4.078,0,0,0,0,6.273,86,64.632548,64.632548,31,Sport,
19000,2025-05-01 19:00:53,0,0,65.944884,,,65.944884,42.979004,0,0,0,0,0,8.156,65.944884,65.944884,0,0,0,0,-10.06623,352.7, 4.7, 3.9,0,0,1024,1024,1684,1024,0,0,100,0,0.1,0,0,94,4.079,4.078,0,0,0,0,6.273,86,65.944884,65.944884,31,Sport,
19100,2025-05-01 19:00:53,0,0,67.585304,,,67.585304,42.979004,0,0,0,0,0,8.216,67.585304,67.585304,0,0,0,0,-10.513618,353, 5.6, 3.9,0,0,1024,1024,1684,1024,0,0,100,0,0.1,0,0,94,4.032,4.017,0,0,0,0,5.863,86.18,67.585304,67.585304,31,Sport,
19200,2025-05-01 19:00:53,0,0,69.225724,,,69.225724,42.979004,0,0,0,0,0,8.216,69.225724,69.225724,0,0,0,0,-10.737312,353, 5.2, 3.9,0,0,1024,1024,1684,1024,0,0,100,0,0.1,0,0,94,4.032,4.017,0,0,0,0,5.863,86.18,69.225724,69.225724,31,Sport,
19300,2025-05-01 19:00:54,0,0,70.866144,,,70.866144,42.979004,0,0,0,0,0,8.216,70.866144,70.866144,0,0,0,0,-10.961006,353, 4.5, 3.8,0,0,1024,1024,1684,1024,0,0,100,0,0.1,0,0,94,4.032,4.017,0,0,0,0,5.863,86.18,70.866144,70.866144,31,Sport,
19400,2025-05-01 19:00:54,0,0,72.506564,,,72.506564,42.979004,0,0,0,0,0,8.216,72.506564,72.506564,0,0,0,0,-10.961006,353.1, 4.5, 3.8,0,0,1024,1024,1684,1024,0,0,100,0,0.1,0,0,94,4.032,4.017,0,0,0,0,5.863,86.18,72.506564,72.506564,31,Sport,
19500,2025-05-01 19:00:54,0,0,74.146984,,,74.146984,42.979004,0,0,0,0,0,8.216,74.146984,74.146984,0,0,0,0,-10.961006,353, 4.3, 3.7,0,0,1024,1024,1684,1024,0,0,100,0,0.1,0,0,94,4.032,4.017,0,0,0,0,5.863,86.18,74.146984,74.146984,31,Sport,
19600,2025-05-01 19:00:54,0,0,75.787404,,,75.787404,42.979004,0,0,0,0,0,8.216,75.787404,75.787404,0,0,0,0,-11.1847,353.1, 4.3, 3.9,0,0,1024,1024,1684,1024,0,0,100,0,0.1,0,0,94,4.032,4.017,0,0,0,0,5.863,86.18,75.787404,75.787404,31,Sport,
19700,2025-05-01 19:00:54,0,0,77.427824,,,77.427824,42.979004,0,0,0,0,0,8.216,77.427824,77.427824,0,0,0,0,-11.1847,353.1, 4, 4.2,0,0,1024,1024,1684,1024,0,0,100,0,0.1,0,0,94,4.032,4.017,0,0,0,0,5.863,86.18,77.427824,77.427824,31,Sport,
19800,2025-05-01 19:00:54,0,0,79.068244,,,79.068244,42.979004,0,0,0,0,0,8.216,79.068244,79.068244,0,0,0,0,-10.961006,353.1, 4.2, 4.4,0,0,1024,1024,1684,1024,0,0,100,0,0.1,0,0,94,4.032,4.017,0,0,0,0,5.863,86.18,79.068244,79.068244,31,Sport,
19900,2025-05-01 19:00:54,0,0,80.708664,,,80.708664,42.979004,0,0,0,0,0,8.216,80.708664,80.708664,0,0,0,0,-10.737312,353.2, 4.5, 4.4,0,0,1024,1024,1684,1024,0,0,100,0,0.1,0,0,94,4.032,4.017,0,0,0,0,5.863,86.18,80.708664,80.708664,31,Sport,
20000,2025-05-01 19:00:54,0,0,82.021,,,82.021,42.979004,0,0,0,0,0,8.216,82.021,82.021,0,0,0,0,-10.289924,353.2, 4.7, 4.5,0,0,1024,1024,1684,1024,0,0,100,0,0.1,0,0,94,4.032,4.017,0,0,0,0,5.863,86.18,82.021,82.021,31,Sport,
20100,2025-05-01 19:00:54,0,0,83.66142,,,83.66142,42.979004,0,0,0,0,0,8.108,83.66142,83.66142,0,0,0,0,-9.618842,353.3, 4.8, 4.7,0,0,1024,1024,1684,1024,0,0,100,0,0.1,0,0,94,4.067,4.068,0,0,0,0,8.173,86.36,83.66142,83.66142,31,Sport,
20200,2025-05-01 19:00:54,0,0,84.973756,,,84.973756,42.979004,0,0,0,0,0,8.108,84.973756,84.973756,0,0,0,0,-8.94776,353.3, 4.4, 5,0,0,1024,1024,1684,1024,0,0,100,0,0.1,0,0,94,4.067,4.068,0,0,0,0,8.173,86.36,84.973756,84.973756,31,Sport,
20300,2025-05-01 19:00:55,0,0,85.958008,,,85.958008,42.979004,0,0,0,0,0,8.108,85.958008,85.958008,0,0,0,0,-8.276678,353.2, 4.6, 5,0,0,1024,1024,1684,1024,0,0,100,0,0.1,0,0,94,4.067,4.068,0,0,0,0,8.173,86.36,85.958008,85.958008,31,Sport,
20400,2025-05-01 19:00:55,0,0,87.270344,,,87.270344,42.979004,0,0,0,0,0,8.108,87.270344,87.270344,0,0,0,0,-7.381902,353.2, 4.4, 4.2,0,0,1024,1024,1684,1024,0,0,100,0,0.1,0,0,94,4.067,4.068,0,0,0,0,8.173,86.36,87.270344,87.270344,31,Sport,
20500,2025-05-01 19:00:55,0,0,88.254596,,,88.254596,42.979004,0,0,0,0,0,8.108,88.254596,88.254596,0,0,0,0,-6.934514,353.2, 4.9, 4.5,0,0,1024,1024,1684,1024,0,0,100,0,0.1,0,0,94,4.067,4.068,0,0,0,0,8.173,86.36,88.254596,88.254596,31,Sport,
20600,2025-05-01 19:00:55,0,0,88.910764,,,88.910764,42.979004,0,0,0,0,0,8.108,88.910764,88.910764,0,0,0,0,-6.263432,353.2, 5, 4.6,0,0,1024,1024,1684,1024,0,0,100,0,0.1,0,0,94,4.067,4.068,0,0,0,0,8.173,86.36,88.910764,88.910764,31,Sport,
20700,2025-05-01 19:00:55,0,0,89.895016,,,89.895016,42.979004,0,0,0,0,0,8.108,89.895016,89.895016,0,0,0,0,-5.59235,353.2, 5.3, 4.2,0,0,1024,1024,1684,1024,0,0,100,0,0.1,0,0,94,4.067,4.068,0,0,0,0,8.173,86.36,89.895016,89.895016,31,Sport,
20800,2025-05-01 19:00:55,0,0,90.551184,,,90.551184,42.979004,0,0,0,0,0,8.108,90.551184,90.551184,0,0,0,0,-5.144962,353.1, 4.9, 4,0,0,1024,1024,1684,1024,0,0,100,0,0.1,0,0,94,4.067,4.068,0,0,0,0,8.173,86.36,90.551184,90.551184,6,P-GPS,
20900,2025-05-01 19:00:55,0,0,91.207352,,,91.207352,42.979004,0,0,0,0,0,8.108,91.207352,91.207352,0,0,0,0,-4.697574,353.1, 4.5, 4.5,0,0,1024,1024,1684,1024,0,0,100,0,0.1,0,0,94,4.067,4.068,0,0,0,0,8.173,86.36,91.207352,91.207352,6,P-GPS,
21000,2025-05-01 19:00:55,0,0,91.86352,,,91.86352,42.979004,0,0,0,0,0,8.108,91.86352,91.86352,0,0,0,0,-4.250186,353.1, 4.5, 4.8,0,0,1024,1024,1684,1024,0,0,100,0,0.1,0,0,94,4.067,4.068,0,0,0,0,8.173,86.36,91.86352,91.86352,6,P-GPS,
21100,2025-05-01 19:00:55,0,0,92.191604,,,92.191604,42.979004,0,0,0,0,0,8.255,92.191604,92.191604,0,0,0,0,-3.802798,353.1, 4.6, 4.7,0,0,1024,1024,1684,1024,0,0,100,0,0.1,0,0,94,4.131,4.135,0,0,0,0,5.24,86.36,92.191604,92.191604,31,Sport,
21200,2025-05-01 19:00:55,0,0,92.847772,,,92.847772,42.979004,0,0,0,0,0,8.255,92.847772,92.847772,0,0,0,0,-3.579104,353.1, 4.5, 4.8,0,0,1024,1024,1684,1024,0,0,100,0,0.1,0,0,94,4.131,4.135,0,0,0,0,5.24,86.36,92.847772,92.847772,31,Sport,
21300,2025-05-01 19:00:55,0,0,93.175856,,,93.175856,42.979004,0,0,0,0,0,8.255,93.175856,93.175856,0,0,0,0,-3.35541,353.1, 4.3, 4.9,0,0,1024,1024,1684,1024,0,0,100,0,0.1,0,0,94,4.131,4.135,0,0,0,0,5.24,86.36,93.175856,93.175856,31,Sport,
21400,2025-05-01 19:00:56,0,0,93.832024,,,93.832024,42.979004,0,0,0,0,0,8.255,93.832024,93.832024,0,0,0,0,-2.908022,353.1, 4.5, 4.8,0,0,1024,1024,1684,1024,0,0,100,0,0.1,0,0,94,4.131,4.135,0,0,0,0,5.24,86.36,93.832024,93.832024,31,Sport,
21500,2025-05-01 19:00:56,0,0,94.160108,,,94.160108,42.979004,0,0,0,0,0,8.255,94.160108,94.160108,0,0,0,0,-2.684328,353.1, 4.4, 4.6,0,0,1024,1024,1684,1024,0,0,100,0,0.1,0,0,94,4.131,4.135,0,0,0,0,5.24,86.36,94.160108,94.160108,31,Sport,"Se ha alcanzado la altitud máxima (Code: 20000001)"
21600,2025-05-01 19:00:56,0,0,94.488192,,,94.488192,42.979004,0,0,0,0,0,8.255,94.488192,94.488192,0,0,0,0,-2.460634,353.1, 4.4, 4.5,0,0,1024,1024,1684,1024,0,0,100,0,0.1,0,0,94,4.131,4.135,0,0,0,0,5.24,86.36,94.488192,94.488192,31,Sport,
21700,2025-05-01 19:00:56,0,0,94.816276,,,94.816276,42.979004,0,0,0,0,0,8.255,94.816276,94.816276,0,0,0,0,-2.23694,353, 4.3, 4.1,0,0,1024,1024,1684,1024,0,0,100,0,0.1,0,0,94,4.131,4.135,0,0,0,0,5.24,86.36,94.816276,94.816276,31,Sport,
21800,2025-05-01 19:00:56,0,0,95.14436,,,95.14436,42.979004,0,0,0,0,0,8.255,95.14436,95.14436,0,0,0,0,-2.013246,353, 4.8, 4,0,0,1024,1024,1684,1024,0,0,100,0,0.1,0,0,94,4.131,4.135,0,0,0,0,5.24,86.36,95.14436,95.14436,31,Sport,
21900,2025-05-01 19:00:56,0,0,95.472444,,,95.472444,42.979004,0,0,0,0,0,8.255,95.472444,95.472444,0,0,0,0,-2.013246,353.1, 5.1, 3.9,0,0,1024,1024,1684,1024,0,0,100,0,0.1,0,0,94,4.131,4.135,0,0,0,0,5.24,86.36,95.472444,95.472444,31,Sport,
22000,2025-05-01 19:00:56,0,0,95.800528,,,95.800528,42.979004,0,0,0,0,0,8.255,95.800528,95.800528,0,0,0,0,-1.789552,353.1, 5.1, 4.3,0,0,1024,1024,1684,1024,0,0,100,0,0.1,0,0,94,4.131,4.135,0,0,0,0,5.24,86.36,95.800528,95.800528,31,Sport,
22100,2025-05-01 19:00:56,0,0,95.800528,,,95.800528,42.979004,0,0,0,0,0,8.255,95.800528,95.800528,0,0,0,0,-1.565858,353.2, 5.8, 4.3,0,0,1024,1024,1684,1024,0,0,100,0,0.1,0,0,94,4.136,4.136,0,0,0,0,5.24,86.36,95.800528,95.800528,31,Sport,
22200,2025-05-01 19:00:56,0,0,96.128612,,,96.128612,42.979004,0,0,0,0,0,8.255,96.128612,96.128612,0,0,0,0,-1.342164,353.2, 5.6, 4.6,0,0,1024,1024,1684,1024,0,0,100,0,0.1,0,0,94,4.136,4.136,0,0,0,0,5.24,86.36,96.128612,96.128612,31,Sport,
22300,2025-05-01 19:00:57,0,0,96.456696,,,96.456696,42.979004,0,0,0,0,0,8.255,96.456696,96.456696,0,0,0,0,-1.11847,353.2, 5, 4.6,0,0,1024,1024,1684,1024,0,0,100,0,0.1,0,0,94,4.136,4.136,0,0,0,0,5.24,86.36,96.456696,96.456696,31,Sport,"Señal de posicionamiento por satélite débil. Vuelo estacionario inestable. Vuela con cuidado (Code: 30002). Error de calibración del estabilizador. Reinicia la aeronave o contacta con la Asistencia DJI (Code: 40011)"
22400,2025-05-01 19:00:57,0,0,96.456696,,,96.456696,42.979004,0,0,0,0,0,8.255,96.456696,96.456696,0,0,0,0,-1.11847,353, -0.4, -0.2,0,0,1024,1024,1684,1024,0,0,100,0,0.1,0,0,94,4.136,4.136,0,0,0,0,5.24,86.36,96.456696,96.456696,1,Atti,"Vuela con cuidado (modo Atti) Aeronave en modo Atti. No se puede hacer vuelo estacionario. Vuela con cuidado (Code: 30004). Error de calibración del estabilizador. Reinicia la aeronave o contacta con la Asistencia DJI (Code: 40011)"
22500,2025-05-01 19:00:57,0,0,96.78478,,,96.78478,42.979004,0,0,0,0,0,8.255,96.78478,96.78478,0,0,0,0,-1.11847,352.9, -0.7, -0.1,0,0,1024,1024,1684,1024,0,0,100,0,0.1,0,0,94,4.136,4.136,0,0,0,0,5.24,86.36,96.78478,96.78478,1,Atti,
22600,2025-05-01 19:00:57,0,0,97.112864,,,97.112864,42.979004,0,0,0,0,0,8.255,97.112864,97.112864,0,0,0,0,-0.894776,352.9, -0.6, 0,0,0,1026,1024,1684,1024,0,0,100,0,0.1,0,0,94,4.136,4.136,0,0,0,0,5.24,86.36,97.112864,97.112864,1,Atti,
22700,2025-05-01 19:00:57,0,0,97.440948,,,97.440948,42.979004,0,0,0,0,0,8.255,97.440948,97.440948,0,0,0,0,-0.894776,352.9, -0.5, 0,0,0,1094,1024,1684,1024,11,0,100,0,0.1,0,0,94,4.136,4.136,0,0,0,0,5.24,86.36,97.440948,97.440948,1,Atti,
22800,2025-05-01 19:00:57,0,0,97.440948,,,97.440948,42.979004,0,0,0,0,0,8.255,97.440948,97.440948,0,0,0,0,-0.671082,352.9, -0.4, -0.4,0,0,1684,1024,1357,1024,100,0,50,0,0.1,0,0,94,4.136,4.136,0,0,0,0,5.24,86.36,97.440948,97.440948,1,Atti,
22900,2025-05-01 19:00:57,0,0,97.769032,,,97.769032,42.979004,0,0,0,0,0,8.255,97.769032,97.769032,0,0,0,0,-0.671082,353.1, -11.5, -0.2,0,0,1684,1024,1024,1024,100,0,0,0,0.1,0,0,94,4.136,4.136,0,0,0,0,5.24,86.36,97.769032,97.769032,1,Atti,
23000,2025-05-01 19:00:57,0,0,97.769032,,,97.769032,42.979004,0,0,0,0,0,8.255,97.769032,97.769032,0,0,0,0,-0.447388,353.4, -26.7, -0.4,0,0,1684,1024,1024,1024,100,0,0,0,0.1,-2.2,0,94,4.136,4.136,0,0,0,0,5.24,86.36,97.769032,97.769032,1,Atti,
23100,2025-05-01 19:00:57,0,0,98.097116,,,98.097116,42.979004,0,0,0,0,0,8.265,98.097116,98.097116,0,0,0,0,-0.223694,353.1, -26.6, -0.4,0,0,1684,1024,1024,1024,100,0,0,0,0.1,-3.4,0,94,4.143,4.142,0,0,0,0,4.162,86.36,98.097116,98.097116,1,Atti,
23200,2025-05-01 19:00:57,0,0,98.097116,,,98.097116,42.979004,0,0,0,0,0,8.265,98.097116,98.097116,0,0,0,0,0,352.8, -27.1, -0.8,0,0,1684,1024,1024,1024,100,0,0,0,0,-3.4,0,94,4.143,4.142,0,0,0,0,4.162,86.36,98.097116,98.097116,1,Atti,
23300,2025-05-01 19:00:58,0,0,98.4252,,,98.4252,42.979004,0,0,0,0,0,8.265,98.4252,98.4252,0,0,0,0,0,352.9, -27.4, -0.8,0,0,1684,1024,1024,1024,100,0,0,0,359.8,-3.4,0,94,4.143,4.142,0,0,0,0,4.162,86.36,98.4252,98.4252,1,Atti,
23400,2025-05-01 19:00:58,0,0,98.4252,,,98.4252,42.979004,0,0,0,0,0,8.265,98.4252,98.4252,0,0,0,0,0,353.1, -27.2, -0.6,0,0,1684,1024,1024,1024,100,0,0,0,359.8,-3.4,0,94,4.143,4.142,0,0,0,0,4.162,86.36,98.4252,98.4252,1,Atti,
23500,2025-05-01 19:00:58,0,0,98.4252,,,98.4252,42.979004,0,0,0,0,0,8.265,98.4252,98.4252,0,0,0,0,0,353.2, -27.4, -0.4,0,0,1684,1024,1024,1024,100,0,0,0,359.8,-3.4,0,94,4.143,4.142,0,0,0,0,4.162,86.36,98.4252,98.4252,1,Atti,
23600,2025-05-01 19:00:58,0,0,98.4252,,,98.4252,42.979004,0,0,0,0,0,8.265,98.4252,98.4252,0,0,0,0,0,353.4, -28.1, -0.3,0,0,1684,1024,1024,1024,100,0,0,0,359.8,-3.4,0,94,4.143,4.142,0,0,0,0,4.162,86.36,98.4252,98.4252,1,Atti,
23700,2025-05-01 19:00:58,0,0,98.4252,,,98.4252,42.979004,0,0,0,0,0,8.265,98.4252,98.4252,0,0,0,0,0,353.3, -29.1, 0,0,0,1684,1024,1024,1024,100,0,0,0,359.9,-7.3,0,94,4.143,4.142,0,0,0,0,4.162,86.36,98.4252,98.4252,1,Atti,
