time(millisecond),datetime(utc),latitude,longitude,height_above_takeoff(feet),height_above_ground_at_drone_location(feet),ground_elevation_at_drone_location(feet),altitude_above_seaLevel(feet),height_sonar(feet),speed(mph),distance(feet),mileage(feet),satellites,gpslevel,voltage(v),max_altitude(feet),max_ascent(feet),max_speed(mph),max_distance(feet), xSpeed(mph), ySpeed(mph), zSpeed(mph), compass_heading(degrees), pitch(degrees), roll(degrees),isPhoto,isVideo,rc_elevator,rc_aileron,rc_throttle,rc_rudder,rc_elevator(percent),rc_aileron(percent),rc_throttle(percent),rc_rudder(percent),gimbal_heading(degrees),gimbal_pitch(degrees),gimbal_roll(degrees),battery_percent,voltageCell1,voltageCell2,voltageCell3,voltageCell4,voltageCell5,voltageCell6,current(A),battery_temperature(f),altitude(feet),ascent(feet),flycStateRaw,flycState,message
0,2022-09-05 21:45:54,-34.9581270341558,-54.9445244073735,0,0,10.880391096204,10.880391096204,0.328084,0,0,0,19,5,0,10.880391096204,0,0,0,0.223694,0,0,327.7, -5.7, -4.9,0,0,364,364,364,1684,-100,-100,-100,100,338.2,0,0,96,4.291,4.288,0,0,0,0,0,73.58,10.880391096204,0,41,Motors_Started,
100,2022-09-05 21:45:54,-34.9581268127355,-54.9445243939884,0,0,10.880391096204,10.880391096204,0.328084,0,0.08088418894,0.08088418894,19,5,0,10.880391096204,0,0,0.08088418894,0,0,0,326, -4.5, -3.3,0,0,364,364,364,1684,-100,-100,-100,100,338.3,0,0,96,4.291,4.288,0,0,0,0,0,73.58,10.880391096204,0,41,Motors_Started,"En vuelo"
200,2022-09-05 21:45:54,-34.9581266898767,-54.9445243587552,0,0,10.880391096204,10.880391096204,0.328084,0,0.12644849486,0.126930450256,19,5,0,10.880391096204,0,0,0.12644849486,0,0,0,327.7, -4, -4.8,0,0,364,364,364,1684,-100,-100,-100,100,338.1,0,0,96,4.291,4.288,0,0,0,0,0,73.58,10.880391096204,0,41,Motors_Started,
300,2022-09-05 21:45:54,-34.9581266698826,-54.9445242633381,0,0,10.880391096204,10.880391096204,0.328084,0,0.139709322056,0.156379926264,19,5,0,10.880391096204,0,0,0.139709322056,0,0,0,328.5, -4.6, -4.8,0,0,364,364,364,1684,-100,-100,-100,100,339.1,0,0,96,4.291,4.288,0,0,0,0,0,73.58,10.880391096204,0,41,Motors_Started,
400,2022-09-05 21:45:54,-34.9581267721001,-54.9445240530658,0,0,10.880391096204,10.880391096204,0.328084,0,0.142708665984,0.229483931228,19,5,0,10.880391096204,0,0,0.142708665984,0,0,0,328.4, -4.9, -4.6,0,0,364,364,364,1684,-100,-100,-100,100,339.5,0,0,96,4.291,4.288,0,0,0,0,0,73.58,10.880391096204,0,41,Motors_Started,
500,2022-09-05 21:45:54,-34.9581267868749,-54.9445240205033,0,0,10.880391096204,10.880391096204,0.328084,0,0.146703744852,0.240613196676,19,5,0,10.880391096204,0,0,0.146703744852,0,0,0,327.7, -4.8, -4.7,0,0,1024,1024,603,1085,0,0,-64,9,339.4,0,0,96,4.291,4.288,0,0,0,0,0,73.58,10.880391096204,0,41,Motors_Started,
600,2022-09-05 21:45:54,-34.9581267990011,-54.9445240023813,0,0,10.880391096204,10.880391096204,0.328084,0,0.148412734408,0.247608931808,19,5,0,10.880391096204,0,0,0.148412734408,0,0,0,327.5, -5.1, -4.5,0,0,1024,1024,1024,1024,0,0,0,0,339.1,0,0,96,4.291,4.288,0,0,0,0,0,73.58,10.880391096204,0,41,Motors_Started,"Setting new Return-To-Home altitude to 60m (197 ft). Data Recorder File Index is 58. Setting new Maximum Flight Altitude to 120m (394 ft)"
700,2022-09-05 21:45:55,-34.9581268205943,-54.9445239717171,0,0,10.880391096204,10.880391096204,0.328084,0,0.151793968112,0.259697842956,19,5,0,10.880391096204,0,0,0.151793968112,0,0,0,327.2, -5.7, -4.6,0,0,1024,1024,1024,1024,0,0,0,0,338.7,0,0,96,4.291,4.288,0,0,0,0,0,73.58,10.880391096204,0,41,Motors_Started,
800,2022-09-05 21:45:55,-34.9581270040336,-54.9445239890407,0,0,10.880391096204,10.880391096204,0.328084,0,0.125571854412,0.32682579786,19,5,0,10.880391096204,0,0,0.151793968112,0,0,0,326.8, -6.9, -4.4,0,0,1024,1024,1024,1024,0,0,0,0,338.2,0,0,96,4.291,4.288,0,0,0,0,0,73.58,10.880391096204,0,41,Motors_Started,
900,2022-09-05 21:45:55,-34.9581269355437,-54.9445240145173,-0.328084,-0.328084,10.880391096204,10.552307096204,0.328084,0,0.122857943564,0.35294948636,19,5,0,10.880391096204,0,0,0.151793968112,0,0,0,326.8, -7.3, -3.6,0,0,1024,1024,1088,1024,0,0,10,0,337.9,0,0,96,4.291,4.288,0,0,0,0,0,73.58,10.552307096204,-0.328084,41,Motors_Started,
1000,2022-09-05 21:45:55,-34.9581268609594,-54.944524049856,-0.328084,-0.328084,10.880391096204,10.552307096204,0.328084,0,0.124184059092,0.38214240068,18,5,8.613,10.880391096204,0,0,0.151793968112,0,0,0,326.7, -8.2, -3.2,0,0,1024,1024,1317,1024,0,0,44,0,337.8,0,0,96,4.291,4.288,0,0,0,0,0.571,73.58,10.552307096204,-0.328084,41,Motors_Started,
1100,2022-09-05 21:45:55,-34.9581267435396,-54.944524106595,-0.328084,-0.328084,10.880391096204,10.552307096204,0.328084,0,0.139038062192,0.42821851764,18,5,8.613,10.880391096204,0,0,0.151793968112,0,0,0,326.6, -10, -3.5,0,0,1024,1024,1190,1024,0,0,25,0,337.7,0,0,96,4.291,4.288,0,0,0,0,0.571,73.58,10.552307096204,-0.328084,10,Assisted_Takeoff,
1200,2022-09-05 21:45:55,-34.9581265803369,-54.944524250343,-0.328084,-0.328084,10.880391096204,10.552307096204,0.328084,0,0.1721046643,0.5016568402,19,5,8.613,10.880391096204,0,0,0.1721046643,0,0,0,327, -10.2, -3.7,0,0,1024,1024,1024,1024,0,0,0,0,337.6,0,0,96,4.291,4.288,0,0,0,0,0.571,73.58,10.552307096204,-0.328084,10,Assisted_Takeoff,
1300,2022-09-05 21:45:55,-34.9581265118633,-54.9445242276433,-0.328084,-0.328084,10.880391096204,10.552307096204,0.328084,0,0.197991804236,0.52754594864,19,5,8.613,10.880391096204,0,0,0.197991804236,0,0,0,327, -8.5, -3,0,0,1024,1024,1024,1024,0,0,0,0,337.8,0,0,96,4.291,4.288,0,0,0,0,0.571,73.58,10.552307096204,-0.328084,10,Assisted_Takeoff,
1400,2022-09-05 21:45:55,-34.9581264916006,-54.9445241854082,-0.328084,-0.2624672,10.814774296204,10.552307096204,0.328084,0,0.208781830828,0.54217849504,19,5,8.613,10.880391096204,0,0,0.208781830828,0,0,0,327.8, -7.2, -2.9,0,0,1024,1024,1024,1024,0,0,0,0,338.3,0,0,96,4.291,4.288,0,0,0,0,0.571,73.58,10.552307096204,-0.328084,10,Assisted_Takeoff,
1500,2022-09-05 21:45:55,-34.9581265040346,-54.9445241589206,-0.328084,-0.328084,10.880391096204,10.552307096204,0.328084,0,0.207191935764,0.55130579192,19,5,8.613,10.880391096204,0,0,0.208781830828,0,0,0,327.7, -7.5, -2.8,0,0,1024,1024,1024,1024,0,0,0,0,338.6,0,0,96,4.291,4.288,0,0,0,0,0.571,73.58,10.552307096204,-0.328084,10,Assisted_Takeoff,
1600,2022-09-05 21:45:55,-34.9581265075675,-54.9445241600024,-0.328084,-0.328084,10.880391096204,10.552307096204,0.328084,0,0.20587271,0.55263453212,19,5,8.613,10.880391096204,0,0,0.208781830828,0,0,0,327, -7.6, -2.7,0,0,1024,1024,1024,1024,0,0,0,0,338.5,0,0,96,4.291,4.288,0,0,0,0,0.571,73.58,10.552307096204,-0.328084,10,Assisted_Takeoff,
1700,2022-09-05 21:45:56,-34.9581265191677,-54.9445241939382,-0.328084,-0.328084,10.880391096204,10.552307096204,0.328084,0,0.198436358056,0.56362862696,19,5,8.613,10.880391096204,0,0,0.208781830828,0,0,0,327, -7.7, -3.2,0,0,1024,1024,1024,1024,0,0,0,0,338.2,0,0,96,4.291,4.288,0,0,0,0,0.571,73.58,10.552307096204,-0.328084,10,Assisted_Takeoff,
1800,2022-09-05 21:45:56,-34.9581265145657,-54.9445242051726,-0.328084,-0.328084,10.880391096204,10.552307096204,0.328084,0,0.198980649412,0.56738518876,19,5,8.613,10.880391096204,0,0,0.208781830828,0,0,0,327.3, -8.2, -3.8,0,0,1024,1024,1024,1024,0,0,0,0,338.1,0,0,96,4.291,4.288,0,0,0,0,0.571,73.58,10.552307096204,-0.328084,10,Assisted_Takeoff,
1900,2022-09-05 21:45:56,-34.9581265039613,-54.9445241751528,-0.328084,-0.328084,10.880391096204,10.552307096204,0.328084,0,0.20552658138,0.57716209196,19,5,8.613,10.880391096204,0,0,0.208781830828,0,0,0,327.1, -8.6, -3.8,0,0,1024,1024,1024,1024,0,0,0,0,338.1,0,0,96,4.291,4.288,0,0,0,0,0.571,73.58,10.552307096204,-0.328084,10,Assisted_Takeoff,
2000,2022-09-05 21:45:56,-34.9581264853238,-54.9445241598264,-0.328084,-0.2624672,10.814774296204,10.552307096204,0.328084,0,0.213484586884,0.58536091112,19,5,8.563,10.880391096204,0,0,0.213484586884,0,0,0,326.9, -9, -3.4,0,0,1024,1024,1063,1024,0,0,6,0,338,0,0,96,4.273,4.271,0,0,0,0,1.383,73.58,10.552307096204,-0.328084,10,Assisted_Takeoff,
2100,2022-09-05 21:45:56,-34.9581264573585,-54.9445241613133,-0.328084,-0.2624672,10.814774296204,10.552307096204,0.328084,0,0.222935702672,0.59557416604,19,5,8.563,10.880391096204,0,0,0.222935702672,0,0,0,326.9, -9.9, -3.6,0,0,1024,1024,1090,1024,0,0,10,0,337.9,0,0,96,4.273,4.271,0,0,0,0,1.383,73.58,10.552307096204,-0.328084,10,Assisted_Takeoff,
2200,2022-09-05 21:45:56,-34.9581264278584,-54.9445241766535,-0.328084,-0.2624672,10.814774296204,10.552307096204,0.328084,0,0.23171588668,0.60727364148,19,5,8.563,10.880391096204,0,0,0.23171588668,0,0,0,327, -10.1, -3.4,0,0,1024,1024,1125,1024,0,0,15,0,337.9,0,0,96,4.273,4.271,0,0,0,0,1.383,73.58,10.552307096204,-0.328084,10,Assisted_Takeoff,
2300,2022-09-05 21:45:56,-34.9581264027047,-54.944524174586,-0.328084,-0.2624672,10.814774296204,10.552307096204,0.328084,0,0.240670611376,0.616469836,19,5,8.563,10.880391096204,0,0,0.240670611376,0,0,0,326.6, -9.3, -3.7,0,0,1024,1024,1229,1024,0,0,31,0,337.7,0,0,96,4.273,4.271,0,0,0,0,1.383,73.58,10.552307096204,-0.328084,10,Assisted_Takeoff,
2400,2022-09-05 21:45:56,-34.9581263395902,-54.9445242241484,-0.328084,-0.2624672,10.814774296204,10.552307096204,0.328084,0,0.25926674058,0.64385500748,19,5,8.563,10.880391096204,0,0,0.25926674058,0,0,0,325.7, -9, -3.8,0,0,1024,1024,1078,1024,0,0,8,0,337.2,0,0,96,4.273,4.271,0,0,0,0,1.383,73.58,10.552307096204,-0.328084,10,Assisted_Takeoff,
2500,2022-09-05 21:45:56,-34.9581260856018,-54.9445243876261,-0.328084,-0.2624672,10.814774296204,10.552307096204,0.328084,0.223694,0.34612862,0.74862535204,19,5,8.563,10.880391096204,0,0.223694,0.34612862,0.223694,0,0,324.2, -9.2, -2.2,0,0,1024,1024,1024,1024,0,0,0,0,336,0,0,96,4.273,4.271,0,0,0,0,1.383,73.58,10.552307096204,-0.328084,10,Assisted_Takeoff,
2600,2022-09-05 21:45:56,-34.9581258723278,-54.9445245073122,-0.328084,-0.2296588,10.781965896204,10.552307096204,0.328084,0.447388,0.42494423932,0.83427496108,19,5,8.563,10.880391096204,0,0.447388,0.42494423932,0.447388,0,0,323.7, -8.3, 0.2,0,0,1024,1024,1286,1024,0,0,40,0,335.4,0,0,96,4.273,4.271,0,0,0,0,1.383,73.58,10.552307096204,-0.328084,10,Assisted_Takeoff,
2700,2022-09-05 21:45:57,-34.9581256054852,-54.944524579765,-0.328084,-0.2296588,10.781965896204,10.552307096204,0.328084,0.4921268,0.52379266768,0.93401249708,19,5,8.563,10.880391096204,0,0.4921268,0.52379266768,0.447388,-0.223694,0,323.6, -6.1, 2.4,0,0,1024,1024,1286,1024,0,0,40,0,335.4,0,0,96,4.273,4.271,0,0,0,0,1.383,73.58,10.552307096204,-0.328084,6,P-GPS,
2800,2022-09-05 21:45:57,-34.9581253344169,-54.9445246204119,-0.328084,-0.1968504,10.749157496204,10.552307096204,0.328084,0.4921268,0.62341209344,1.03365488872,19,5,8.563,10.880391096204,0,0.4921268,0.62341209344,0.447388,0,0.223694,323.3, -1.3, -0.9,0,0,1024,1024,1519,1024,0,0,75,0,335.4,0,0,96,4.273,4.271,0,0,0,0,1.383,73.58,10.552307096204,-0.328084,6,P-GPS,
2900,2022-09-05 21:45:57,-34.958125162371,-54.9445245514262,-0.328084,-0.1968504,10.749157496204,10.552307096204,0.328084,0.447388,0.68427823712,1.09973100632,19,5,8.563,10.880391096204,0,0.4921268,0.68427823712,0.447388,0,0.447388,323.2, 0.6, -4.2,0,0,1024,1024,1253,1024,0,0,35,0,335.4,0,0,96,4.273,4.271,0,0,0,0,1.383,73.58,10.552307096204,-0.328084,6,P-GPS,
3000,2022-09-05 21:45:57,-34.9581249583701,-54.9445245711472,-0.328084,-0.1968504,10.749157496204,10.552307096204,0.328084,0.447388,0.75893047048,1.1743930822,19,5,8.577,10.880391096204,0,0.4921268,0.75893047048,0.223694,0,0.447388,323.8, 2.3, -3.4,0,0,1024,1024,1169,1024,0,0,22,0,335.4,0,0,96,4.276,4.271,0,0,0,0,1.281,73.58,10.552307096204,-0.328084,6,P-GPS,
3100,2022-09-05 21:45:57,-34.9581247326905,-54.9445246823144,-0.328084,-0.1968504,10.749157496204,10.552307096204,0.328084,0.223694,0.84370409524,1.2631890168,19,5,8.577,10.880391096204,0,0.4921268,0.84370409524,0.223694,0,0.223694,324.3, 2.9, -0.9,0,0,1024,1024,1574,1024,0,0,83,0,335.4,0,0,96,4.276,4.271,0,0,0,0,1.281,73.58,10.552307096204,-0.328084,6,P-GPS,
3200,2022-09-05 21:45:57,-34.9581245809114,-54.9445247956163,-0.328084,-0.1968504,10.749157496204,10.552307096204,0.328084,0,0.90256236484,1.32810699788,19,5,8.577,10.880391096204,0,0.4921268,0.90256236484,0,0,0,324.3, 1.9, -0.2,0,0,1024,1024,1622,1024,0,0,91,0,335.4,0,0,96,4.276,4.271,0,0,0,0,1.281,73.58,10.552307096204,-0.328084,6,P-GPS,
3300,2022-09-05 21:45:57,-34.9581243447561,-54.9445249912364,-0.328084,-0.1312336,10.683540696204,10.552307096204,0.328084,0,0.996637171,1.43224742116,19,5,8.577,10.880391096204,0,0.4921268,0.996637171,0,0,-0.223694,324.2, 1, 0.2,0,0,1024,1024,1139,1024,0,0,17,0,335.4,0,0,96,4.276,4.271,0,0,0,0,1.281,73.58,10.552307096204,-0.328084,6,P-GPS,
3400,2022-09-05 21:45:57,-34.9581243021878,-54.9445250568304,-0.328084,-0.1312336,10.683540696204,10.552307096204,0.328084,0,1.01549872016,1.457267107,19,5,8.577,10.880391096204,0,0.4921268,1.01549872016,0,0,-0.894776,324.1, 1.1, 0.4,0,0,1024,1024,1024,1024,0,0,0,0,335.4,0,0,96,4.276,4.271,0,0,0,0,1.281,73.58,10.552307096204,-0.328084,6,P-GPS,
3500,2022-09-05 21:45:57,-34.9581243301009,-54.9445250967178,0,0.1968504,10.683540696204,10.880391096204,0.328084,0,1.00787732884,1.4729495222,19,5,8.577,10.880391096204,0,0.4921268,1.01549872016,0,0,-1.565858,324, 0.7, 0.6,0,0,1024,1024,1024,1024,0,0,0,0,335.4,0,0,96,4.276,4.271,0,0,0,0,1.281,73.58,10.880391096204,0,6,P-GPS,
3600,2022-09-05 21:45:57,-34.958124362511,-54.9445251404856,0,0.1968504,10.683540696204,10.880391096204,1.968504,0,0.99909452016,1.49058731804,19,5,8.577,10.880391096204,0,0.4921268,1.01549872016,0,0,-1.565858,324, 1, 0.7,0,0,1024,1024,1024,1024,0,0,0,0,335.4,0,0,96,4.276,4.271,0,0,0,0,1.281,73.58,10.880391096204,0,6,P-GPS,"Punto de origen actualizado. Altitud de RPO establecida en 60m (Code: 3000001)"
3700,2022-09-05 21:45:57,-34.9581243904812,-54.9445252025001,0,0.1968504,10.683540696204,10.880391096204,2.296588,0,0.99341538612,1.51175529772,19,5,8.577,10.880391096204,0,0.4921268,1.01549872016,0,0,-1.11847,324, 1, 0.9,0,0,1024,1024,1024,1024,0,0,0,0,335.4,0,0,96,4.276,4.271,0,0,0,0,1.281,73.58,10.880391096204,0,6,P-GPS,
3800,2022-09-05 21:45:58,-34.9581245504978,-54.9445252709158,0.328084,0.4593176,10.749157496204,11.208475096204,2.296588,0,0.94223428212,1.57361553592,19,5,8.577,11.208475096204,0.328084,0.4921268,1.01549872016,0,0,-0.894776,324, 1.8, 1.2,0,0,1024,1024,1024,1024,0,0,0,0,335.4,0,0,96,4.276,4.271,0,0,0,0,1.281,73.58,11.208475096204,0.328084,6,P-GPS,
3900,2022-09-05 21:45:58,-34.9581245324603,-54.9445253482848,0.328084,0.4593176,10.749157496204,11.208475096204,2.296588,0,0.95512142164,1.5976706548,19,5,8.577,11.208475096204,0.328084,0.4921268,1.01549872016,0,0,-0.447388,323.9, 2, 1.2,0,0,1024,1024,1024,1024,0,0,0,0,335.4,0,0,96,4.276,4.271,0,0,0,0,1.281,73.58,11.208475096204,0.328084,6,P-GPS,
4000,2022-09-05 21:45:58,-34.9581245207453,-54.9445253947779,0.328084,0.4593176,10.749157496204,11.208475096204,2.624672,0,0.96337601508,1.61221461852,20,5,8.399,11.208475096204,0.328084,0.4921268,1.01549872016,0,0,0,323.9, 1.9, 0.9,0,0,1024,1024,1024,1024,0,0,0,0,335.4,0,0,96,4.181,4.168,0,0,0,0,3.619,73.58,11.208475096204,0.328084,6,P-GPS,
4100,2022-09-05 21:45:58,-34.9581245124956,-54.9445253994598,0.328084,0.4593176,10.749157496204,11.208475096204,2.624672,0,0.96666997844,1.61553154776,20,5,8.399,11.208475096204,0.328084,0.4921268,1.01549872016,0,0,0,323.9, 1.8, 0.7,0,0,1024,1024,1024,1024,0,0,0,0,335.4,0,0,96,4.181,4.168,0,0,0,0,3.619,73.58,11.208475096204,0.328084,6,P-GPS,
4200,2022-09-05 21:45:58,-34.9581243835855,-54.9445254214533,0.328084,0.5249344,10.683540696204,11.208475096204,2.624672,0,1.0134842844,1.6630249876,21,5,8.399,11.208475096204,0.328084,0.4921268,1.01549872016,0,0,0,324, 2.3, 0.1,0,0,1024,1024,1024,1024,0,0,0,0,335.4,0,0,96,4.181,4.168,0,0,0,0,3.619,73.58,11.208475096204,0.328084,6,P-GPS,
4300,2022-09-05 21:45:58,-34.9581244012314,-54.9445254373707,0.328084,0.5249344,10.683540696204,11.208475096204,2.624672,0,1.00878612152,1.6710302372,21,5,8.399,11.208475096204,0.328084,0.4921268,1.01549872016,0,0,0,324, 1.9, 0,0,0,1024,1024,1024,1024,0,0,0,0,335.4,0,0,96,4.181,4.168,0,0,0,0,3.619,73.58,11.208475096204,0.328084,6,P-GPS,
4400,2022-09-05 21:45:58,-34.9581244260488,-54.9445254534121,0.328084,0.5249344,10.683540696204,11.208475096204,2.624672,0,1.0016568562,1.68127630052,21,5,8.399,11.208475096204,0.328084,0.4921268,1.01549872016,0,0,0,324, 1.4, 0,0,0,1024,1024,1024,1024,0,0,0,0,335.4,0,0,96,4.181,4.168,0,0,0,0,3.619,73.58,11.208475096204,0.328084,6,P-GPS,
4500,2022-09-05 21:45:58,-34.9581244267979,-54.9445254905216,0.328084,0.5249344,10.683540696204,11.208475096204,2.296588,0,1.00491801116,1.69237538224,21,5,8.399,11.208475096204,0.328084,0.4921268,1.01549872016,0,0,0,324, 1.1, 0.1,0,0,1024,1024,1024,1024,0,0,0,0,335.4,0,0,96,4.181,4.168,0,0,0,0,3.619,73.58,11.208475096204,0.328084,6,P-GPS,
4600,2022-09-05 21:45:58,-34.9581242372023,-54.9445256293227,0.328084,0.5577428,10.650732296204,11.208475096204,2.296588,0,1.08391079584,1.773047957,22,5,8.399,11.208475096204,0.328084,0.4921268,1.08391079584,0,0,0,324, 0.9, 0.4,0,0,1024,1024,1024,1024,0,0,0,0,335.4,0,0,96,4.181,4.168,0,0,0,0,3.619,73.58,11.208475096204,0.328084,6,P-GPS,
4700,2022-09-05 21:45:59,-34.958124280663,-54.9445256114641,0.328084,0.5577428,10.650732296204,11.208475096204,2.296588,0,1.06718179268,1.78977696016,22,5,8.399,11.208475096204,0.328084,0.4921268,1.08391079584,0,0,0,324, 0.6, 0.7,0,0,1024,1024,1024,1024,0,0,0,0,335.4,0,0,96,4.181,4.168,0,0,0,0,3.619,73.58,11.208475096204,0.328084,6,P-GPS,
4800,2022-09-05 21:45:59,-34.9581243344269,-54.9445255953553,0.328084,0.5577428,10.650732296204,11.208475096204,2.296588,0,1.04709320936,1.80997709204,22,5,8.399,11.208475096204,0.328084,0.4921268,1.08391079584,0,0,0,324, 0.5, 0.8,0,0,1024,1024,1024,1024,0,0,0,0,335.4,0,0,96,4.181,4.168,0,0,0,0,3.619,73.58,11.208475096204,0.328084,6,P-GPS,
4900,2022-09-05 21:45:59,-34.9581244131817,-54.9445255797264,0.328084,0.5577428,10.650732296204,11.208475096204,2.296588,0,1.01849084624,1.83908798536,22,5,8.399,11.208475096204,0.328084,0.4921268,1.08391079584,0,0,0,323.9, 0.2, 0.6,0,0,1024,1024,1024,1024,0,0,0,0,335.4,0,0,96,4.181,4.168,0,0,0,0,3.619,73.58,11.208475096204,0.328084,6,P-GPS,
5000,2022-09-05 21:45:59,-34.9581244036732,-54.9445255230717,0.328084,0.5577428,10.650732296204,11.208475096204,2.296588,0,1.01606302464,1.856381293,22,5,8.425,11.208475096204,0.328084,0.4921268,1.08391079584,0,0,0,323.8, 0.2, 0.6,0,0,1024,1024,1024,1024,0,0,0,0,335.4,0,0,96,4.208,4.202,0,0,0,0,4.017,73.76,11.208475096204,0.328084,6,P-GPS,
5100,2022-09-05 21:45:59,-34.9581244974643,-54.9445255304257,0.328084,0.5577428,10.650732296204,11.208475096204,2.296588,0,0.98455055644,1.89066935184,22,5,8.425,11.208475096204,0.328084,0.4921268,1.08391079584,0,0,0,323.8, 0.4, 0.6,0,0,1024,1024,1024,1024,0,0,0,0,335.4,0,0,96,4.208,4.202,0,0,0,0,4.017,73.76,11.208475096204,0.328084,6,P-GPS,
5200,2022-09-05 21:45:59,-34.958124583718,-54.9445255431908,0.328084,0.5249344,10.683540696204,11.208475096204,2.296588,0,0.95637798336,1.92237210876,21,5,8.425,11.208475096204,0.328084,0.4921268,1.08391079584,0,0,0,323.8, 0.3, 0.7,0,0,1216,1024,1024,1024,29,0,0,0,335.4,0,0,96,4.208,4.202,0,0,0,0,4.017,73.76,11.208475096204,0.328084,6,P-GPS,
5300,2022-09-05 21:45:59,-34.9581246593259,-54.9445255643654,0.328084,0.5249344,10.683540696204,11.208475096204,2.296588,0,0.9329724708,1.9506726346,21,5,8.425,11.208475096204,0.328084,0.4921268,1.08391079584,0,0,0,323.9, 0.2, 1,0,0,1623,1024,1024,1024,91,0,0,0,335.4,0,0,96,4.208,4.202,0,0,0,0,4.017,73.76,11.208475096204,0.328084,6,P-GPS,
5400,2022-09-05 21:45:59,-34.9581247379455,-54.9445255728261,0.328084,0.5249344,10.683540696204,11.208475096204,2.296588,0,0.90736223376,1.97946856728,21,5,8.425,11.208475096204,0.328084,0.4921268,1.08391079584,0,0,0,323.9, -3.6, 1.6,0,0,1459,1024,1024,1024,66,0,0,0,335.4,0,0,96,4.208,4.202,0,0,0,0,4.017,73.76,11.208475096204,0.328084,6,P-GPS,"Entorno demasiado oscuro. El posicionamiento visual no será preciso. Vuela con precaución (Code: 180032)"
5500,2022-09-05 21:45:59,-34.9581247819575,-54.94452550913,0.328084,0.5249344,10.683540696204,11.208475096204,2.624672,0,0.88529530392,2.0043799854,21,5,8.425,11.208475096204,0.328084,0.4921268,1.08391079584,0,0,0,323.7, -10.9, 1.3,0,0,1024,1024,1024,1024,0,0,0,0,335.4,0,0,96,4.208,4.202,0,0,0,0,4.017,73.76,11.208475096204,0.328084,6,P-GPS,
5600,2022-09-05 21:45:59,-34.9581247099933,-54.9445255802301,0.328084,0.5249344,10.683540696204,11.208475096204,2.624672,0.4921268,0.91763126296,2.03816607572,21,5,8.425,11.208475096204,0.328084,0.4921268,1.08391079584,0.447388,-0.223694,0,323.7, -11.6, 1.1,0,0,1024,1024,1024,1024,0,0,0,0,335.4,0,0,96,4.208,4.202,0,0,0,0,4.017,73.76,11.208475096204,0.328084,6,P-GPS,
5700,2022-09-05 21:46:00,-34.9581244600426,-54.9445257193775,0.328084,0.5577428,10.650732296204,11.208475096204,2.624672,0.8052984,1.01781171236,2.1384022994,21,5,8.425,11.208475096204,0.328084,0.8052984,1.08391079584,0.671082,-0.447388,0,323.9, 0.6, 1.1,0,0,1024,1024,1024,1024,0,0,0,0,335.4,0,0,96,4.208,4.202,0,0,0,0,4.017,73.76,11.208475096204,0.328084,6,P-GPS,
5800,2022-09-05 21:46:00,-34.9581241924722,-54.944525892843,0.328084,0.5577428,10.650732296204,11.208475096204,2.624672,0.8052984,1.12792982612,2.2489502032,21,5,8.425,11.208475096204,0.328084,0.8052984,1.12792982612,0.671082,-0.447388,0,323.9, 4.1, 0.6,0,0,1432,1024,1024,1024,62,0,0,0,335.4,0,0,96,4.208,4.202,0,0,0,0,4.017,73.76,11.208475096204,0.328084,6,P-GPS,
5900,2022-09-05 21:46:00,-34.9581239346936,-54.944525948101,0.328084,0.5577428,10.650732296204,11.208475096204,2.624672,0.4921268,1.22108271624,2.34444233224,21,5,8.425,11.208475096204,0.328084,0.8052984,1.22108271624,0.447388,-0.223694,0,323.9, 2.6, 0.1,0,0,1684,1024,1024,1024,100,0,0,0,335.4,0,0,96,4.208,4.202,0,0,0,0,4.017,73.76,11.208475096204,0.328084,6,P-GPS,
6000,2022-09-05 21:46:00,-34.958123730266,-54.9445261578565,0.328084,0.5577428,10.650732296204,11.208475096204,2.296588,0.8052984,1.31416342788,2.44189312276,21,5,8.399,11.208475096204,0.328084,0.8052984,1.31416342788,0.671082,-0.447388,0,323.9, -7.2, 0,0,0,1684,1024,1431,1024,100,0,62,0,335.4,0,0,96,4.201,4.196,0,0,0,0,4.052,73.76,11.208475096204,0.328084,6,P-GPS,
6100,2022-09-05 21:46:00,-34.9581233957209,-54.9445265190619,0.328084,0.656168,10.552307096204,11.208475096204,2.296588,1.11847,1.47000660872,2.60487869228,21,5,8.399,11.208475096204,0.328084,1.11847,1.47000660872,0.894776,-0.671082,0,323.9, -14.1, 0.1,0,0,1684,1024,1684,1024,100,0,100,0,335.4,0,0,96,4.201,4.196,0,0,0,0,4.052,73.76,11.208475096204,0.328084,6,P-GPS,
6200,2022-09-05 21:46:00,-34.9581228823605,-54.9445270304655,0.656168,0.984252,10.552307096204,11.536559096204,2.624672,1.7448132,1.7058071412,2.84667331944,21,5,8.399,11.536559096204,0.656168,1.7448132,1.7058071412,1.342164,-1.11847,-0.447388,323.9, -14.9, 0.6,0,0,1684,1024,1684,1024,100,0,100,0,335.4,0,0,96,4.201,4.196,0,0,0,0,4.052,73.76,11.536559096204,0.656168,6,P-GPS,
6300,2022-09-05 21:46:00,-34.9581217210462,-54.9445280127286,0.656168,1.0826772,10.453881896204,11.536559096204,2.624672,2.5501116,2.21810046468,3.3622376404,21,5,8.399,11.536559096204,0.656168,2.5501116,2.21810046468,2.013246,-1.565858,-1.11847,324, -13.2, 0.7,0,0,1684,1024,1684,1024,100,0,100,0,335.4,0,0,96,4.201,4.196,0,0,0,0,4.052,73.76,11.536559096204,0.656168,6,P-GPS,
6400,2022-09-05 21:46:00,-34.9581207250492,-54.9445289278121,0.984252,1.5091864,10.355456696204,11.864643096204,2.952756,2.5501116,2.66940297256,3.8171261064,21,5,8.399,11.864643096204,0.984252,2.5501116,2.66940297256,2.684328,-1.789552,-2.013246,324, -12.3, 0.7,0,0,1684,1024,1684,1024,100,0,100,0,335.4,0,0,96,4.201,4.196,0,0,0,0,4.052,73.76,11.864643096204,0.984252,6,P-GPS,
6500,2022-09-05 21:46:00,-34.9581195567416,-54.9445300811115,1.312336,1.9356956,10.257031496204,12.192727096204,3.28084,3.8475368,3.21263461724,4.3654200872,21,5,8.399,12.192727096204,1.312336,3.8475368,3.21263461724,3.131716,-2.23694,-2.684328,324, -12.1, 0.8,0,0,1684,1024,1684,1024,100,0,100,0,335.4,0,0,96,4.201,4.196,0,0,0,0,4.052,73.76,12.192727096204,1.312336,6,P-GPS,
6600,2022-09-05 21:46:00,-34.9581182634965,-54.9445313474184,1.968504,2.7230972,10.125797896204,12.848895096204,3.937008,4.3396636,3.8139765,4.9704069832,20,5,8.399,12.848895096204,1.968504,4.3396636,3.8139765,3.579104,-2.460634,-3.579104,323.9, -11.9, 1.1,0,0,1684,1024,1684,1024,100,0,100,0,335.4,0,0,96,4.201,4.196,0,0,0,0,4.052,73.76,12.848895096204,1.968504,6,P-GPS,
6700,2022-09-05 21:46:00,-34.9581165663435,-54.9445332030497,2.624672,3.5433072,9.961755896204,13.505063096204,4.593176,4.9660068,4.6371720644,5.801837456,20,5,8.399,13.505063096204,2.624672,4.9660068,4.6371720644,4.026492,-2.908022,-4.47388,323.9, -11.5, 1,0,0,1684,1024,1684,1024,100,0,100,0,335.4,0,0,96,4.201,4.196,0,0,0,0,4.052,73.76,13.505063096204,2.624672,6,P-GPS,
6800,2022-09-05 21:46:01,-34.9581148838613,-54.9445348632192,3.28084,4.3963256,9.764905496204,14.161231096204,5.249344,5.4581336,5.4246392812,6.5913059852,21,5,8.399,14.161231096204,3.28084,5.4581336,5.4246392812,4.47388,-3.131716,-5.144962,323.9, -11.9, 0.4,0,0,1684,1024,1684,1024,100,0,100,0,335.4,0,0,96,4.201,4.196,0,0,0,0,4.052,73.76,14.161231096204,3.28084,6,P-GPS,
6900,2022-09-05 21:46:01,-34.9581129288507,-54.9445369116061,3.937008,5.249344,9.568055096204,14.817399096204,6.233596,5.7713052,6.3611878676,7.531496304,21,5,8.399,14.817399096204,3.937008,5.7713052,6.3611878676,4.697574,-3.35541,-5.816044,323.8, -12.2, 0.1,0,0,1684,1024,1684,1024,100,0,100,0,335.4,0,0,96,4.201,4.196,0,0,0,0,4.052,73.76,14.817399096204,3.937008,6,P-GPS,
7000,2022-09-05 21:46:01,-34.9581109125081,-54.9445389915664,4.92126,6.4304464,9.371204696204,15.801651096204,6.889764,6.3529096,7.3222771372,8.4948165448,21,5,8.399,15.801651096204,4.92126,6.3529096,7.3222771372,4.921268,-4.026492,-6.263432,323.7, -11.6, 0.7,0,0,1684,1024,1684,1024,100,0,100,0,335.4,0,0,96,4.132,4.121,0,0,0,0,4.052,73.76,15.801651096204,4.92126,6,P-GPS,
7100,2022-09-05 21:46:01,-34.958108604078,-54.9445412456648,5.905512,7.6115488,9.174354296204,16.785903096204,7.874016,6.822667,8.4003611612,9.5735567368,21,5,8.399,16.785903096204,5.905512,6.822667,8.4003611612,5.144962,-4.47388,-6.263432,323.3, -12, 1,0,0,1684,1024,1684,1024,100,0,100,0,335.4,0,0,96,4.132,4.121,0,0,0,0,4.052,73.76,16.785903096204,5.905512,6,P-GPS,
7200,2022-09-05 21:46:01,-34.9581061730407,-54.9445443964965,6.889764,8.8910764,8.879078696204,17.770155096204,8.858268,7.1358386,9.6776249816,10.8675200328,22,5,8.399,17.770155096204,6.889764,7.1358386,9.6776249816,5.368656,-4.697574,-6.487126,323.1, -12.6, 0.5,0,0,1684,1024,1684,1024,100,0,100,0,335.4,0,0,96,4.132,4.121,0,0,0,0,4.052,73.76,17.770155096204,6.889764,6,P-GPS,
7300,2022-09-05 21:46:01,-34.9581038576083,-54.9445470279476,7.874016,10.1049872,8.649419896204,18.754407096204,9.84252,7.4490102,10.82841242,12.021982012,22,5,8.399,18.754407096204,7.874016,7.4490102,10.82841242,5.59235,-4.921268,-6.487126,322.8, -13.1, 0.9,0,0,1684,1024,1684,1024,100,0,100,0,335.4,0,0,96,4.132,4.121,0,0,0,0,4.052,73.76,18.754407096204,7.874016,6,P-GPS,
7400,2022-09-05 21:46:01,-34.9581015746829,-54.9445495847302,9.186352,11.6797904,8.386952696204,20.066743096204,10.826772,7.941137,11.9566604876,13.1525922844,21,5,8.399,20.066743096204,9.186352,7.941137,11.9566604876,6.039738,-5.144962,-6.487126,322.5, -12.2, 0.5,0,0,1684,1024,1684,1024,100,0,100,0,335.4,0,0,96,4.132,4.121,0,0,0,0,4.052,73.76,20.066743096204,9.186352,6,P-GPS,
7500,2022-09-05 21:46:01,-34.9580991984802,-54.9445521752264,10.170604,12.9265096,8.124485496204,21.050995096204,11.811024,8.2543086,13.1180450392,14.3151907468,21,5,8.399,21.050995096204,10.170604,8.2543086,13.1180450392,6.263432,-5.368656,-6.487126,322.3, -12, 0.2,0,0,1684,1024,1684,1024,100,0,100,0,335.4,0,0,96,4.132,4.121,0,0,0,0,4.052,73.76,21.050995096204,10.170604,6,P-GPS,
7600,2022-09-05 21:46:01,-34.9580973477471,-54.9445548032986,11.154856,14.1404204,7.894826696204,22.035247096204,12.795276,8.7016966,14.1393705312,15.3512800188,22,5,8.399,22.035247096204,11.154856,8.7016966,14.1393705312,6.487126,-5.816044,-6.487126,322, -12.5, 0.7,0,0,1684,1024,1684,1024,100,0,100,0,335.4,0,0,96,4.132,4.121,0,0,0,0,4.052,73.76,22.035247096204,11.154856,6,P-GPS,
7700,2022-09-05 21:46:01,-34.9580945985331,-54.9445577533447,12.139108,15.3871396,7.632359496204,23.019499096204,13.779528,9.0372376,15.4748036448,16.6870412164,22,5,8.399,23.019499096204,12.139108,9.0372376,15.4748036448,6.71082,-6.039738,-6.71082,321.7, -13, 0.7,0,0,1684,1024,1684,1024,100,0,100,0,335.4,0,0,96,4.132,4.121,0,0,0,0,4.052,73.76,23.019499096204,12.139108,6,P-GPS,
7800,2022-09-05 21:46:02,-34.9580919183715,-54.9445606668053,13.12336,16.6666672,7.337083896204,24.003751096204,14.435696,9.171454,16.7839900384,17.9966869276,21,5,8.399,24.003751096204,13.12336,9.171454,16.7839900384,6.71082,-6.263432,-6.71082,316.4, -13.1, 0.4,0,0,1684,1024,1684,1024,100,0,100,0,335.4,0,0,96,4.132,4.121,0,0,0,0,4.052,73.76,24.003751096204,13.12336,6,P-GPS,
7900,2022-09-05 21:46:02,-34.9580890456856,-54.9445638823215,14.107612,17.9790032,7.008999896204,24.988003096204,15.419948,9.4846256,18.2052499264,19.4190294928,21,5,8.399,24.988003096204,14.107612,9.4846256,18.2052499264,6.934514,-6.487126,-6.71082,316.4, -13.6, 0.5,0,0,1684,1024,1684,1024,100,0,100,0,335.4,0,0,96,4.132,4.121,0,0,0,0,4.052,73.76,24.988003096204,14.107612,6,P-GPS,
8000,2022-09-05 21:46:02,-34.9580861560313,-54.9445672296347,15.091864,19.2585308,6.713724296204,25.972255096204,16.4042,9.8201666,19.6570216264,20.8727696968,21,5,8.38,25.972255096204,15.091864,9.8201666,19.6570216264,7.158208,-6.71082,-6.487126,316.4, -13.8, 0.8,0,0,1024,1024,1024,1024,0,0,0,0,335.4,0,0,96,4.15,4.139,0,0,0,0,4.633,73.76,25.972255096204,15.091864,6,P-GPS,
8100,2022-09-05 21:46:02,-34.9580830607403,-54.9445706419918,16.076116,20.6036752,6.352831896204,26.956507096204,17.060368,9.9767524,21.1785767932,22.3947513728,21,5,8.38,26.956507096204,16.076116,9.9767524,21.1785767932,7.381902,-6.71082,-6.263432,316.4, -11.7, 0.1,0,0,1024,1024,1024,1024,0,0,0,0,335.4,0,0,96,4.15,4.139,0,0,0,0,4.633,73.76,26.956507096204,16.076116,6,P-GPS,
8200,2022-09-05 21:46:02,-34.9580800669404,-54.9445739203098,17.060368,21.9160112,6.024747896204,27.940759096204,18.04462,9.8201666,22.6459652916,23.8624351468,22,5,8.38,27.940759096204,17.060368,9.9767524,22.6459652916,7.158208,-6.71082,-5.59235,316.2, 6.2, -0.3,0,0,1024,1024,1024,1024,0,0,0,0,335.4,0,0,96,4.15,4.139,0,0,0,0,4.633,73.76,27.940759096204,17.060368,6,P-GPS,
8300,2022-09-05 21:46:02,-34.9580769765576,-54.944577236452,17.716536,22.8674548,5.729472296204,28.596927096204,19.028872,9.171454,24.1474417176,25.3639443812,22,5,8.38,28.596927096204,17.716536,9.9767524,24.1474417176,6.71082,-6.263432,-5.144962,316.4, 19.8, 0.2,0,0,1024,1024,1024,1024,0,0,0,0,335.4,0,0,96,4.15,4.139,0,0,0,0,4.633,73.76,28.596927096204,17.716536,6,P-GPS,
8400,2022-09-05 21:46:02,-34.9580737478221,-54.9445803312986,18.372704,23.8517068,5.401388296204,29.253095096204,19.68504,8.5451108,25.6438984584,26.8619759252,22,5,8.38,29.253095096204,18.372704,9.9767524,25.6438984584,6.263432,-5.816044,-4.47388,316.3, 21, -0.4,0,0,1024,1024,1024,1024,0,0,0,0,335.4,0,0,96,4.15,4.139,0,0,0,0,4.633,73.76,29.253095096204,18.372704,6,P-GPS,
8500,2022-09-05 21:46:02,-34.9580710654036,-54.9445832353776,18.700788,24.4750664,5.106112696204,29.581179096204,20.341208,7.7621818,26.9521334084,28.1703749172,22,5,8.38,29.581179096204,18.700788,9.9767524,26.9521334084,5.59235,-5.368656,-3.579104,316.4, 20.7, -0.4,0,0,1024,1024,1024,1024,0,0,0,0,335.4,0,0,96,4.15,4.139,0,0,0,0,4.633,73.76,29.581179096204,18.700788,6,P-GPS,
8600,2022-09-05 21:46:02,-34.9580687330158,-54.9445857590921,19.028872,25.0656176,4.843645496204,29.909263096204,20.669292,6.9568834,28.089403786,29.30774372,22,5,8.38,29.909263096204,19.028872,9.9767524,28.089403786,5.144962,-4.697574,-2.684328,316.5, 20.2, -0.2,0,0,1024,1024,1024,1024,0,0,0,0,335.4,0,0,96,4.15,4.139,0,0,0,0,4.633,73.76,29.909263096204,19.028872,6,P-GPS,
8700,2022-09-05 21:46:03,-34.9580665302913,-54.9445881214067,19.356956,25.6233604,4.613986696204,30.237347096204,20.997376,6.3305402,29.1593513268,30.3777240692,22,5,8.38,30.237347096204,19.356956,9.9767524,29.1593513268,4.697574,-4.250186,-1.789552,316.6, 19.8, 0,0,0,1024,1024,1024,1024,0,0,0,0,335.4,0,0,96,4.15,4.139,0,0,0,0,4.633,73.76,30.237347096204,19.356956,6,P-GPS,
8800,2022-09-05 21:46:03,-34.9580646337663,-54.9445901774426,19.68504,26.1482948,4.417136296204,30.565431096204,21.32546,5.8607828,30.0848434824,31.3033474584,22,5,8.38,30.565431096204,19.68504,9.9767524,30.0848434824,4.250186,-4.026492,-1.11847,316.7, 19.7, 0.2,0,0,1024,1024,1024,1024,0,0,0,0,335.4,0,0,96,4.15,4.139,0,0,0,0,4.633,73.76,30.565431096204,19.68504,6,P-GPS,
8900,2022-09-05 21:46:03,-34.9580629775411,-54.9445917215575,19.68504,26.3779536,4.187477496204,30.565431096204,21.32546,5.2120702,30.84399705,32.063813362,22,5,8.38,30.565431096204,19.68504,9.9767524,30.84399705,3.802798,-3.579104,-0.447388,316.7, 19.4, 0.1,0,0,1024,1024,1024,1024,0,0,0,0,335.4,0,0,96,4.15,4.139,0,0,0,0,4.633,73.76,30.565431096204,19.68504,6,P-GPS,
9000,2022-09-05 21:46:03,-34.9580615822902,-54.9445932882927,19.68504,26.4763788,4.089052296204,30.565431096204,21.981628,4.585727,31.5354668884,32.7556440928,22,5,8.286,30.565431096204,19.68504,9.9767524,31.5354668884,3.35541,-3.131716,-0.223694,316.7, 18.8, 0.4,0,0,1024,1024,1024,1024,0,0,0,0,335.4,0,0,96,4.214,4.22,0,0,0,0,6.142,73.76,30.565431096204,19.68504,6,P-GPS,
9100,2022-09-05 21:46:03,-34.9580604637642,-54.9445946467881,20.013124,27.0013132,3.892201896204,30.893515096204,22.637796,3.802798,32.1098435472,33.331365896,22,5,8.286,30.893515096204,20.013124,9.9767524,32.1098435472,2.684328,-2.684328,0,316.7, 18.4, 0.7,0,0,1024,1024,1024,486,0,0,0,-82,335.4,0,0,96,4.214,4.22,0,0,0,0,6.142,73.76,30.893515096204,20.013124,6,P-GPS,
9200,2022-09-05 21:46:03,-34.9580596322611,-54.9445957014247,20.013124,27.06693,3.826585096204,30.893515096204,23.293964,3.1540854,32.545604716,33.769029952,22,5,8.286,30.893515096204,20.013124,9.9767524,32.545604716,2.23694,-2.23694,0,316.7, 18, 1,0,0,1024,1024,977,364,0,0,-7,-100,335.1,0,0,96,4.214,4.22,0,0,0,0,6.142,73.76,30.893515096204,20.013124,6,P-GPS,
9300,2022-09-05 21:46:03,-34.958059669064,-54.9445960769599,20.013124,27.06693,3.826585096204,30.893515096204,23.950132,2.5277422,32.6091545868,33.882218932,22,5,8.286,30.893515096204,20.013124,9.9767524,32.6091545868,1.789552,-1.789552,0,315.3, 17.9, 1.1,0,0,1024,1024,983,364,0,0,-6,-100,332.1,0,0,96,4.214,4.22,0,0,0,0,6.142,73.76,30.893515096204,20.013124,6,P-GPS,
9400,2022-09-05 21:46:03,-34.9580592741793,-54.9445966893919,20.013124,27.1981636,3.695351496204,30.893515096204,24.278216,1.901399,32.838255644,34.115158572,22,5,8.286,30.893515096204,20.013124,9.9767524,32.838255644,1.342164,-1.342164,0,311.3, 15, 0,0,0,1024,1024,987,364,0,0,-6,-100,327.6,0,0,96,4.214,4.22,0,0,0,0,6.142,73.76,30.893515096204,20.013124,6,P-GPS,
9500,2022-09-05 21:46:03,-34.9580590282061,-54.9445972385831,20.013124,27.1981636,3.695351496204,30.893515096204,24.6063,1.2750558,33.013780584,34.302166452,22,5,8.286,30.893515096204,20.013124,9.9767524,33.013780584,0.894776,-0.894776,0,306.6, 11.1, -0.9,0,0,1024,1024,988,364,0,0,-5,-100,322.8,0,0,96,4.214,4.22,0,0,0,0,6.142,73.76,30.893515096204,20.013124,6,P-GPS,
9600,2022-09-05 21:46:03,-34.9580589109125,-54.9445976543154,20.013124,27.230972,3.662543096204,30.893515096204,24.934384,1.11847,33.127953816,34.433728136,22,5,8.286,30.893515096204,20.013124,9.9767524,33.127953816,0.671082,-0.894776,0,302, 8.3, -1.1,0,0,1024,1024,991,364,0,0,-5,-100,318,0,0,96,4.214,4.22,0,0,0,0,6.142,73.76,30.893515096204,20.013124,6,P-GPS,
9700,2022-09-05 21:46:04,-34.9580591193925,-54.9445984432048,20.013124,27.230972,3.662543096204,30.893515096204,25.262468,0.8052984,33.227691352,34.68175964,22,5,8.286,30.893515096204,20.013124,9.9767524,33.227691352,0.447388,-0.671082,0,297.3, 6.4, -1.2,0,0,1024,1024,991,364,0,0,-5,-100,313.2,0,0,96,4.214,4.22,0,0,0,0,6.142,73.76,30.893515096204,20.013124,6,P-GPS,
9800,2022-09-05 21:46:04,-34.9580591315797,-54.9445988164404,20.013124,27.2965888,3.596926296204,30.893515096204,25.262468,0.4921268,33.29888558,34.7933082,22,5,8.286,30.893515096204,20.013124,9.9767524,33.29888558,0.223694,-0.447388,0,292.6, 5.1, -0.7,0,0,1024,1024,1024,457,0,0,0,-86,308.4,0,0,96,4.214,4.22,0,0,0,0,6.142,73.76,30.893515096204,20.013124,6,P-GPS,
9900,2022-09-05 21:46:04,-34.9580591876699,-54.9445991485067,20.013124,27.2965888,3.596926296204,30.893515096204,25.262468,0.447388,33.350066684,34.894686156,22,5,8.286,30.893515096204,20.013124,9.9767524,33.350066684,0,-0.447388,0,287.8, 4.1, -0.2,0,0,1024,1024,1024,1024,0,0,0,0,303.7,0,0,96,4.214,4.22,0,0,0,0,6.142,73.76,30.893515096204,20.013124,6,P-GPS,
10000,2022-09-05 21:46:04,-34.9580592746092,-54.9445993973461,20.013124,27.2965888,3.596926296204,30.893515096204,25.262468,0.223694,33.376641488,34.975722904,22,5,8.383,30.893515096204,20.013124,9.9767524,33.376641488,0,-0.223694,0,284, 3.4, 0,0,0,1024,1024,1024,1024,0,0,0,0,301.2,0,0,96,4.191,4.185,0,0,0,0,4.432,73.76,30.893515096204,20.013124,6,P-GPS,
10100,2022-09-05 21:46:04,-34.9580594081416,-54.9445997431268,20.013124,27.3622056,3.531309496204,30.893515096204,25.262468,0.223694,33.410106056,35.089896136,22,5,8.383,30.893515096204,20.013124,9.9767524,33.410106056,0,-0.223694,0,282.2, 3.2, 0.3,0,0,1024,1024,1024,995,0,0,0,-4,300.2,0,0,96,4.191,4.185,0,0,0,0,4.432,73.76,30.893515096204,20.013124,6,P-GPS,
10200,2022-09-05 21:46:04,-34.9580595122318,-54.9445998790212,20.013124,27.2965888,3.596926296204,30.893515096204,25.262468,0,33.409449888,35.145342332,22,5,8.383,30.893515096204,20.013124,9.9767524,33.410106056,0,0,0,281.5, 2.8, 0.5,0,0,1024,1024,1024,364,0,0,0,-100,300.1,0,0,96,4.191,4.185,0,0,0,0,4.432,73.76,30.893515096204,20.013124,6,P-GPS,
10300,2022-09-05 21:46:04,-34.9580595945073,-54.944600056294,20.013124,27.2965888,3.596926296204,30.893515096204,25.262468,0,33.423229416,35.206365956,22,5,8.383,30.893515096204,20.013124,9.9767524,33.423229416,0,0,0,281.3, 2.5, 0.5,0,0,1024,1024,995,364,0,0,-4,-100,299.6,0,0,96,4.191,4.185,0,0,0,0,4.432,73.76,30.893515096204,20.013124,6,P-GPS,
10400,2022-09-05 21:46:04,-34.9580596621724,-54.9446002178664,20.013124,27.2965888,3.596926296204,30.893515096204,25.262468,0,33.437665112,35.260499816,22,5,8.383,30.893515096204,20.013124,9.9767524,33.437665112,0,0,0,279.8, 2.1, 0.8,0,0,1024,1024,998,364,0,0,-4,-100,296.3,0,0,96,4.191,4.185,0,0,0,0,4.432,73.76,30.893515096204,20.013124,6,P-GPS,
10500,2022-09-05 21:46:04,-34.9580596759425,-54.9446004471377,20.013124,27.2965888,3.596926296204,30.893515096204,25.262468,0,33.480644116,35.329397456,22,5,8.383,30.893515096204,20.013124,9.9767524,33.480644116,0,0,0,275.6, 1.9, 1,0,0,1024,1024,998,364,0,0,-4,-100,291.7,0,0,96,4.191,4.185,0,0,0,0,4.432,73.76,30.893515096204,20.013124,6,P-GPS,
10600,2022-09-05 21:46:04,-34.9580595676835,-54.944601112739,20.013124,27.3622056,3.531309496204,30.893515096204,25.262468,0,33.6450142,35.532153368,21,5,8.383,30.893515096204,20.013124,9.9767524,33.6450142,0,0,0,271.1, 1.6, 2.3,0,0,1024,1024,1001,364,0,0,-3,-100,286.9,0,0,96,4.191,4.185,0,0,0,0,4.432,73.76,30.893515096204,20.013124,6,P-GPS,
10700,2022-09-05 21:46:04,-34.958059478992,-54.9446014468018,20.013124,27.4278224,3.465692696204,30.893515096204,25.262468,0,33.73687772,35.637468332,21,5,8.383,30.893515096204,20.013124,9.9767524,33.73687772,0,0,0,266.3, 1.7, 1.9,0,0,1024,1024,1001,364,0,0,-3,-100,282.1,0,0,96,4.191,4.185,0,0,0,0,4.432,73.76,30.893515096204,20.013124,6,P-GPS,
10800,2022-09-05 21:46:05,-34.9580593403267,-54.9446017693245,20.013124,27.4606308,3.432884296204,30.893515096204,25.262468,0,33.839568012,35.746064136,21,5,8.383,30.893515096204,20.013124,9.9767524,33.839568012,0,0,0,261.6, 1.5, 1.4,0,0,1024,1024,1024,364,0,0,0,-100,277.3,0,0,96,4.191,4.185,0,0,0,0,4.432,73.76,30.893515096204,20.013124,6,P-GPS,
10900,2022-09-05 21:46:05,-34.9580591441578,-54.9446020766172,20.013124,27.4606308,3.432884296204,30.893515096204,24.934384,0,33.954725496,35.862533956,21,5,8.383,30.893515096204,20.013124,9.9767524,33.954725496,0,0,0,256.9, 1.4, 0.7,0,0,1024,1024,1024,1024,0,0,0,0,272.5,0,0,96,4.191,4.185,0,0,0,0,4.432,73.76,30.893515096204,20.013124,6,P-GPS,
11000,2022-09-05 21:46:05,-34.9580585786448,-54.944602870916,20.013124,27.5262476,3.367267496204,30.893515096204,24.934384,0,34.267717632,36.177166512,21,5,8.383,30.893515096204,20.013124,9.9767524,34.267717632,0,0,0,252.6, 1.1, -0.2,0,0,1024,1024,1024,1024,0,0,0,0,269.3,0,0,96,4.191,4.185,0,0,0,0,4.432,73.76,30.893515096204,20.013124,6,P-GPS,
11100,2022-09-05 21:46:05,-34.9580583905726,-54.9446030767308,20.013124,27.5918644,3.301650696204,30.893515096204,24.934384,0.223694,34.359909236,36.269358116,21,5,8.383,30.893515096204,20.013124,9.9767524,34.359909236,0.223694,0,0,250.2, 1.1, -0.6,0,0,1024,1024,1024,1024,0,0,0,0,267.9,0,0,96,4.191,4.185,0,0,0,0,4.432,73.76,30.893515096204,20.013124,6,P-GPS,
11200,2022-09-05 21:46:05,-34.9580582053208,-54.9446032589687,20.013124,27.5918644,3.301650696204,30.893515096204,24.934384,0.223694,34.446523412,36.356300376,21,5,8.374,30.893515096204,20.013124,9.9767524,34.446523412,0.223694,0,0,249.2, 1.2, -0.7,0,0,1024,1024,1024,1024,0,0,0,0,267.7,0,0,96,4.188,4.181,0,0,0,0,3.851,73.76,30.893515096204,20.013124,6,P-GPS,"Punto de origen actualizado. Altitud de RPO establecida en 60m (Code: 3000001)"
11300,2022-09-05 21:46:05,-34.9580580005863,-54.9446034002674,20.013124,27.5918644,3.301650696204,30.893515096204,24.934384,0.223694,34.529856748,36.442258384,21,5,8.374,30.893515096204,20.013124,9.9767524,34.529856748,0.223694,0,0,249.2, 1.2, -0.6,0,0,1024,1024,1024,1024,0,0,0,0,267.7,0,0,96,4.188,4.181,0,0,0,0,3.851,73.76,30.893515096204,20.013124,6,P-GPS,
11400,2022-09-05 21:46:05,-34.9580577841075,-54.944603378567,20.013124,27.5918644,3.301650696204,30.893515096204,24.934384,0.223694,34.583006356,36.521326628,22,5,8.374,30.893515096204,20.013124,9.9767524,34.583006356,0.223694,0,0,249, 1.2, -1.1,0,0,1024,1024,1024,1024,0,0,0,0,267.7,0,0,96,4.188,4.181,0,0,0,0,3.851,73.76,30.893515096204,20.013124,6,P-GPS,
11500,2022-09-05 21:46:05,-34.9580576144887,-54.9446034509019,20.013124,27.5918644,3.301650696204,30.893515096204,24.934384,0.223694,34.643045728,36.586943428,22,5,8.374,30.893515096204,20.013124,9.9767524,34.643045728,0.223694,0,0,249, 1, -1.3,0,0,1024,1024,1024,1024,0,0,0,0,267.7,0,0,96,4.188,4.181,0,0,0,0,3.851,73.76,30.893515096204,20.013124,6,P-GPS,
11600,2022-09-05 21:46:05,-34.9580574645025,-54.9446035133168,20.013124,27.6902896,3.203225496204,30.893515096204,24.934384,0.223694,34.695867252,36.644686212,22,5,8.374,30.893515096204,20.013124,9.9767524,34.695867252,0.223694,0,0,249, 1.1, -1.3,0,0,1024,1024,1024,1024,0,0,0,0,267.7,0,0,96,4.188,4.181,0,0,0,0,3.851,73.76,30.893515096204,20.013124,6,P-GPS,
11700,2022-09-05 21:46:05,-34.9580573239548,-54.94460357742,20.013124,27.6902896,3.203225496204,30.893515096204,24.934384,0.223694,34.746392188,36.69947624,22,5,8.374,30.893515096204,20.013124,9.9767524,34.746392188,0.223694,0,0,248.9, 1.2, -1,0,0,1024,1024,1024,1024,0,0,0,0,267.7,0,0,96,4.188,4.181,0,0,0,0,3.851,73.76,30.893515096204,20.013124,6,P-GPS,
11800,2022-09-05 21:46:06,-34.9580573203071,-54.9446033717255,20.013124,27.6246728,3.268842296204,30.893515096204,24.934384,0,34.705381688,36.761156032,22,5,8.374,30.893515096204,20.013124,9.9767524,34.746392188,0,0,0,248.9, 1.2, -0.9,0,0,1024,1024,1024,1024,0,0,0,0,267.7,0,0,96,4.188,4.181,0,0,0,0,3.851,73.76,30.893515096204,20.013124,6,P-GPS,
11900,2022-09-05 21:46:06,-34.9580572076774,-54.9446034890084,19.68504,27.2965888,3.268842296204,30.565431096204,24.934384,0,34.759515548,36.814961808,22,5,8.374,30.893515096204,20.013124,9.9767524,34.759515548,0,0,0,248.8, 1.1, -0.8,0,0,1024,1024,1024,891,0,0,0,-20,267.7,0,0,96,4.188,4.181,0,0,0,0,3.851,73.76,30.565431096204,19.68504,6,P-GPS,
12000,2022-09-05 21:46:06,-34.9580571052287,-54.9446035944114,19.68504,27.3622056,3.203225496204,30.565431096204,24.934384,0.223694,34.80807198,36.863846324,22,5,8.374,30.893515096204,20.013124,9.9767524,34.80807198,0.223694,0,0,248.9, 1.1, -0.7,0,0,1024,1024,1024,364,0,0,0,-100,267.7,0,0,96,4.188,4.181,0,0,0,0,3.851,73.76,30.565431096204,19.68504,6,P-GPS,
12100,2022-09-05 21:46:06,-34.9580570007217,-54.9446036881175,19.68504,27.3622056,3.203225496204,30.565431096204,24.934384,0.223694,34.855316076,36.91109042,22,5,8.374,30.893515096204,20.013124,9.9767524,34.855316076,0.223694,0,0,248.5, 1.2, -0.9,0,0,1024,1024,1024,1024,0,0,0,0,266.1,0,0,96,4.188,4.181,0,0,0,0,3.851,73.76,30.565431096204,19.68504,6,P-GPS,
12200,2022-09-05 21:46:06,-34.958056898286,-54.9446037620778,19.68504,27.3622056,3.203225496204,30.565431096204,24.934384,0.223694,34.897638912,36.954725592,22,5,8.369,30.893515096204,20.013124,9.9767524,34.897638912,0.223694,0,0,245.7, 1.2, -1.1,0,0,1024,1024,1024,1024,0,0,0,0,262.6,0,0,95,4.185,4.178,0,0,0,0,3.854,73.76,30.565431096204,19.68504,6,P-GPS,
12300,2022-09-05 21:46:06,-34.9580567569632,-54.9446036779885,19.68504,27.3622056,3.203225496204,30.565431096204,24.6063,0.223694,34.918308204,37.012140292,22,5,8.369,30.893515096204,20.013124,9.9767524,34.918308204,0.223694,0,0,243, 0.7, -1.9,0,0,1024,1024,1024,1024,0,0,0,0,260.8,0,0,95,4.185,4.178,0,0,0,0,3.854,73.76,30.565431096204,19.68504,6,P-GPS,
12400,2022-09-05 21:46:06,-34.9580566460661,-54.9446037274888,19.68504,27.3622056,3.203225496204,30.565431096204,24.6063,0.223694,34.958334452,37.055119296,22,5,8.369,30.893515096204,20.013124,9.9767524,34.958334452,0.223694,0,0,241.8, 0.7, -1.6,0,0,1024,1024,1024,1024,0,0,0,0,260.2,0,0,95,4.185,4.178,0,0,0,0,3.854,73.76,30.565431096204,19.68504,6,P-GPS,
12500,2022-09-05 21:46:06,-34.9580565317624,-54.9446038450643,19.68504,27.3622056,3.203225496204,30.565431096204,24.6063,0.223694,35.012796396,37.10958124,22,5,8.369,30.893515096204,20.013124,9.9767524,35.012796396,0.223694,0,0,241.6, 0.7, -1.4,0,0,1024,1024,1024,1024,0,0,0,0,260.2,0,0,95,4.185,4.178,0,0,0,0,3.854,73.76,30.565431096204,19.68504,6,P-GPS,
12600,2022-09-05 21:46:06,-34.9580564452659,-54.9446039530493,19.68504,27.4278224,3.137608696204,30.565431096204,24.6063,0,35.057743904,37.154856832,22,5,8.369,30.893515096204,20.013124,9.9767524,35.057743904,0,0,0,241.5, 0.7, -1.2,0,0,1024,1024,1024,1024,0,0,0,0,260.2,0,0,95,4.185,4.178,0,0,0,0,3.854,73.76,30.565431096204,19.68504,6,P-GPS,
12700,2022-09-05 21:46:07,-34.9580563839778,-54.9446041523936,19.68504,27.4278224,3.137608696204,30.565431096204,24.6063,0,35.114502436,37.218505128,22,5,8.369,30.893515096204,20.013124,9.9767524,35.114502436,0,0,0,241.4, 0.6, -1.4,0,0,1144,1024,1024,1024,18,0,0,0,260.2,0,0,95,4.185,4.178,0,0,0,0,3.854,73.76,30.565431096204,19.68504,6,P-GPS,
12800,2022-09-05 21:46:07,-34.9580563318806,-54.9446042356833,19.68504,27.4278224,3.137608696204,30.565431096204,24.6063,0,35.145670416,37.249673108,22,5,8.369,30.893515096204,20.013124,9.9767524,35.145670416,0,0,0,241.4, 0.7, -1.5,0,0,1569,1024,1024,1024,83,0,0,0,260.2,0,0,95,4.185,4.178,0,0,0,0,3.854,73.76,30.565431096204,19.68504,6,P-GPS,
12900,2022-09-05 21:46:07,-34.9580562541713,-54.9446042910372,19.68504,27.4278224,3.137608696204,30.565431096204,24.6063,0,35.177494564,37.282481508,22,5,8.369,30.893515096204,20.013124,9.9767524,35.177494564,0,0,0,241.5, -4, -1.3,0,0,1684,1024,1024,1024,100,0,0,0,260.2,0,0,95,4.185,4.178,0,0,0,0,3.854,73.76,30.565431096204,19.68504,6,P-GPS,
13000,2022-09-05 21:46:07,-34.9580562350143,-54.9446044138968,19.68504,27.4278224,3.137608696204,30.565431096204,24.6063,0.223694,35.207678292,37.319883084,22,5,8.369,30.893515096204,20.013124,9.9767524,35.207678292,0,-0.223694,0,241.6, -10.8, -1.4,0,0,1684,1024,1024,1024,100,0,0,0,260.2,0,0,95,4.185,4.178,0,0,0,0,3.854,73.76,30.565431096204,19.68504,6,P-GPS,
13100,2022-09-05 21:46:07,-34.958056362098,-54.9446047009576,19.68504,27.4606308,3.104800296204,30.565431096204,24.6063,0.7158208,35.231956508,37.417652116,22,5,8.369,30.893515096204,20.013124,9.9767524,35.231956508,-0.223694,-0.671082,0,241.6, -15.5, -1.2,0,0,1684,1024,1024,1024,100,0,0,0,260.2,0,0,95,4.185,4.178,0,0,0,0,3.854,73.76,30.565431096204,19.68504,6,P-GPS,
13200,2022-09-05 21:46:07,-34.9580565755284,-54.9446052290756,19.68504,27.4278224,3.137608696204,30.565431096204,24.6063,1.2079476,35.283137612,37.59350514,22,5,8.355,30.893515096204,20.013124,9.9767524,35.283137612,-0.447388,-1.11847,0,241.6, -16.3, -0.7,0,0,1684,1024,1024,1024,100,0,0,0,260.2,0,0,95,4.181,4.174,0,0,0,0,4.013,73.94,30.565431096204,19.68504,6,P-GPS,
13300,2022-09-05 21:46:07,-34.9580568833304,-54.9446060431986,19.356956,27.1653552,3.071991896204,30.237347096204,24.6063,1.9908766,35.36909562,37.861877852,22,5,8.355,30.893515096204,20.013124,9.9767524,35.36909562,-0.894776,-1.789552,0,241.5, -15.9, -0.2,0,0,1684,1024,1024,1024,100,0,0,0,260.2,0,0,95,4.181,4.174,0,0,0,0,4.013,73.94,30.237347096204,19.356956,6,P-GPS,
13400,2022-09-05 21:46:07,-34.9580572953984,-54.9446070773054,19.356956,27.1981636,3.039183496204,30.237347096204,24.6063,2.5053728,35.475066752,38.205709884,22,5,8.355,30.893515096204,20.013124,9.9767524,35.475066752,-1.11847,-2.23694,0,241.5, -15.6, -0.3,0,0,1684,1024,1024,1024,100,0,0,0,260.2,0,0,95,4.181,4.174,0,0,0,0,4.013,73.94,30.237347096204,19.356956,6,P-GPS,
13500,2022-09-05 21:46:07,-34.9580578933174,-54.9446084283635,19.356956,27.230972,3.006375096204,30.237347096204,24.6063,2.9974996,35.603019512,38.6646994,22,5,8.355,30.893515096204,20.013124,9.9767524,35.603019512,-1.342164,-2.684328,0,241.4, -15.4, -0.9,0,0,1684,1024,1024,1024,100,0,0,0,260.2,0,0,95,4.181,4.174,0,0,0,0,4.013,73.94,30.237347096204,19.356956,6,P-GPS,
13600,2022-09-05 21:46:07,-34.9580585670764,-54.9446099662223,19.356956,27.2965888,2.940758296204,30.237347096204,24.6063,3.5119958,35.756562824,39.186024876,22,5,8.355,30.893515096204,20.013124,9.9767524,35.756562824,-1.565858,-3.131716,0,241.2, -15.4, -1.8,0,0,1684,1024,1024,1024,100,0,0,0,260.2,0,0,95,4.181,4.174,0,0,0,0,4.013,73.94,30.237347096204,19.356956,6,P-GPS,
13700,2022-09-05 21:46:08,-34.9580594613071,-54.9446118098737,19.356956,27.395014,2.842333096204,30.237347096204,24.6063,4.2054472,35.92847884,39.826772928,22,5,8.355,30.893515096204,20.013124,9.9767524,35.92847884,-1.789552,-3.802798,0,241.3, -14.6, -1.8,0,0,1684,1024,1024,1024,100,0,0,0,260.2,0,0,95,4.181,4.174,0,0,0,0,4.013,73.94,30.237347096204,19.356956,6,P-GPS,
13800,2022-09-05 21:46:08,-34.9580604039612,-54.9446137921845,19.356956,27.4606308,2.776716296204,30.237347096204,24.6063,4.4962494,36.129594332,40.512140404,22,5,8.355,30.893515096204,20.013124,9.9767524,36.129594332,-2.013246,-4.026492,0,241.3, -14.5, -1.6,0,0,1543,1024,1024,1024,79,0,0,0,260.2,0,0,95,4.181,4.174,0,0,0,0,4.013,73.94,30.237347096204,19.356956,6,P-GPS,
13900,2022-09-05 21:46:08,-34.958061448582,-54.9446161623964,19.356956,27.5262476,2.711099496204,30.237347096204,24.6063,5.0107456,36.405512976,41.316930456,22,5,8.355,30.893515096204,20.013124,9.9767524,36.405512976,-2.23694,-4.47388,0,241.2, -14.6, -1.3,0,0,1024,1024,1024,1024,0,0,0,0,260.2,0,0,95,4.181,4.174,0,0,0,0,4.013,73.94,30.237347096204,19.356956,6,P-GPS,
14000,2022-09-05 21:46:08,-34.9580626819394,-54.9446187563865,19.356956,27.6246728,2.612674296204,30.237347096204,24.278216,5.3015478,36.704069416,42.213584028,22,5,8.355,30.893515096204,20.013124,9.9767524,36.704069416,-2.460634,-4.697574,0,241, -5.9, -1.5,0,0,1024,1024,1024,1024,0,0,0,0,260.2,0,0,95,4.181,4.174,0,0,0,0,4.013,73.94,30.237347096204,19.356956,6,P-GPS,
14100,2022-09-05 21:46:08,-34.9580638157142,-54.9446213512547,19.356956,27.6902896,2.547057496204,30.237347096204,24.278216,5.3015478,37.044948692,43.092849148,22,5,8.355,30.893515096204,20.013124,9.9767524,37.044948692,-2.460634,-4.697574,0,240.7, 16.2, -1.5,0,0,1024,1024,1024,1024,0,0,0,0,260.2,0,0,95,4.181,4.174,0,0,0,0,4.013,73.94,30.237347096204,19.356956,6,P-GPS,
14200,2022-09-05 21:46:08,-34.9580647628563,-54.9446236319678,19.356956,27.8215232,2.415823896204,30.237347096204,24.278216,4.4067718,37.369751852,43.857284868,22,5,8.355,30.893515096204,20.013124,9.9767524,37.369751852,-1.789552,-4.026492,0,240.2, 21.1, -2.5,0,0,1024,1024,1024,1024,0,0,0,0,260.2,0,0,95,4.181,4.174,0,0,0,0,4.013,73.94,30.237347096204,19.356956,6,P-GPS,
14300,2022-09-05 21:46:08,-34.9580655059544,-54.9446257312164,19.356956,27.88714,2.350207096204,30.237347096204,24.278216,3.5119958,37.708006456,44.541011924,22,5,8.342,30.893515096204,20.013124,9.9767524,37.708006456,-1.565858,-3.131716,0,240.6, 19.3, -1.6,0,0,1373,1024,1024,1024,53,0,0,0,260.2,0,0,95,4.177,4.175,0,0,0,0,4.176,73.94,30.237347096204,19.356956,6,P-GPS,
14400,2022-09-05 21:46:08,-34.9580659049818,-54.944627744165,19.356956,27.9855652,2.251781896204,30.237347096204,24.278216,3.5119958,38.107940852,45.160434516,22,5,8.342,30.893515096204,20.013124,9.9767524,38.107940852,-1.11847,-2.460634,0,240.9, 16.1, -2.1,0,0,1684,1024,1024,1024,100,0,0,0,260.2,0,0,95,4.177,4.175,0,0,0,0,4.176,73.94,30.237347096204,19.356956,6,P-GPS,
14500,2022-09-05 21:46:08,-34.9580663626592,-54.9446291199288,19.356956,28.051182,2.186165096204,30.237347096204,24.278216,1.9908766,38.345801752,45.604332168,22,5,8.342,30.893515096204,20.013124,9.9767524,38.345801752,-0.894776,-1.789552,0,241.2, 6.1, -2.2,0,0,1684,1024,1024,1024,100,0,0,0,260.2,0,0,95,4.177,4.175,0,0,0,0,4.176,73.94,30.237347096204,19.356956,6,P-GPS,
14600,2022-09-05 21:46:08,-34.9580667250857,-54.9446302838621,19.356956,28.051182,2.186165096204,30.237347096204,24.6063,1.9908766,38.55479126,45.976707508,22,5,8.342,30.893515096204,20.013124,9.9767524,38.55479126,-0.671082,-1.789552,0,241.5, -6, -2.1,0,0,1684,1024,1024,1024,100,0,0,0,260.2,0,0,95,4.177,4.175,0,0,0,0,4.176,73.94,30.237347096204,19.356956,6,P-GPS,
14700,2022-09-05 21:46:08,-34.9580670625319,-54.9446315060397,19.356956,28.1824156,2.054931496204,30.237347096204,24.6063,2.1922012,38.785762396,46.362206208,22,5,8.342,30.893515096204,20.013124,9.9767524,38.785762396,-0.894776,-2.013246,0,242.1, -12.2, -2,0,0,1684,1024,1024,1024,100,0,0,0,260.2,0,0,95,4.177,4.175,0,0,0,0,4.176,73.94,30.237347096204,19.356956,6,P-GPS,
14800,2022-09-05 21:46:09,-34.9580672445333,-54.944632724057,19.356956,28.215224,2.022123096204,30.237347096204,24.934384,2.796175,39.049870016,46.732613044,22,5,8.342,30.893515096204,20.013124,9.9767524,39.049870016,-1.342164,-2.460634,0,241.7, -14, -1.7,0,0,1684,1024,1024,1024,100,0,0,0,260.2,0,0,95,4.177,4.175,0,0,0,0,4.176,73.94,30.237347096204,19.356956,6,P-GPS,
14900,2022-09-05 21:46:09,-34.9580677489992,-54.9446339238233,19.356956,28.2480324,1.989314696204,30.237347096204,24.934384,3.3106712,39.246392332,47.13582828,22,5,8.342,30.893515096204,20.013124,9.9767524,39.246392332,-1.565858,-2.908022,0,241.6, -14.2, -1.1,0,0,1684,1024,1024,1024,100,0,0,0,260.2,0,0,95,4.177,4.175,0,0,0,0,4.176,73.94,30.237347096204,19.356956,6,P-GPS,
15000,2022-09-05 21:46:09,-34.9580683368284,-54.9446352498725,19.356956,28.2808408,1.956506296204,30.237347096204,24.934384,3.914645,39.460959268,47.586615696,22,5,8.342,30.893515096204,20.013124,9.9767524,39.460959268,-2.013246,-3.35541,0,241.5, -14.3, -1.1,0,0,1684,1024,1024,1024,100,0,0,0,260.2,0,0,95,4.177,4.175,0,0,0,0,4.176,73.94,30.237347096204,19.356956,6,P-GPS,
15100,2022-09-05 21:46:09,-34.9580691333134,-54.944636887819,19.356956,28.3464576,1.890889496204,30.237347096204,24.934384,4.4067718,39.71784904,48.15616952,22,5,8.342,30.893515096204,20.013124,9.9767524,39.71784904,-2.23694,-3.802798,0,241.4, -14.6, -1.2,0,0,1684,1024,1024,1024,100,0,0,0,260.2,0,0,95,4.177,4.175,0,0,0,0,4.176,73.94,30.237347096204,19.356956,6,P-GPS,
15200,2022-09-05 21:46:09,-34.9580699360842,-54.944637940574,19.028872,28.051182,1.858081096204,29.909263096204,24.934384,4.6080964,39.830709936,48.58595956,22,5,8.342,30.893515096204,20.013124,9.9767524,39.830709936,-2.23694,-4.026492,0,241.4, -14.7, -1.2,0,0,1684,1024,1024,1024,100,0,0,0,260.2,0,0,95,4.177,4.175,0,0,0,0,4.176,73.94,29.909263096204,19.028872,6,P-GPS,
15300,2022-09-05 21:46:09,-34.9580709327701,-54.9446401278162,19.028872,28.0839904,1.825272696204,29.909263096204,24.934384,5.1002232,40.20341336,49.334319164,22,5,8.353,30.893515096204,20.013124,9.9767524,40.20341336,-2.460634,-4.47388,0,241.5, -14.9, -1,0,0,1684,1024,1024,1024,100,0,0,0,260.2,0,0,95,4.173,4.169,0,0,0,0,4.129,73.94,29.909263096204,19.028872,6,P-GPS,
15400,2022-09-05 21:46:09,-34.9580719871615,-54.9446424727108,19.028872,28.1496072,1.759655896204,29.909263096204,24.934384,5.6147194,40.6167992,50.134187956,22,5,8.353,30.893515096204,20.013124,9.9767524,40.6167992,-2.684328,-4.921268,0,241.4, -15, -0.9,0,0,1684,1024,1024,1024,100,0,0,0,260.2,0,0,95,4.173,4.169,0,0,0,0,4.129,73.94,29.909263096204,19.028872,6,P-GPS,
15500,2022-09-05 21:46:09,-34.9580732212354,-54.9446453039427,19.028872,28.2808408,1.628422296204,29.909263096204,24.934384,6.1068462,41.138124676,51.092849404,22,5,8.353,30.893515096204,20.013124,9.9767524,41.138124676,-2.908022,-5.368656,0,241.5, -14.9, -0.9,0,0,1684,1024,1024,1024,100,0,0,0,260.2,0,0,95,4.173,4.169,0,0,0,0,4.129,73.94,29.909263096204,19.028872,6,P-GPS,
15600,2022-09-05 21:46:09,-34.9580744477274,-54.9446481578054,19.028872,28.4120744,1.497188696204,29.909263096204,24.934384,6.4200178,41.682087948,52.056432112,22,5,8.353,30.893515096204,20.013124,9.9767524,41.682087948,-3.131716,-5.59235,0,241.5, -15.1, -0.9,0,0,1684,1024,1024,1024,100,0,0,0,260.2,0,0,95,4.173,4.169,0,0,0,0,4.129,73.94,29.909263096204,19.028872,6,P-GPS,
15700,2022-09-05 21:46:09,-34.9580757806283,-54.9446519632378,19.028872,28.543308,1.365955096204,29.909263096204,24.934384,6.9121446,42.479003984,53.29396496,22,5,8.353,30.893515096204,20.013124,9.9767524,42.479003984,-3.35541,-6.039738,0,241.4, -15.1, -0.9,0,0,1684,1024,1024,1024,100,0,0,0,260.2,0,0,95,4.173,4.169,0,0,0,0,4.129,73.94,29.909263096204,19.028872,6,P-GPS,
15800,2022-09-05 21:46:10,-34.9580771186361,-54.9446551453462,19.028872,28.6417332,1.267529896204,29.909263096204,24.934384,7.2029468,43.126969884,54.3635188,22,5,8.353,30.893515096204,20.013124,9.9767524,43.126969884,-3.579104,-6.263432,0,241.4, -15.2, -0.6,0,0,1684,1024,1024,1024,100,0,0,0,260.2,0,0,95,4.173,4.169,0,0,0,0,4.129,73.94,29.909263096204,19.028872,6,P-GPS,
15900,2022-09-05 21:46:10,-34.9580786880978,-54.9446586749966,18.700788,28.4448828,1.136296296204,29.581179096204,24.934384,7.605596,43.852691692,55.56430624,22,5,8.353,30.893515096204,20.013124,9.9767524,43.852691692,-3.579104,-6.71082,0,241.5, -15.1, -0.8,0,0,1684,1024,1024,1024,100,0,0,0,260.2,0,0,95,4.173,4.169,0,0,0,0,4.129,73.94,29.581179096204,18.700788,6,P-GPS,
16000,2022-09-05 21:46:10,-34.9580802446558,-54.9446621758803,18.700788,28.543308,1.037871096204,29.581179096204,24.934384,7.9187676,44.592521112,56.75525116,22,5,8.353,30.893515096204,20.013124,9.9767524,44.592521112,-3.802798,-6.934514,0,241.4, -15.1, -1,0,0,1684,1024,1024,1024,100,0,0,0,260.2,0,0,95,4.173,4.169,0,0,0,0,4.129,73.94,29.581179096204,18.700788,6,P-GPS,
16100,2022-09-05 21:46:10,-34.9580821587842,-54.9446659948076,18.700788,28.6745416,0.906637496204,29.581179096204,24.934384,8.4108944,45.393046072,58.09383388,22,5,8.353,30.893515096204,20.013124,9.9767524,45.393046072,-4.026492,-7.381902,0,241.4, -15.2, -0.7,0,0,1684,1024,1024,1024,100,0,0,0,260.2,0,0,95,4.173,4.169,0,0,0,0,4.129,73.94,29.581179096204,18.700788,6,P-GPS,
16200,2022-09-05 21:46:10,-34.9580838403774,-54.9446697450795,18.700788,28.8057752,0.775403896204,29.581179096204,24.934384,8.7016966,46.228019852,59.372049144,22,5,8.353,30.893515096204,20.013124,9.9767524,46.228019852,-4.250186,-7.605596,0,241.5, -14.9, -0.8,0,0,1684,1024,1024,1024,100,0,0,0,260.2,0,0,95,4.173,4.169,0,0,0,0,4.129,73.94,29.581179096204,18.700788,6,P-GPS,
16300,2022-09-05 21:46:10,-34.9580856823755,-54.9446738549875,18.700788,28.9042004,0.676978696204,29.581179096204,24.934384,9.1043458,47.166012008,60.77263974,22,5,8.335,30.893515096204,20.013124,9.9767524,47.166012008,-4.250186,-8.052984,0,241.5, -14.8, -1,0,0,1684,1024,1024,1024,100,0,0,0,260.2,0,0,95,4.173,4.166,0,0,0,0,4.131,73.94,29.581179096204,18.700788,6,P-GPS,
