time(millisecond),datetime(utc),latitude,longitude,height_above_takeoff(feet),height_above_ground_at_drone_location(feet),ground_elevation_at_drone_location(feet),altitude_above_seaLevel(feet),height_sonar(feet),speed(mph),distance(feet),mileage(feet),satellites,gpslevel,voltage(v),max_altitude(feet),max_ascent(feet),max_speed(mph),max_distance(feet), xSpeed(mph), ySpeed(mph), zSpeed(mph), compass_heading(degrees), pitch(degrees), roll(degrees),isPhoto,isVideo,rc_elevator,rc_aileron,rc_throttle,rc_rudder,rc_elevator(percent),rc_aileron(percent),rc_throttle(percent),rc_rudder(percent),gimbal_heading(degrees),gimbal_pitch(degrees),gimbal_roll(degrees),battery_percent,voltageCell1,voltageCell2,voltageCell3,voltageCell4,voltageCell5,voltageCell6,current(A),battery_temperature(f),altitude(feet),ascent(feet),flycStateRaw,flycState,message
0,2022-08-23 22:07:20,-34.9051056640625,-56.1629657770829,0,0,132.70264663494,132.70264663494,0.328084,0,0,0,14,4,0,132.70264663494,0,0,0,0,0,0,292.8, 1.8, -2.5,0,0,364,364,364,1684,-100,-100,-100,100,303.3,0,0,40,3.813,3.814,0,0,0,0,0,84.74,132.70264663494,0,41,Motors_Started,"En vuelo Aeronave en Zona de altitud restringida (150). Vuela con precaución (Code: 190001)"
100,2022-08-23 22:07:20,-34.905105743257,-56.1629655146374,0,0,132.70264663494,132.70264663494,0.328084,0,0.083674215276,0.083674215276,14,4,0,132.70264663494,0,0,0.083674215276,0,0,0,292.8, 1.8, -2.5,0,0,364,364,364,1684,-100,-100,-100,100,303.3,0,0,40,3.813,3.814,0,0,0,0,0,84.74,132.70264663494,0,41,Motors_Started,
200,2022-08-23 22:07:20,-34.905105828353,-56.1629654341911,0,0,132.70264663494,132.70264663494,0.328084,0,0.118824478868,0.12295932152,14,4,0,132.70264663494,0,0,0.118824478868,0,0,0,292.8, 1.8, -2.5,0,0,364,364,364,1684,-100,-100,-100,100,303.3,0,0,40,3.813,3.814,0,0,0,0,0,84.74,132.70264663494,0,41,Motors_Started,
300,2022-08-23 22:07:20,-34.905105980023,-56.1629653669801,0,0,132.70264663494,132.70264663494,0.328084,0,0.168363522448,0.18183727616,14,4,0,132.70264663494,0,0,0.168363522448,0,0,0,292.8, 1.9, -2.5,0,0,364,364,364,1684,-100,-100,-100,100,303.3,0,0,40,3.813,3.814,0,0,0,0,0,84.74,132.70264663494,0,41,Motors_Started,
400,2022-08-23 22:07:20,-34.9051061468799,-56.162965279211,0,0,132.70264663494,132.70264663494,0.328084,0,0.230700794784,0.248137803216,14,4,0,132.70264663494,0,0,0.230700794784,0,0,0,292.7, 1.9, -2.5,0,0,364,364,364,1684,-100,-100,-100,100,303.3,0,0,40,3.813,3.814,0,0,0,0,0,84.74,132.70264663494,0,41,Motors_Started,"Setting new Return-To-Home altitude to 100m (328 ft). Data Recorder File Index is 99. Setting new Maximum Flight Altitude to 120m (394 ft)"
500,2022-08-23 22:07:20,-34.9051066498443,-56.1629650068572,0,0,132.70264663494,132.70264663494,0.328084,0,0.427165368,0.44892389888,14,4,0,132.70264663494,0,0,0.427165368,0,0,0,292.7, 1.8, -2.5,0,0,540,583,581,1621,-73,-67,-67,90,303.3,0,0,40,3.813,3.814,0,0,0,0,0,84.74,132.70264663494,0,41,Motors_Started,
600,2022-08-23 22:07:20,-34.9051068783899,-56.1629648443454,0,0,132.70264663494,132.70264663494,0.328084,0,0.523622064,0.54545277336,14,4,0,132.70264663494,0,0,0.523622064,0,0,0,292.8, 1.8, -2.5,0,0,540,583,581,1621,-73,-67,-67,90,303.3,0,0,40,3.813,3.814,0,0,0,0,0,84.74,132.70264663494,0,41,Motors_Started,
700,2022-08-23 22:07:20,-34.9051071274669,-56.1629646552218,0,0,132.70264663494,132.70264663494,0.328084,0,0.6306758732,0.65250658256,14,4,0,132.70264663494,0,0,0.6306758732,0,0,0,292.8, 1.8, -2.5,0,0,1024,1024,1024,1024,0,0,0,0,303.3,0,0,40,3.813,3.814,0,0,0,0,0,84.74,132.70264663494,0,41,Motors_Started,
800,2022-08-23 22:07:20,-34.9051073525179,-56.162964459747,0,0,132.70264663494,132.70264663494,0.328084,0,0.73134188692,0.75331695324,15,4,0,132.70264663494,0,0,0.73134188692,0,0,0,292.7, 1.8, -2.5,0,0,1024,1024,1024,1024,0,0,0,0,303.3,0,0,40,3.813,3.814,0,0,0,0,0,84.74,132.70264663494,0,41,Motors_Started,
900,2022-08-23 22:07:21,-34.9051075412057,-56.1629642207846,0,0,132.70264663494,132.70264663494,0.328084,0,0.82818900288,0.85257220576,15,4,0,132.70264663494,0,0,0.82818900288,0,0,0,292.7, 1.8, -2.5,0,0,1024,1024,1024,1024,0,0,0,0,303.3,0,0,40,3.813,3.814,0,0,0,0,0,84.74,132.70264663494,0,41,Motors_Started,
1000,2022-08-23 22:07:21,-34.9051078503788,-56.1629637604981,0,0,132.70264663494,132.70264663494,0.328084,0,1.00018375904,1.03059714584,15,4,0,132.70264663494,0,0,1.00018375904,0,0,0,292.8, 1.8, -2.5,0,0,1024,1024,1024,1024,0,0,0,0,303.3,0,0,40,3.813,3.814,0,0,0,0,0,84.74,132.70264663494,0,41,Motors_Started,
1100,2022-08-23 22:07:21,-34.9051080137281,-56.1629636190615,0,0,132.70264663494,132.70264663494,0.328084,0,1.07324806584,1.1036909802,15,4,0,132.70264663494,0,0,1.07324806584,0,0,0,292.7, 1.8, -2.5,0,0,1024,1024,1028,1024,0,0,1,0,303.3,0,0,40,3.813,3.814,0,0,0,0,0,84.74,132.70264663494,0,10,Assisted_Takeoff,
1200,2022-08-23 22:07:21,-34.9051081635742,-56.1629634709133,0,0,132.70264663494,132.70264663494,0.328084,0,1.14358927544,1.17407484072,15,4,0,132.70264663494,0,0,1.14358927544,0,0,0,292.7, 1.8, -2.5,0,0,1024,1024,1401,1024,0,0,57,0,303.4,0,0,40,3.813,3.814,0,0,0,0,0,84.74,132.70264663494,0,10,Assisted_Takeoff,
1300,2022-08-23 22:07:21,-34.9051083074049,-56.1629632757884,0,0,132.70264663494,132.70264663494,0.328084,0,1.22075463224,1.2525754994,15,4,0,132.70264663494,0,0,1.22075463224,0,0,0,292.8, 1.8, -2.5,0,0,1024,1024,1684,1024,0,0,100,0,303.3,0,0,40,3.813,3.814,0,0,0,0,0,84.74,132.70264663494,0,10,Assisted_Takeoff,
1400,2022-08-23 22:07:21,-34.9051083353099,-56.1629630799636,0,0,132.70264663494,132.70264663494,0.328084,0,1.2653543712,1.31204728608,15,4,7.632,132.70264663494,0,0,1.2653543712,0,0,0,292.8, 1.9, -2.4,0,0,1024,1024,1684,1024,0,0,100,0,303.4,0,0,40,3.813,3.814,0,0,0,0,1.303,84.74,132.70264663494,0,10,Assisted_Takeoff,
1500,2022-08-23 22:07:21,-34.9051084323522,-56.1629629116855,0,0,132.70264663494,132.70264663494,0.328084,0,1.3248360004,1.37359912532,15,4,7.632,132.70264663494,0,0,1.3248360004,0,0,0,292.8, 1.8, -2.4,0,0,1024,1024,1684,1024,0,0,100,0,303.4,0,0,40,3.813,3.814,0,0,0,0,1.303,84.74,132.70264663494,0,10,Assisted_Takeoff,
1600,2022-08-23 22:07:21,-34.9051085214411,-56.1629627648587,0,0,132.70264663494,132.70264663494,0.328084,0,1.37810371864,1.42825135804,15,4,7.632,132.70264663494,0,0,1.37810371864,0,0,0,292.4, 1.8, -2.4,0,0,1024,1024,1684,1024,0,0,100,0,303.3,0,0,40,3.813,3.814,0,0,0,0,1.303,84.74,132.70264663494,0,10,Assisted_Takeoff,
1700,2022-08-23 22:07:21,-34.9051086195613,-56.1629626522798,0,0,132.70264663494,132.70264663494,0.328084,0,1.42721789344,1.47740490292,15,4,7.632,132.70264663494,0,0,1.42721789344,0,0,0,291.7, 1.7, -2.4,0,0,1024,1024,1368,1024,0,0,52,0,302.8,0,0,40,3.813,3.814,0,0,0,0,1.303,84.74,132.70264663494,0,10,Assisted_Takeoff,
1800,2022-08-23 22:07:21,-34.905108539126,-56.1629626844228,0,0,132.70264663494,132.70264663494,0.328084,0,1.39879597652,1.50828744984,15,4,7.632,132.70264663494,0,0,1.42721789344,0,0,0,291.8, 1.4, -2.4,0,0,1024,1024,1589,1024,0,0,86,0,302.6,0,0,40,3.813,3.814,0,0,0,0,1.303,84.74,132.70264663494,0,10,Assisted_Takeoff,
1900,2022-08-23 22:07:22,-34.9051087474658,-56.1629626359001,0,0,132.70264663494,132.70264663494,0.328084,0.223694,1.46593180544,1.58567590376,15,4,7.632,132.70264663494,0,0.223694,1.46593180544,-0.223694,0,0,291.3, -0.7, -1.1,0,0,1024,1024,1684,1024,0,0,100,0,302.3,0,0,40,3.813,3.814,0,0,0,0,1.303,84.74,132.70264663494,0,10,Assisted_Takeoff,
2000,2022-08-23 22:07:22,-34.9051089648371,-56.1629626189825,0,0,132.70264663494,132.70264663494,0.328084,0.223694,1.53076120384,1.66514441024,15,4,7.632,132.70264663494,0,0.223694,1.53076120384,-0.223694,0,-0.223694,290.9, -0.7, -1,0,0,1024,1024,1465,1024,0,0,67,0,301.9,0,0,40,3.813,3.814,0,0,0,0,1.303,84.74,132.70264663494,0,6,P-GPS,
2100,2022-08-23 22:07:22,-34.9051091897773,-56.1629626655047,0,0,132.70264663494,132.70264663494,0.328084,0.223694,1.58792984084,1.74838588272,15,4,7.632,132.70264663494,0,0.223694,1.58792984084,-0.223694,0,-0.671082,291.2, -0.4, 1.2,0,0,1024,1024,1062,1024,0,0,6,0,301.9,0,0,40,3.813,3.814,0,0,0,0,1.303,84.74,132.70264663494,0,6,P-GPS,
2200,2022-08-23 22:07:22,-34.9051093937887,-56.1629631081632,0,0,132.70264663494,132.70264663494,0.656168,0.223694,1.5778051686,1.90031830228,15,4,7.632,132.70264663494,0,0.223694,1.58792984084,-0.223694,0,-0.894776,291.5, -0.6, 1.6,0,0,1024,1024,1024,1024,0,0,0,0,301.9,0,0,40,3.813,3.814,0,0,0,0,1.303,84.74,132.70264663494,0,6,P-GPS,
2300,2022-08-23 22:07:22,-34.9051096007737,-56.1629630720088,0.328084,0.328084,132.70264663494,133.03073063494,0.656168,0.223694,1.64866475092,1.9766076748,15,4,7.632,133.03073063494,0.328084,0.223694,1.64866475092,-0.223694,0,-0.894776,291.4, -0.1, 0.7,0,0,1024,1024,1024,1024,0,0,0,0,301.9,0,0,40,3.813,3.814,0,0,0,0,1.303,84.74,133.03073063494,0.328084,6,P-GPS,
2400,2022-08-23 22:07:22,-34.905109802906,-56.1629629741539,0.328084,0.328084,132.70264663494,133.03073063494,0.656168,0,1.72731960908,2.0559547902,15,4,7.613,133.03073063494,0.328084,0.223694,1.72731960908,0,0,-0.894776,291.4, 0, 1.2,0,0,1024,1024,1024,1024,0,0,0,0,301.9,0,0,40,3.77,3.757,0,0,0,0,1.865,84.74,133.03073063494,0.328084,6,P-GPS,
2500,2022-08-23 22:07:22,-34.9051100453813,-56.1629626618067,0.328084,0.328084,132.70264663494,133.03073063494,0.656168,0,1.8504429726,2.18464245836,15,4,7.613,133.03073063494,0.328084,0.223694,1.8504429726,0,0,-0.894776,291.4, 0, 1.4,0,0,1024,1024,1024,1024,0,0,0,0,301.9,0,0,40,3.77,3.757,0,0,0,0,1.865,84.74,133.03073063494,0.328084,6,P-GPS,
2600,2022-08-23 22:07:22,-34.905110293579,-56.16296231646,0.656168,0.656168,132.70264663494,133.35881463494,0.984252,0,1.98120413164,2.32204075672,15,4,7.613,133.35881463494,0.656168,0.223694,1.98120413164,0,0,-0.894776,291.4, -0.1, 1.5,0,0,1024,1024,1283,1024,0,0,39,0,301.9,0,0,40,3.77,3.757,0,0,0,0,1.865,84.74,133.35881463494,0.656168,6,P-GPS,
2700,2022-08-23 22:07:22,-34.9051109817757,-56.1629608911468,0.656168,0.656168,132.70264663494,133.35881463494,0.984252,0,2.42930125884,2.81693906652,15,4,7.613,133.35881463494,0.656168,0.223694,2.42930125884,0,0,-0.894776,291.4, -0.2, 1.2,0,0,1024,1024,1468,1024,0,0,67,0,301.9,0,0,40,3.77,3.757,0,0,0,0,1.865,84.74,133.35881463494,0.656168,6,P-GPS,
2800,2022-08-23 22:07:22,-34.9051113001788,-56.1629603514795,0.984252,0.95144360000001,132.73545503494,133.68689863494,1.312336,0,2.61991806284,3.01585967656,15,4,7.613,133.68689863494,0.984252,0.223694,2.61991806284,0,0,-1.11847,291.4, 0, 1.2,0,0,1024,1024,1024,1024,0,0,0,0,301.9,0,0,40,3.77,3.757,0,0,0,0,1.865,84.74,133.68689863494,0.984252,6,P-GPS,
2900,2022-08-23 22:07:23,-34.9051116575474,-56.1629595546995,0.984252,0.95144360000001,132.73545503494,133.68689863494,1.312336,0,2.87195219164,3.2875985304,15,4,7.613,133.68689863494,0.984252,0.223694,2.87195219164,0,0,-1.342164,291.4, 0, 1.4,0,0,1024,1024,1024,1024,0,0,0,0,301.9,0,0,40,3.77,3.757,0,0,0,0,1.865,84.74,133.68689863494,0.984252,6,P-GPS,
3000,2022-08-23 22:07:23,-34.9051119042794,-56.1629589323765,1.312336,1.2795276,132.73545503494,134.01498263494,1.64042,0,3.06234589852,3.494422684,16,4,7.613,134.01498263494,1.312336,0.223694,3.06234589852,0,0,-1.342164,291.3, 0.3, 0.9,0,0,1024,1024,1024,1024,0,0,0,0,301.9,0,0,40,3.77,3.757,0,0,0,0,1.865,84.74,134.01498263494,1.312336,6,P-GPS,
3100,2022-08-23 22:07:23,-34.9051118474858,-56.1629582147214,1.312336,1.2795276,132.73545503494,134.01498263494,1.64042,0,3.19526256944,3.710137914,16,4,7.613,134.01498263494,1.312336,0.223694,3.19526256944,0,0,-1.11847,291.3, 1.1, 0.6,0,0,1024,1024,1024,1024,0,0,0,0,301.9,0,0,40,3.77,3.757,0,0,0,0,1.865,84.74,134.01498263494,1.312336,6,P-GPS,
3200,2022-08-23 22:07:23,-34.9051118042865,-56.1629580258015,1.64042,1.6076116,132.73545503494,134.34306663494,1.968504,0,3.22456703232,3.7688321416,16,4,7.613,134.34306663494,1.64042,0.223694,3.22456703232,0,0,-0.671082,291.3, 1.4, 0.9,0,0,1024,1024,1024,1024,0,0,0,0,301.9,0,0,40,3.77,3.757,0,0,0,0,1.865,84.74,134.34306663494,1.64042,6,P-GPS,
3300,2022-08-23 22:07:23,-34.9051115660907,-56.1629578496104,1.64042,1.6076116,132.73545503494,134.34306663494,1.968504,0,3.20364511564,3.8704725648,16,4,7.613,134.34306663494,1.64042,0.223694,3.22456703232,0,0,-0.447388,291.3, 1.4, 0.8,0,0,1024,1024,1024,1024,0,0,0,0,301.9,0,0,40,3.77,3.757,0,0,0,0,1.865,84.74,134.34306663494,1.64042,6,P-GPS,
3400,2022-08-23 22:07:23,-34.9051113497324,-56.1629576104129,1.64042,1.6076116,132.73545503494,134.34306663494,1.968504,0,3.2053478716,3.977034248,16,4,7.514,134.34306663494,1.64042,0.223694,3.22456703232,0,0,-0.223694,291.3, 1.2, 0.5,0,0,1024,1024,1024,1024,0,0,0,0,301.9,0,0,40,3.764,3.76,0,0,0,0,4.631,84.74,134.34306663494,1.64042,6,P-GPS,
3500,2022-08-23 22:07:23,-34.9051104273394,-56.1629571342012,1.64042,1.6076116,132.73545503494,134.34306663494,1.968504,0,3.11575797372,4.3424870156,16,4,7.514,134.34306663494,1.64042,0.223694,3.22456703232,0,0,0,291.4, 1.2, 0.7,0,0,1024,1024,1024,1024,0,0,0,0,301.9,0,0,40,3.764,3.76,0,0,0,0,4.631,84.74,134.34306663494,1.64042,6,P-GPS,
3600,2022-08-23 22:07:23,-34.905110322816,-56.1629566404503,1.64042,1.6076116,132.73545503494,134.34306663494,1.968504,0,3.21913068044,4.495078884,16,4,7.514,134.34306663494,1.64042,0.223694,3.22456703232,0,0,0,291.4, 0.8, 0.7,0,0,1024,1024,1558,1024,0,0,81,0,301.9,0,0,40,3.764,3.76,0,0,0,0,4.631,84.74,134.34306663494,1.64042,6,P-GPS,
3700,2022-08-23 22:07:23,-34.9051102966502,-56.1629561746691,1.64042,1.5748032,132.76826343494,134.34306663494,1.968504,0,3.3334318652,4.6347442428,16,4,7.514,134.34306663494,1.64042,0.223694,3.3334318652,0,0,0,291.4, 0.5, 0.9,0,0,1024,1024,1684,1024,0,0,100,0,301.9,0,0,40,3.764,3.76,0,0,0,0,4.631,84.74,134.34306663494,1.64042,6,P-GPS,
3800,2022-08-23 22:07:23,-34.9051102571604,-56.162955843874,1.968504,1.9028872,132.76826343494,134.67115063494,1.968504,0,3.4120407916,4.7347770544,15,4,7.514,134.67115063494,1.968504,0.223694,3.4120407916,0,0,-0.447388,291.5, 0.4, 0.7,0,0,1024,1024,1333,1024,0,0,47,0,301.9,0,0,40,3.764,3.76,0,0,0,0,4.631,84.74,134.67115063494,1.968504,6,P-GPS,
3900,2022-08-23 22:07:24,-34.9051100809726,-56.1629565123379,1.968504,1.9356956,132.73545503494,134.67115063494,2.296588,0,3.20650600812,4.944882048,15,4,7.514,134.67115063494,1.968504,0.223694,3.4120407916,0,0,-0.894776,291.4, 0.3, 0.2,0,0,1024,1024,1024,1024,0,0,0,0,301.9,0,0,40,3.764,3.76,0,0,0,0,4.631,84.74,134.67115063494,1.968504,6,P-GPS,
4000,2022-08-23 22:07:24,-34.905110037783,-56.1629565120924,2.296588,2.2637796,132.73545503494,134.99923463494,2.296588,0,3.19868120472,4.96063008,15,4,7.514,134.99923463494,2.296588,0.223694,3.4120407916,0,0,-1.342164,291.4, 0, 0.1,0,0,1024,1024,1024,1024,0,0,0,0,301.9,0,0,40,3.764,3.76,0,0,0,0,4.631,84.74,134.99923463494,2.296588,6,P-GPS,
4100,2022-08-23 22:07:24,-34.9051100969541,-56.1629564191106,2.296588,2.2309712,132.76826343494,134.99923463494,2.624672,0,3.23356637644,4.9958334932,15,4,7.514,134.99923463494,2.296588,0.223694,3.4120407916,0,0,-1.11847,291.3, 0, 0.2,0,0,1024,1024,1024,1024,0,0,0,0,301.9,0,0,40,3.764,3.76,0,0,0,0,4.631,84.74,134.99923463494,2.296588,6,P-GPS,
4200,2022-08-23 22:07:24,-34.9051101874109,-56.1629562874465,2.296588,2.2309712,132.76826343494,134.99923463494,2.624672,0,3.2841864568,5.047244256,15,4,7.514,134.99923463494,2.296588,0.223694,3.4120407916,0,0,-0.671082,291.3, 0.2, 0.5,0,0,1024,1024,1024,1024,0,0,0,0,301.9,0,0,40,3.764,3.76,0,0,0,0,4.631,84.74,134.99923463494,2.296588,6,P-GPS,
4300,2022-08-23 22:07:24,-34.9051103513496,-56.1629559876766,2.624672,2.5590552,132.76826343494,135.32731863494,2.952756,0,3.3917980088,5.1550526584,15,4,7.514,135.32731863494,2.624672,0.223694,3.4120407916,0,0,-0.447388,291.3, 0.1, 0.7,0,0,1024,1024,1024,1024,0,0,0,0,301.9,0,0,40,3.764,3.76,0,0,0,0,4.631,84.74,135.32731863494,2.624672,6,P-GPS,
4400,2022-08-23 22:07:24,-34.9051108180584,-56.1629559504463,2.624672,2.5590552,132.76826343494,135.32731863494,2.952756,0,3.490157592,5.3256891468,13,4,7.52,135.32731863494,2.624672,0.223694,3.490157592,0,0,0,291.4, 1.1, 1,0,0,1024,1024,1024,1024,0,0,0,0,301.9,0,0,40,3.767,3.758,0,0,0,0,4.581,84.74,135.32731863494,2.624672,6,P-GPS,
4500,2022-08-23 22:07:24,-34.9051108447323,-56.1629559352523,2.624672,2.5590552,132.76826343494,135.32731863494,2.952756,0,3.4992455188,5.3364174936,13,4,7.52,135.32731863494,2.624672,0.223694,3.4992455188,0,0,0,291.4, 1, 1.1,0,0,1024,1024,1024,1024,0,0,0,0,301.9,0,0,40,3.767,3.758,0,0,0,0,4.581,84.74,135.32731863494,2.624672,6,P-GPS,
4600,2022-08-23 22:07:24,-34.9051109022457,-56.1629558605096,2.624672,2.5590552,132.76826343494,135.32731863494,2.952756,0,3.5293964384,5.3670933476,14,4,7.52,135.32731863494,2.624672,0.223694,3.5293964384,0,0,0,291.4, 0.6, 1,0,0,1024,1024,1173,1024,0,0,23,0,301.9,0,0,40,3.767,3.758,0,0,0,0,4.581,84.74,135.32731863494,2.624672,6,P-GPS,
4700,2022-08-23 22:07:24,-34.905111059612,-56.162955607006,2.624672,2.5590552,132.76826343494,135.32731863494,2.952756,0,3.6242455228,5.4622377076,14,4,7.52,135.32731863494,2.624672,0.223694,3.6242455228,0,0,0,291.4, 0.5, 1,0,0,1024,1024,1683,1024,0,0,100,0,301.9,0,0,40,3.767,3.758,0,0,0,0,4.581,84.74,135.32731863494,2.624672,6,P-GPS,
4800,2022-08-23 22:07:25,-34.9051112862686,-56.1629556180999,2.624672,2.5590552,132.76826343494,135.32731863494,2.952756,0,3.6670932932,5.5449804924,13,4,7.52,135.32731863494,2.624672,0.223694,3.6670932932,0,0,-0.223694,291.5, 0.2, 1.2,0,0,1024,1024,1684,1024,0,0,100,0,301.9,0,0,40,3.767,3.758,0,0,0,0,4.581,84.74,135.32731863494,2.624672,6,P-GPS,
4900,2022-08-23 22:07:25,-34.9051113638314,-56.1629556095026,2.624672,2.5590552,132.76826343494,135.32731863494,2.952756,0,3.6851051048,5.5733925668,13,4,7.52,135.32731863494,2.624672,0.223694,3.6851051048,0,0,-0.671082,291.5, 0, 1.1,0,0,1024,1024,1603,1024,0,0,88,0,301.9,0,0,40,3.767,3.758,0,0,0,0,4.581,84.74,135.32731863494,2.624672,6,P-GPS,
5000,2022-08-23 22:07:25,-34.9051114015104,-56.1629557226247,2.952756,2.8871392,132.76826343494,135.65540263494,3.28084,0,3.6650591724,5.6099411244,13,4,7.52,135.65540263494,2.952756,0.223694,3.6851051048,0,0,-1.342164,291.5, 0.1, 0.7,0,0,1024,1024,1024,1024,0,0,0,0,301.9,0,0,40,3.767,3.758,0,0,0,0,4.581,84.74,135.65540263494,2.952756,6,P-GPS,
5100,2022-08-23 22:07:25,-34.9051113772335,-56.1629560739519,3.28084,3.2152232,132.76826343494,135.98348663494,3.608924,0,3.5740814792,5.7154201304,13,4,7.52,135.98348663494,3.28084,0.223694,3.6851051048,0,0,-2.013246,291.5, 0, 0.5,0,0,1024,1024,1024,1024,0,0,0,0,301.9,0,0,40,3.767,3.758,0,0,0,0,4.581,84.74,135.98348663494,3.28084,6,P-GPS,
5200,2022-08-23 22:07:25,-34.9051112019934,-56.162957487205,3.608924,3.5761156,132.73545503494,136.31157063494,3.937008,0,3.19922582416,6.1431104328,14,4,7.52,136.31157063494,3.608924,0.223694,3.6851051048,0,0,-2.013246,291.5, 0.6, 0.5,0,0,1024,1024,1024,1024,0,0,0,0,301.9,0,0,40,3.767,3.758,0,0,0,0,4.581,84.74,136.31157063494,3.608924,6,P-GPS,
5300,2022-08-23 22:07:25,-34.9051111572633,-56.1629579099948,3.608924,3.5761156,132.73545503494,136.31157063494,4.265092,0,3.0915683404,6.270669492,14,4,7.52,136.31157063494,3.608924,0.223694,3.6851051048,0,0,-1.565858,291.5, 0.3, 0.5,0,0,1024,1024,1024,1024,0,0,0,0,301.9,0,0,40,3.767,3.758,0,0,0,0,4.581,84.74,136.31157063494,3.608924,6,P-GPS,
5400,2022-08-23 22:07:25,-34.9051111358851,-56.1629582956848,3.937008,3.9041996,132.73545503494,136.63965463494,4.265092,0,2.99943579152,6.386319102,13,4,7.511,136.63965463494,3.937008,0.223694,3.6851051048,0,0,-0.894776,291.5, 0.8, 0.7,0,0,1024,1024,1024,1024,0,0,0,0,301.9,0,0,40,3.716,3.71,0,0,0,0,4.624,84.74,136.63965463494,3.937008,6,P-GPS,
5500,2022-08-23 22:07:25,-34.9051111740135,-56.1629586120171,3.937008,3.9041996,132.73545503494,136.63965463494,4.593176,0,2.93896991032,6.4819883964,13,4,7.511,136.63965463494,3.937008,0.223694,3.6851051048,0,0,-0.447388,291.4, 0.8, 0.8,0,0,1024,1024,1024,1024,0,0,0,0,301.9,0,0,40,3.716,3.71,0,0,0,0,4.624,84.74,136.63965463494,3.937008,6,P-GPS,"Punto de origen actualizado. Altitud de RPO establecida en 100m (Code: 3000001)"
5600,2022-08-23 22:07:25,-34.9051109959041,-56.1629591866322,3.937008,3.9041996,132.73545503494,136.63965463494,4.593176,0,2.76999352696,6.6657810532,13,4,7.511,136.63965463494,3.937008,0.223694,3.6851051048,0,0,-0.223694,291.4, 0.7, 0.7,0,0,1024,1024,1024,1024,0,0,0,0,301.9,0,0,40,3.716,3.71,0,0,0,0,4.624,84.74,136.63965463494,3.937008,6,P-GPS,
5700,2022-08-23 22:07:25,-34.9051109839448,-56.1629590897592,4.265092,4.2322836,132.73545503494,136.96773863494,4.593176,0,2.78766085036,6.6951117628,13,4,7.511,136.96773863494,4.265092,0.223694,3.6851051048,0,0,0,291.5, 0.8, 0.8,0,0,1132,1024,1024,1024,16,0,0,0,301.9,0,0,40,3.716,3.71,0,0,0,0,4.624,84.74,136.96773863494,4.265092,6,P-GPS,
5800,2022-08-23 22:07:25,-34.905110980017,-56.1629589548515,4.265092,4.2322836,132.73545503494,136.96773863494,4.593176,0,2.81578749168,6.7354989032,15,4,7.511,136.96773863494,4.265092,0.223694,3.6851051048,0,0,0,291.5, 0.6, 1.1,0,0,1574,1024,1024,1024,83,0,0,0,301.9,0,0,40,3.716,3.71,0,0,0,0,4.624,84.74,136.96773863494,4.265092,6,P-GPS,
5900,2022-08-23 22:07:26,-34.9051109936438,-56.1629587501631,4.265092,4.2322836,132.73545503494,136.96773863494,4.593176,0,2.86387148272,6.7969490364,15,4,7.511,136.96773863494,4.265092,0.223694,3.6851051048,0,0,0,291.4, -3.5, 1.1,0,0,1548,1024,1024,1024,79,0,0,0,301.9,0,0,40,3.716,3.71,0,0,0,0,4.624,84.74,136.96773863494,4.265092,6,P-GPS,
6000,2022-08-23 22:07:26,-34.9051109741741,-56.1629585909367,3.937008,3.9041996,132.73545503494,136.63965463494,4.593176,0,2.89427174616,6.8451117676,16,4,7.511,136.96773863494,4.265092,0.223694,3.6851051048,0,0,0,291.3, -10.3, 0.8,0,0,1495,1024,1024,1024,71,0,0,0,301.9,0,0,40,3.716,3.71,0,0,0,0,4.624,84.74,136.63965463494,3.937008,6,P-GPS,
6100,2022-08-23 22:07:26,-34.9051107561548,-56.1629578513497,3.937008,3.9041996,132.73545503494,136.63965463494,4.593176,0.4921268,3.01256243236,7.0802823788,16,4,7.511,136.96773863494,4.265092,0.4921268,3.6851051048,0.223694,-0.447388,0,291.3, -12.5, 1,0,0,1476,1024,1024,1024,68,0,0,0,301.9,0,0,40,3.716,3.71,0,0,0,0,4.624,84.74,136.63965463494,3.937008,6,P-GPS,
6200,2022-08-23 22:07:26,-34.9051105957856,-56.1629580241615,3.937008,3.9041996,132.73545503494,136.63965463494,4.593176,0.9171454,2.9358104614,7.1583663708,16,4,7.511,136.96773863494,4.265092,0.9171454,3.6851051048,0.223694,-0.894776,0,291.4, -11.6, 1.4,0,0,1289,1024,1024,1024,40,0,0,0,301.9,0,0,40,3.716,3.71,0,0,0,0,4.624,84.74,136.63965463494,3.937008,6,P-GPS,
6300,2022-08-23 22:07:26,-34.9051103743465,-56.162958454765,3.937008,3.9041996,132.73545503494,136.63965463494,4.265092,1.4092722,2.78452764816,7.3104333048,16,4,7.511,136.96773863494,4.265092,1.4092722,3.6851051048,0.447388,-1.342164,0,291.5, -10.6, 1.6,0,0,1289,1024,1024,1024,40,0,0,0,301.9,0,0,40,3.716,3.71,0,0,0,0,4.624,84.74,136.63965463494,3.937008,6,P-GPS,
6400,2022-08-23 22:07:26,-34.9051101154044,-56.1629590465171,3.937008,3.9041996,132.73545503494,136.63965463494,4.265092,1.901399,2.5871391904,7.5111222876,15,4,7.511,136.96773863494,4.265092,1.901399,3.6851051048,0.671082,-1.789552,0,291.5, -8, 1.4,0,0,1024,1024,1024,1024,0,0,0,0,301.9,0,0,40,3.716,3.71,0,0,0,0,4.624,84.74,136.63965463494,3.937008,6,P-GPS,
6500,2022-08-23 22:07:26,-34.9051099067291,-56.1629598183881,3.937008,3.9041996,132.73545503494,136.63965463494,4.593176,1.901399,2.36112540364,7.7542981484,15,4,7.513,136.96773863494,4.265092,1.901399,3.6851051048,0.671082,-1.789552,0,291.6, -1.7, 0.8,0,0,1024,1024,1024,1024,0,0,0,0,301.9,0,0,40,3.749,3.744,0,0,0,0,4.822,84.74,136.63965463494,3.937008,6,P-GPS,
6600,2022-08-23 22:07:26,-34.905109619667,-56.1629606258181,3.937008,3.9041996,132.73545503494,136.63965463494,4.593176,1.901399,2.11151909644,8.0176183668,14,4,7.513,136.96773863494,4.265092,1.901399,3.6851051048,0.671082,-1.789552,0,291.6, 6.9, 0.5,0,0,1024,1024,1024,1024,0,0,0,0,301.9,0,0,40,3.749,3.744,0,0,0,0,4.822,84.74,136.63965463494,3.937008,6,P-GPS,
6700,2022-08-23 22:07:26,-34.9051093071425,-56.162961361237,3.937008,3.9041996,132.73545503494,136.63965463494,4.593176,1.6329662,1.8741634458,8.2654530204,14,4,7.513,136.96773863494,4.265092,1.901399,3.6851051048,0.447388,-1.565858,0,291.6, 8.5, 0.5,0,0,1024,1024,1024,1024,0,0,0,0,301.9,0,0,40,3.749,3.744,0,0,0,0,4.822,84.74,136.63965463494,3.937008,6,P-GPS,
6800,2022-08-23 22:07:26,-34.90510904935,-56.1629619018444,3.937008,3.937008,132.70264663494,136.63965463494,4.593176,1.1408394,1.6941109466,8.4525593256,13,4,7.513,136.96773863494,4.265092,1.901399,3.6851051048,0.223694,-1.11847,0,291.5, 7.7, 0.5,0,0,1024,1024,1024,1024,0,0,0,0,301.9,0,0,40,3.749,3.744,0,0,0,0,4.822,84.74,136.63965463494,3.937008,6,P-GPS,
6900,2022-08-23 22:07:27,-34.9051086307781,-56.1629622404951,3.937008,3.937008,132.70264663494,136.63965463494,5.905512,0.9171454,1.51372708256,8.635827048,13,4,7.513,136.96773863494,4.265092,1.901399,3.6851051048,0.223694,-0.894776,0,291.4, 6.5, 0.7,0,0,1024,1024,1024,1024,0,0,0,0,301.9,0,0,40,3.749,3.744,0,0,0,0,4.822,84.74,136.63965463494,3.937008,6,P-GPS,
7000,2022-08-23 22:07:27,-34.9051084351628,-56.162962472046,3.937008,3.9041996,132.73545503494,136.63965463494,5.905512,0.7158208,1.41426185628,8.7353021168,14,4,7.513,136.96773863494,4.265092,1.901399,3.6851051048,0.223694,-0.671082,0,291.3, 5.1, 0.5,0,0,1036,1024,1024,1024,2,0,0,0,301.9,0,0,40,3.749,3.744,0,0,0,0,4.822,84.74,136.63965463494,3.937008,6,P-GPS,
7100,2022-08-23 22:07:27,-34.9051083073365,-56.1629625790831,3.937008,3.937008,132.70264663494,136.63965463494,5.905512,0.447388,1.35855975476,8.7918966068,14,4,7.513,136.96773863494,4.265092,1.901399,3.6851051048,0,-0.447388,0,291.3, 3.8, 0.6,0,0,1463,1024,1024,1024,67,0,0,0,301.9,0,0,40,3.749,3.744,0,0,0,0,4.822,84.74,136.63965463494,3.937008,6,P-GPS,
7200,2022-08-23 22:07:27,-34.9051082138475,-56.162962634119,3.937008,3.937008,132.70264663494,136.63965463494,5.905512,0.223694,1.32280844128,8.8297575004,14,4,7.513,136.96773863494,4.265092,1.901399,3.6851051048,0,-0.223694,0,291.2, 2.7, 0.7,0,0,1618,1024,1024,1024,90,0,0,0,301.9,0,0,40,3.749,3.744,0,0,0,0,4.822,84.74,136.63965463494,3.937008,6,P-GPS,
7300,2022-08-23 22:07:27,-34.9051081803342,-56.1629626940542,3.937008,3.937008,132.70264663494,136.63965463494,5.905512,0.223694,1.30146329624,8.8514766612,14,4,7.513,136.96773863494,4.265092,1.901399,3.6851051048,0,-0.223694,0,291.2, -2.5, 0.8,0,0,1618,1024,1024,1024,90,0,0,0,301.9,0,0,40,3.749,3.744,0,0,0,0,4.822,84.74,136.63965463494,3.937008,6,P-GPS,
7400,2022-08-23 22:07:27,-34.905108117942,-56.1629627787469,3.937008,3.937008,132.70264663494,136.63965463494,5.905512,0.447388,1.26744754712,8.8855317804,16,4,7.513,136.96773863494,4.265092,1.901399,3.6851051048,0,-0.447388,0,291.2, -10.1, 0.9,0,0,1559,1024,1024,1024,81,0,0,0,301.9,0,0,40,3.749,3.744,0,0,0,0,4.822,84.74,136.63965463494,3.937008,6,P-GPS,
7500,2022-08-23 22:07:27,-34.9051080469613,-56.1629629457036,3.937008,3.937008,132.70264663494,136.63965463494,5.905512,0.7158208,1.2139108,8.9417981864,16,4,7.489,136.96773863494,4.265092,1.901399,3.6851051048,0.223694,-0.671082,0,291.3, -12.9, 0.9,0,0,1561,1024,1024,1024,81,0,0,0,301.9,0,0,40,3.748,3.742,0,0,0,0,4.661,84.74,136.63965463494,3.937008,6,P-GPS,
7600,2022-08-23 22:07:27,-34.9051079141357,-56.1629632804474,3.937008,3.937008,132.70264663494,136.63965463494,5.905512,1.2079476,1.10995082292,9.0530514708,16,4,7.489,136.96773863494,4.265092,1.901399,3.6851051048,0.447388,-1.11847,0,291.3, -13.1, 1,0,0,1554,1024,1024,1024,80,0,0,0,301.9,0,0,40,3.748,3.742,0,0,0,0,4.661,84.74,136.63965463494,3.937008,6,P-GPS,
7700,2022-08-23 22:07:27,-34.9051076855412,-56.1629638150117,3.937008,3.937008,132.70264663494,136.63965463494,5.905512,1.7000744,0.942667353,9.2334648624,16,4,7.489,136.96773863494,4.265092,1.901399,3.6851051048,0.671082,-1.565858,0,291.3, -13, 0.8,0,0,1470,1024,1024,1024,68,0,0,0,301.9,0,0,40,3.748,3.742,0,0,0,0,4.661,84.74,136.63965463494,3.937008,6,P-GPS,
7800,2022-08-23 22:07:27,-34.9051075129783,-56.162964382257,3.937008,3.937008,132.70264663494,136.63965463494,5.905512,2.125093,0.7932414952,9.4144688052,16,4,7.489,136.96773863494,4.265092,2.125093,3.6851051048,0.671082,-2.013246,0,291.3, -12.3, 0.4,0,0,1127,1024,1024,1024,16,0,0,0,301.9,0,0,40,3.748,3.742,0,0,0,0,4.661,84.74,136.63965463494,3.937008,6,P-GPS,
7900,2022-08-23 22:07:28,-34.905107105268,-56.1629653367853,3.937008,3.937008,132.70264663494,136.63965463494,5.905512,2.6172198,0.542076789,9.7365160596,16,4,7.489,136.96773863494,4.265092,2.6172198,3.6851051048,0.894776,-2.460634,0,291.4, -10.3, 0.5,0,0,1024,1024,1024,1024,0,0,0,0,301.9,0,0,40,3.748,3.742,0,0,0,0,4.661,84.74,136.63965463494,3.937008,6,P-GPS,
8000,2022-08-23 22:07:28,-34.9051066670961,-56.1629664308856,3.937008,3.937008,132.70264663494,136.63965463494,5.905512,2.8185444,0.4149606432,10.1008205332,15,4,7.489,136.96773863494,4.265092,2.8185444,3.6851051048,0.894776,-2.684328,0,291.5, -3.9, 0.7,0,0,1024,1024,1024,748,0,0,0,-42,301.9,0,0,40,3.748,3.742,0,0,0,0,4.661,84.74,136.63965463494,3.937008,6,P-GPS,
8100,2022-08-23 22:07:28,-34.9051061436197,-56.1629677954697,3.937008,3.9698164,132.66983823494,136.63965463494,5.905512,2.8185444,0.62876314348,10.5515751408,15,4,7.489,136.96773863494,4.265092,2.8185444,3.6851051048,0.894776,-2.684328,0,291.6, 9, 0.9,0,0,1024,1024,1024,748,0,0,0,-42,301.9,0,0,40,3.748,3.742,0,0,0,0,4.661,84.74,136.63965463494,3.937008,6,P-GPS,
8200,2022-08-23 22:07:28,-34.9051055032406,-56.1629692273119,3.937008,3.9698164,132.66983823494,136.63965463494,5.905512,2.3264176,1.03401906196,11.0395672824,14,4,7.489,136.96773863494,4.265092,2.8185444,3.6851051048,0.671082,-2.23694,0,291.6, 12, 0.8,0,0,1024,1024,1024,364,0,0,0,-100,301.5,0,0,40,3.748,3.742,0,0,0,0,4.661,84.74,136.63965463494,3.937008,6,P-GPS,
8300,2022-08-23 22:07:28,-34.9051052168136,-56.1629702008158,3.937008,3.9698164,132.66983823494,136.63965463494,5.905512,1.8342908,1.33366146,11.3490489196,14,4,7.489,136.96773863494,4.265092,2.8185444,3.6851051048,0.447388,-1.789552,0,290.5, 11.1, 0.6,0,0,1024,1024,1024,364,0,0,0,-100,298.8,0,0,40,3.748,3.742,0,0,0,0,4.661,84.74,136.63965463494,3.937008,6,P-GPS,
8400,2022-08-23 22:07:28,-34.9051050045687,-56.1629709285828,3.937008,3.9698164,132.66983823494,136.63965463494,5.905512,1.4092722,1.56006566672,11.5801512892,15,4,7.489,136.96773863494,4.265092,2.8185444,3.6851051048,0.447388,-1.342164,0,286.9, 9.2, 0.1,0,0,1024,1024,1024,364,0,0,0,-100,294.4,0,0,40,3.748,3.742,0,0,0,0,4.661,84.74,136.63965463494,3.937008,6,P-GPS,
8500,2022-08-23 22:07:28,-34.9051048194472,-56.1629715355916,3.937008,3.9698164,132.66983823494,136.63965463494,5.905512,0.9171454,1.7503609484,11.773950508,15,4,7.477,136.96773863494,4.265092,2.8185444,3.6851051048,0.223694,-0.894776,0,282.4, 6.9, -0.3,0,0,1024,1024,1024,364,0,0,0,-100,289.6,0,0,40,3.744,3.735,0,0,0,0,4.703,84.74,136.63965463494,3.937008,6,P-GPS,
8600,2022-08-23 22:07:28,-34.9051047729226,-56.1629723548101,3.937008,3.9698164,132.66983823494,136.63965463494,5.905512,0.7158208,1.99481961764,12.0196526156,17,4,7.477,136.96773863494,4.265092,2.8185444,3.6851051048,0.223694,-0.671082,0,277.7, 5.1, -0.8,0,0,1024,1024,1024,364,0,0,0,-100,284.8,0,0,40,3.744,3.735,0,0,0,0,4.703,84.74,136.63965463494,3.937008,6,P-GPS,
8700,2022-08-23 22:07:28,-34.9051046438521,-56.1629729422584,3.937008,4.0026248,132.63702983494,136.63965463494,5.905512,0.447388,2.17598760244,12.201608002,17,4,7.477,136.96773863494,4.265092,2.8185444,3.6851051048,0,-0.447388,0,273.1, 3.7, -0.8,0,0,1024,1024,1024,364,0,0,0,-100,280.1,0,0,40,3.744,3.735,0,0,0,0,4.703,84.74,136.63965463494,3.937008,6,P-GPS,
8800,2022-08-23 22:07:28,-34.9051045574013,-56.1629733625881,3.937008,4.0026248,132.63702983494,136.63965463494,5.905512,0.223694,2.30531831524,12.3312667988,15,4,7.477,136.96773863494,4.265092,2.8185444,3.6851051048,0,-0.223694,0,268.3, 2.6, -0.6,0,0,1024,1024,1024,589,0,0,0,-66,275.3,0,0,40,3.744,3.735,0,0,0,0,4.703,84.74,136.63965463494,3.937008,6,P-GPS,
8900,2022-08-23 22:07:29,-34.9051045139348,-56.162973526672,3.937008,4.0026248,132.63702983494,136.63965463494,5.905512,0,2.35644364496,12.382874412,15,4,7.477,136.96773863494,4.265092,2.8185444,3.6851051048,0,0,0,263.5, 1.9, -0.4,0,0,1024,1024,1024,887,0,0,0,-21,270.6,0,0,40,3.744,3.735,0,0,0,0,4.703,84.74,136.63965463494,3.937008,6,P-GPS,
9000,2022-08-23 22:07:29,-34.9051047013231,-56.1629730693575,3.937008,4.0026248,132.63702983494,136.63965463494,5.905512,0,2.2100394408,12.5358271728,14,4,7.477,136.96773863494,4.265092,2.8185444,3.6851051048,0,0,0,259, 1.6, -0.1,0,0,1024,1024,1024,364,0,0,0,-100,267.2,0,0,40,3.744,3.735,0,0,0,0,4.703,84.74,136.63965463494,3.937008,6,P-GPS,
9100,2022-08-23 22:07:29,-34.9051048158777,-56.1629726194703,3.937008,4.0026248,132.63702983494,136.63965463494,5.905512,0,2.07059061744,12.6768048676,14,4,7.477,136.96773863494,4.265092,2.8185444,3.6851051048,0,0,0,256.8, 1.2, 0,0,0,1024,1024,1024,364,0,0,0,-100,266.1,0,0,40,3.744,3.735,0,0,0,0,4.703,84.74,136.63965463494,3.937008,6,P-GPS,
9200,2022-08-23 22:07:29,-34.9051049266672,-56.1629722402465,3.937008,3.9698164,132.66983823494,136.63965463494,5.905512,0,1.95249021996,12.797244504,14,4,7.477,136.96773863494,4.265092,2.8185444,3.6851051048,0,0,0,255.4, 1.4, 0.4,0,0,1024,1024,1024,364,0,0,0,-100,263.3,0,0,40,3.744,3.735,0,0,0,0,4.703,84.74,136.63965463494,3.937008,6,P-GPS,
9300,2022-08-23 22:07:29,-34.9051050005204,-56.1629721141763,3.937008,3.9698164,132.66983823494,136.63965463494,5.905512,0,1.91153549424,12.8436027732,14,4,7.477,136.96773863494,4.265092,2.8185444,3.6851051048,0,0,0,251.5, 1.3, 0.6,0,0,1024,1024,1024,364,0,0,0,-100,258.8,0,0,40,3.744,3.735,0,0,0,0,4.703,84.74,136.63965463494,3.937008,6,P-GPS,
9400,2022-08-23 22:07:29,-34.905105055285,-56.162972074115,3.937008,3.9698164,132.66983823494,136.63965463494,5.905512,0,1.89720150428,12.8668967372,16,4,7.477,136.96773863494,4.265092,2.8185444,3.6851051048,0,0,0,246.8, 1.1, 0.2,0,0,1024,1024,1024,364,0,0,0,-100,254,0,0,40,3.744,3.735,0,0,0,0,4.703,84.74,136.63965463494,3.937008,6,P-GPS,
9500,2022-08-23 22:07:29,-34.9051051028974,-56.1629729696693,3.937008,4.0026248,132.63702983494,136.63965463494,5.905512,0,2.16183405868,13.1354334912,16,4,7.481,136.96773863494,4.265092,2.8185444,3.6851051048,0,0,0,242.1, 1.2, 0.1,0,0,1024,1024,1024,364,0,0,0,-100,249.2,0,0,40,3.742,3.737,0,0,0,0,4.588,84.92,136.63965463494,3.937008,6,P-GPS,
9600,2022-08-23 22:07:29,-34.9051051115119,-56.1629732302188,3.937008,4.0026248,132.63702983494,136.63965463494,5.905512,0,2.23917001916,13.2134518664,16,4,7.481,136.96773863494,4.265092,2.8185444,3.6851051048,0,0,0,237.3, 1, 0.2,0,0,1024,1024,1024,364,0,0,0,-100,244.4,0,0,40,3.742,3.737,0,0,0,0,4.588,84.92,136.63965463494,3.937008,6,P-GPS,
9700,2022-08-23 22:07:29,-34.9051050859356,-56.1629735975757,3.937008,4.0026248,132.63702983494,136.63965463494,5.905512,0,2.34948170248,13.3237537072,16,4,7.481,136.96773863494,4.265092,2.8185444,3.6851051048,0,0,0,232.6, 0.9, 0.2,0,0,1024,1024,1024,364,0,0,0,-100,239.6,0,0,40,3.742,3.737,0,0,0,0,4.588,84.92,136.63965463494,3.937008,6,P-GPS,
9800,2022-08-23 22:07:29,-34.9051050486735,-56.1629739649588,3.937008,4.0026248,132.63702983494,136.63965463494,5.905512,0,2.4601870866,13.4345148656,16,4,7.481,136.96773863494,4.265092,2.8185444,3.6851051048,0,0,0,227.8, 0.6, 0.2,0,0,1024,1024,1024,364,0,0,0,-100,234.8,0,0,40,3.742,3.737,0,0,0,0,4.588,84.92,136.63965463494,3.937008,6,P-GPS,
9900,2022-08-23 22:07:30,-34.9051048342986,-56.1629755636688,3.937008,4.0026248,132.63702983494,136.63965463494,5.905512,0,2.94388460864,13.9192261672,16,4,7.481,136.96773863494,4.265092,2.8185444,3.6851051048,0,0,0,223, 0.5, -0.1,0,0,1024,1024,1024,364,0,0,0,-100,230,0,0,40,3.742,3.737,0,0,0,0,4.588,84.92,136.63965463494,3.937008,6,P-GPS,
10000,2022-08-23 22:07:30,-34.9051047952713,-56.1629759308951,3.937008,4.0026248,132.63702983494,136.63965463494,5.905512,0,3.05464576704,14.030020134,16,4,7.481,136.96773863494,4.265092,2.8185444,3.6851051048,0,0,0,218.2, 0.6, 0,0,0,1024,1024,1024,364,0,0,0,-100,225.2,0,0,40,3.742,3.737,0,0,0,0,4.588,84.92,136.63965463494,3.937008,6,P-GPS,
10100,2022-08-23 22:07:30,-34.9051047977303,-56.1629761914917,3.937008,4.0026248,132.63702983494,136.63965463494,5.905512,0,3.1321195228,14.1080057008,16,4,7.481,136.96773863494,4.265092,2.8185444,3.6851051048,0,0,0,213.3, 0.7, -0.1,0,0,1024,1024,1024,364,0,0,0,-100,220.4,0,0,40,3.742,3.737,0,0,0,0,4.588,84.92,136.63965463494,3.937008,6,P-GPS,
10200,2022-08-23 22:07:30,-34.9051048080449,-56.1629763671814,3.937008,4.0026248,132.63702983494,136.63965463494,5.905512,0,3.18405193916,14.1607287996,16,4,7.481,136.96773863494,4.265092,2.8185444,3.6851051048,0,0,0,208.5, 1, 0,0,0,1024,1024,1024,364,0,0,0,-100,215.6,0,0,40,3.742,3.737,0,0,0,0,4.588,84.92,136.63965463494,3.937008,6,P-GPS,
10300,2022-08-23 22:07:30,-34.9051049441991,-56.1629761688286,3.937008,4.0026248,132.63702983494,136.63965463494,5.905512,0,3.12042004736,14.2381238152,16,4,7.481,136.96773863494,4.265092,2.8185444,3.6851051048,0,0,0,203.7, 1.2, 0.2,0,0,1024,1024,1024,364,0,0,0,-100,210.8,0,0,40,3.742,3.737,0,0,0,0,4.588,84.92,136.63965463494,3.937008,6,P-GPS,
10400,2022-08-23 22:07:30,-34.9051049672643,-56.1629761306999,3.937008,4.0026248,132.63702983494,136.63965463494,5.905512,0,3.10835311784,14.252297044,16,4,7.481,136.96773863494,4.265092,2.8185444,3.6851051048,0,0,0,198.9, 1, 0.4,0,0,1024,1024,1024,364,0,0,0,-100,206,0,0,40,3.742,3.737,0,0,0,0,4.588,84.92,136.63965463494,3.937008,6,P-GPS,
10500,2022-08-23 22:07:30,-34.9051049934465,-56.1629760300506,3.937008,4.0026248,132.63702983494,136.63965463494,5.905512,0,3.07756571528,14.2838915332,16,4,7.475,136.96773863494,4.265092,2.8185444,3.6851051048,0,0,0,194.2, 0.6, 0.6,0,0,1024,1024,1024,364,0,0,0,-100,201.2,0,0,40,3.742,3.736,0,0,0,0,4.575,84.92,136.63965463494,3.937008,6,P-GPS,
10600,2022-08-23 22:07:30,-34.9051050268882,-56.1629758943386,3.937008,4.0026248,132.63702983494,136.63965463494,5.905512,0,3.03613198692,14.326279986,16,4,7.475,136.96773863494,4.265092,2.8185444,3.6851051048,0,0,0,189.4, 0.4, 0.4,0,0,1024,1024,1024,364,0,0,0,-100,196.4,0,0,40,3.742,3.736,0,0,0,0,4.575,84.92,136.63965463494,3.937008,6,P-GPS,
10700,2022-08-23 22:07:30,-34.9051052922724,-56.1629749832195,3.937008,4.0026248,132.63702983494,136.63965463494,5.905512,0,2.75793643996,14.6155844572,16,4,7.475,136.96773863494,4.265092,2.8185444,3.6851051048,0,0,0,184.6, 0.4, 0.2,0,0,1024,1024,1024,364,0,0,0,-100,191.6,0,0,40,3.742,3.736,0,0,0,0,4.575,84.92,136.63965463494,3.937008,6,P-GPS,
10800,2022-08-23 22:07:31,-34.9051053554854,-56.1629747451032,3.937008,4.0026248,132.63702983494,136.63965463494,5.905512,0,2.6857120282,14.6904860344,15,4,7.475,136.96773863494,4.265092,2.8185444,3.6851051048,0,0,0,179.7, 0.5, 0,0,0,1024,1024,1024,364,0,0,0,-100,186.8,0,0,40,3.742,3.736,0,0,0,0,4.575,84.92,136.63965463494,3.937008,6,P-GPS,
10900,2022-08-23 22:07:31,-34.905105397965,-56.16297442606,3.937008,4.0026248,132.63702983494,136.63965463494,5.905512,0,2.58970808812,14.7871723892,15,4,7.475,136.96773863494,4.265092,2.8185444,3.6851051048,0,0,0,174.9, 0.5, 0,0,0,1024,1024,1024,364,0,0,0,-100,182,0,0,40,3.742,3.736,0,0,0,0,4.575,84.92,136.63965463494,3.937008,6,P-GPS,
11000,2022-08-23 22:07:31,-34.9051054374124,-56.1629741126056,3.937008,4.0026248,132.63702983494,136.63965463494,5.905512,0,2.49546923996,14.8820870904,15,4,7.475,136.96773863494,4.265092,2.8185444,3.6851051048,0,0,0,170.1, 0.5, -0.2,0,0,1024,1024,1024,364,0,0,0,-100,177.1,0,0,40,3.742,3.736,0,0,0,0,4.575,84.92,136.63965463494,3.937008,6,P-GPS,
11100,2022-08-23 22:07:31,-34.9051054756678,-56.162973788893,3.937008,4.0026248,132.63702983494,136.63965463494,5.905512,0,2.39822514236,14.9799217392,15,4,7.475,136.96773863494,4.265092,2.8185444,3.6851051048,0,0,0,165.3, 0.5, 0,0,0,1024,1024,1024,364,0,0,0,-100,172.3,0,0,40,3.742,3.736,0,0,0,0,4.575,84.92,136.63965463494,3.937008,6,P-GPS,
11200,2022-08-23 22:07:31,-34.9051055746023,-56.1629728091684,3.937008,4.0026248,132.63702983494,136.63965463494,5.905512,0,2.1043471802,15.2752957644,15,4,7.475,136.96773863494,4.265092,2.8185444,3.6851051048,0,0,0,160.4, 0.7, 0.4,0,0,1024,1024,1024,364,0,0,0,-100,167.5,0,0,40,3.742,3.736,0,0,0,0,4.575,84.92,136.63965463494,3.937008,6,P-GPS,
11300,2022-08-23 22:07:31,-34.9051055627863,-56.1629724706117,3.937008,3.9698164,132.66983823494,136.63965463494,5.905512,0,2.0031332662,15.3766737204,15,4,7.475,136.96773863494,4.265092,2.8185444,3.6851051048,0,0,0,155.7, 0.9, 1,0,0,1024,1024,1024,364,0,0,0,-100,162.7,0,0,40,3.742,3.736,0,0,0,0,4.575,84.92,136.63965463494,3.937008,6,P-GPS,
11400,2022-08-23 22:07:31,-34.905105558497,-56.162972176676,3.937008,3.9698164,132.66983823494,136.63965463494,5.905512,0,1.91522972008,15.4646330408,15,4,7.475,136.96773863494,4.265092,2.8185444,3.6851051048,0,0,0,150.9, 0.7, 0.9,0,0,1024,1024,1024,364,0,0,0,-100,157.9,0,0,40,3.742,3.736,0,0,0,0,4.575,84.92,136.63965463494,3.937008,6,P-GPS,
11500,2022-08-23 22:07:31,-34.9051055883105,-56.1629719456005,3.937008,3.9698164,132.66983823494,136.63965463494,5.905512,0,1.84590885172,15.5346461664,15,4,7.475,136.96773863494,4.265092,2.8185444,3.6851051048,0,0,0,146.1, 0.6, 0.4,0,0,1024,1024,1024,364,0,0,0,-100,153.1,0,0,40,3.742,3.736,0,0,0,0,4.575,84.92,136.63965463494,3.937008,6,P-GPS,
11600,2022-08-23 22:07:31,-34.9051056119555,-56.162971477986,3.937008,3.9698164,132.66983823494,136.63965463494,5.905512,0,1.70589244304,15.6748364596,15,4,7.473,136.96773863494,4.265092,2.8185444,3.6851051048,0,0,0,141.3, 0.4, -0.2,0,0,1024,1024,1024,364,0,0,0,-100,148.3,0,0,39,3.739,3.733,0,0,0,0,4.502,84.92,136.63965463494,3.937008,6,P-GPS,
11700,2022-08-23 22:07:31,-34.9051056705014,-56.1629711720319,3.937008,3.9698164,132.66983823494,136.63965463494,5.905512,0,1.61424217764,15.7688325256,15,4,7.473,136.96773863494,4.265092,2.8185444,3.6851051048,0,0,0,136.5, 0, -0.7,0,0,1024,1024,1024,364,0,0,0,-100,143.5,0,0,39,3.739,3.733,0,0,0,0,4.502,84.92,136.63965463494,3.937008,6,P-GPS,
11800,2022-08-23 22:07:31,-34.9051057304998,-56.1629708146042,3.937008,3.9698164,132.66983823494,136.63965463494,5.905512,0,1.50748692488,15.8779860724,14,4,7.473,136.96773863494,4.265092,2.8185444,3.6851051048,0,0,0,131.7, 0, -0.9,0,0,1024,1024,1024,364,0,0,0,-100,138.7,0,0,39,3.739,3.733,0,0,0,0,4.502,84.92,136.63965463494,3.937008,6,P-GPS,
11900,2022-08-23 22:07:32,-34.9051058007248,-56.1629702568806,3.937008,3.9698164,132.66983823494,136.63965463494,5.905512,0,1.34134190644,16.0468180988,14,4,7.473,136.96773863494,4.265092,2.8185444,3.6851051048,0,0,0,127, 0, -0.6,0,0,1024,1024,1024,364,0,0,0,-100,133.9,0,0,39,3.739,3.733,0,0,0,0,4.502,84.92,136.63965463494,3.937008,6,P-GPS,
12000,2022-08-23 22:07:32,-34.9051059941058,-56.1629690352268,3.937008,3.9698164,132.66983823494,136.63965463494,5.905512,0,0.98229005768,16.4190950136,14,4,7.473,136.96773863494,4.265092,2.8185444,3.6851051048,0,0,0,122.2, 0, -0.1,0,0,1024,1024,1024,364,0,0,0,-100,129.1,0,0,39,3.739,3.733,0,0,0,0,4.502,84.92,136.63965463494,3.937008,6,P-GPS,
12100,2022-08-23 22:07:32,-34.9051061183919,-56.1629685723027,3.937008,3.9698164,132.66983823494,136.63965463494,5.905512,0,0.85263454172,16.5648627348,14,4,7.473,136.96773863494,4.265092,2.8185444,3.6851051048,0,0,0,117.4, 0, -0.2,0,0,1024,1024,1024,364,0,0,0,-100,124.3,0,0,39,3.739,3.733,0,0,0,0,4.502,84.92,136.63965463494,3.937008,6,P-GPS,
12200,2022-08-23 22:07:32,-34.9051062369491,-56.1629681839541,3.937008,3.9698164,132.66983823494,136.63965463494,5.905512,0,0.7498851946,16.6888456784,14,4,7.473,136.96773863494,4.265092,2.8185444,3.6851051048,0,0,0,112.5, 0, -0.5,0,0,1024,1024,1024,364,0,0,0,-100,119.5,0,0,39,3.739,3.733,0,0,0,0,4.502,84.92,136.63965463494,3.937008,6,P-GPS,
12300,2022-08-23 22:07:32,-34.905106336789,-56.162967928894,3.937008,3.9698164,132.66983823494,136.63965463494,5.905512,0,0.68904857848,16.7733929252,14,4,7.473,136.96773863494,4.265092,2.8185444,3.6851051048,0,0,0,107.7, 0, -0.9,0,0,1024,1024,1024,411,0,0,0,-93,114.7,0,0,39,3.739,3.733,0,0,0,0,4.502,84.92,136.63965463494,3.937008,6,P-GPS,
12400,2022-08-23 22:07:32,-34.9051065528672,-56.1629679195551,3.937008,3.9698164,132.66983823494,136.63965463494,5.905512,0,0.71840881564,16.8522971272,14,4,7.473,136.96773863494,4.265092,2.8185444,3.6851051048,0,0,0,102.8, -0.1, -1.3,0,0,1024,1024,1024,801,0,0,0,-34,109.9,0,0,39,3.739,3.733,0,0,0,0,4.502,84.92,136.63965463494,3.937008,6,P-GPS,
12500,2022-08-23 22:07:32,-34.9051066331756,-56.1629677497675,3.937008,3.9698164,132.66983823494,136.63965463494,5.905512,0,0.68805448396,16.910925738,14,4,7.473,136.96773863494,4.265092,2.8185444,3.6851051048,0,0,0,98.1, -0.4, -1.6,0,0,1024,1024,1024,801,0,0,0,-34,105.5,0,0,39,3.739,3.733,0,0,0,0,4.502,84.92,136.63965463494,3.937008,6,P-GPS,
12600,2022-08-23 22:07:32,-34.9051066957827,-56.1629675941084,3.937008,3.9698164,132.66983823494,136.63965463494,5.905512,0,0.66127298704,16.9628286268,14,4,7.465,136.96773863494,4.265092,2.8185444,3.6851051048,0,0,0,94.3, -0.7, -1.3,0,0,1024,1024,1024,1024,0,0,0,0,103.2,0,0,39,3.736,3.731,0,0,0,0,4.614,84.92,136.63965463494,3.937008,6,P-GPS,
12700,2022-08-23 22:07:32,-34.9051067453428,-56.1629674248849,3.937008,3.937008,132.70264663494,136.63965463494,5.905512,0,0.6314468706,17.016568786,14,4,7.465,136.96773863494,4.265092,2.8185444,3.6851051048,0,0,0,92.8, -0.7, -0.9,0,0,1024,1024,1024,1024,0,0,0,0,102.3,0,0,39,3.736,3.731,0,0,0,0,4.614,84.92,136.63965463494,3.937008,6,P-GPS,
12800,2022-08-23 22:07:32,-34.9051067835591,-56.1629672950123,3.937008,3.937008,132.70264663494,136.63965463494,5.905512,0,0.61083007204,17.0578745616,14,4,7.465,136.96773863494,4.265092,2.8185444,3.6851051048,0,0,0,92.1, -0.5, -0.4,0,0,1024,1024,1024,1024,0,0,0,0,102.1,0,0,39,3.736,3.731,0,0,0,0,4.614,84.92,136.63965463494,3.937008,6,P-GPS,
12900,2022-08-23 22:07:33,-34.9051067662064,-56.162967647405,3.937008,3.9698164,132.66983823494,136.63965463494,5.905512,0,0.68911419528,17.1634848012,14,4,7.465,136.96773863494,4.265092,2.8185444,3.6851051048,0,0,0,91.9, 0, 0,0,0,1024,1024,1024,1024,0,0,0,0,102.1,0,0,39,3.736,3.731,0,0,0,0,4.614,84.92,136.63965463494,3.937008,6,P-GPS,
13000,2022-08-23 22:07:33,-34.9051068058916,-56.1629676418215,3.937008,3.9698164,132.66983823494,136.63965463494,5.905512,0,0.69632220076,17.1780845392,15,4,7.465,136.96773863494,4.265092,2.8185444,3.6851051048,0,0,0,91.8, -0.2, -0.4,0,0,1024,1024,1024,1024,0,0,0,0,102.1,0,0,39,3.736,3.731,0,0,0,0,4.614,84.92,136.63965463494,3.937008,6,P-GPS,
13100,2022-08-23 22:07:33,-34.9051068579953,-56.1629677208837,3.937008,3.9698164,132.66983823494,136.63965463494,5.905512,0,0.72665356656,17.2084323092,15,4,7.465,136.96773863494,4.265092,2.8185444,3.6851051048,0,0,0,91.9, -0.3, -0.8,0,0,1024,1024,1024,1024,0,0,0,0,102.1,0,0,39,3.736,3.731,0,0,0,0,4.614,84.92,136.63965463494,3.937008,6,P-GPS,
13200,2022-08-23 22:07:33,-34.905106911874,-56.1629678084439,3.937008,3.9698164,132.66983823494,136.63965463494,5.905512,0,0.75940619228,17.2411750924,16,4,7.465,136.96773863494,4.265092,2.8185444,3.6851051048,0,0,0,91.9, -0.1, -0.9,0,0,1024,1024,1024,1024,0,0,0,0,102.1,0,0,39,3.736,3.731,0,0,0,0,4.614,84.92,136.63965463494,3.937008,6,P-GPS,
13300,2022-08-23 22:07:33,-34.9051069845254,-56.162968487986,3.937008,3.9698164,132.66983823494,136.63965463494,5.905512,0,0.9434219462,17.4462275924,16,4,7.465,136.96773863494,4.265092,2.8185444,3.6851051048,0,0,0,91.8, 0, -0.7,0,0,1024,1024,1024,1024,0,0,0,0,102.1,0,0,39,3.736,3.731,0,0,0,0,4.614,84.92,136.63965463494,3.937008,6,P-GPS,
13400,2022-08-23 22:07:33,-34.9051070339747,-56.1629686357791,3.937008,3.9698164,132.66983823494,136.63965463494,5.905512,0,0.9906824464,17.4939966228,17,4,7.465,136.96773863494,4.265092,2.8185444,3.6851051048,0,0,0,91.8, -0.3, -0.3,0,0,1024,1024,1024,1024,0,0,0,0,102.1,0,0,39,3.736,3.731,0,0,0,0,4.614,84.92,136.63965463494,3.937008,6,P-GPS,
13500,2022-08-23 22:07:33,-34.9051070530992,-56.162968921807,3.937008,3.9698164,132.66983823494,136.63965463494,5.905512,0,1.06874347252,17.5798562056,17,4,7.465,136.96773863494,4.265092,2.8185444,3.6851051048,0,0,0,91.8, -0.4, -0.6,0,0,1024,1024,1024,1024,0,0,0,0,102.1,0,0,39,3.736,3.731,0,0,0,0,4.614,84.92,136.63965463494,3.937008,6,P-GPS,
13600,2022-08-23 22:07:33,-34.9051070527507,-56.1629692362016,3.937008,3.9698164,132.66983823494,136.63965463494,5.905512,0,1.15237208412,17.6739178884,16,4,7.462,136.96773863494,4.265092,2.8185444,3.6851051048,0,0,0,91.8, -0.2, -0.7,0,0,1024,1024,1024,1024,0,0,0,0,102.1,0,0,39,3.732,3.726,0,0,0,0,4.585,84.92,136.63965463494,3.937008,6,P-GPS,
13700,2022-08-23 22:07:33,-34.9051067568298,-56.1629705371578,3.937008,3.9698164,132.66983823494,136.63965463494,5.905512,0,1.47902891872,18.0778877176,16,4,7.462,136.96773863494,4.265092,2.8185444,3.6851051048,0,0,0,91.7, 0, -0.3,0,0,1024,1024,1024,1024,0,0,0,0,102.1,0,0,39,3.732,3.726,0,0,0,0,4.585,84.92,136.63965463494,3.937008,6,P-GPS,
13800,2022-08-23 22:07:33,-34.9051066943823,-56.1629709111847,3.937008,3.9698164,132.66983823494,136.63965463494,5.905512,0,1.58151579864,18.192093758,14,4,7.462,136.96773863494,4.265092,2.8185444,3.6851051048,0,0,0,91.7, 0.2, -0.3,0,0,1024,1024,1024,1024,0,0,0,0,102.1,0,0,39,3.732,3.726,0,0,0,0,4.585,84.92,136.63965463494,3.937008,6,P-GPS,
13900,2022-08-23 22:07:34,-34.9051066250431,-56.1629711905792,3.937008,3.9698164,132.66983823494,136.63965463494,5.905512,0,1.65730320264,18.2794297188,14,4,7.462,136.96773863494,4.265092,2.8185444,3.6851051048,0,0,0,91.7, 0.1, -0.6,0,0,1024,1024,1024,1024,0,0,0,0,102.1,0,0,39,3.732,3.726,0,0,0,0,4.585,84.92,136.63965463494,3.937008,6,P-GPS,
14000,2022-08-23 22:07:34,-34.9051065757664,-56.16297142728,3.937008,3.9698164,132.66983823494,136.63965463494,5.905512,0,1.72302827036,18.3524940256,14,4,7.462,136.96773863494,4.265092,2.8185444,3.6851051048,0,0,0,91.7, 0, -0.7,0,0,1024,1024,1024,1024,0,0,0,0,102.1,0,0,39,3.732,3.726,0,0,0,0,4.585,84.92,136.63965463494,3.937008,6,P-GPS,
14100,2022-08-23 22:07:34,-34.9051064285518,-56.162971497886,3.937008,3.9698164,132.66983823494,136.63965463494,5.905512,0,1.7343176408,18.4102040012,14,4,7.462,136.96773863494,4.265092,2.8185444,3.6851051048,0,0,0,91.8, 0.2, -0.7,0,0,1024,1024,1024,1024,0,0,0,0,102.1,0,0,39,3.732,3.726,0,0,0,0,4.585,84.92,136.63965463494,3.937008,6,P-GPS,
14200,2022-08-23 22:07:34,-34.9051064351633,-56.1629716062603,3.937008,3.9698164,132.66983823494,136.63965463494,5.905512,0,1.76671265496,18.442749934,15,4,7.462,136.96773863494,4.265092,2.8185444,3.6851051048,0,0,0,91.8, 0.2, -0.8,0,0,1024,1024,1072,1024,0,0,7,0,102.1,0,0,39,3.732,3.726,0,0,0,0,4.585,84.92,136.63965463494,3.937008,6,P-GPS,
14300,2022-08-23 22:07:34,-34.9051064632605,-56.1629715671444,3.937008,3.9698164,132.66983823494,136.63965463494,5.905512,0,1.75683076488,18.4583011156,15,4,7.462,136.96773863494,4.265092,2.8185444,3.6851051048,0,0,0,91.8, 0.1, -0.9,0,0,1024,1024,1458,1024,0,0,66,0,102.1,0,0,39,3.732,3.726,0,0,0,0,4.585,84.92,136.63965463494,3.937008,6,P-GPS,
14400,2022-08-23 22:07:34,-34.9051064896706,-56.1629715007326,3.937008,3.9698164,132.66983823494,136.63965463494,5.905512,0,1.73888128924,18.4803811688,15,4,7.462,136.96773863494,4.265092,2.8185444,3.6851051048,0,0,0,91.8, 0, -0.8,0,0,1024,1024,1684,1024,0,0,100,0,102.1,0,0,39,3.732,3.726,0,0,0,0,4.585,84.92,136.63965463494,3.937008,6,P-GPS,
14500,2022-08-23 22:07:34,-34.9051065134133,-56.162971362174,3.937008,3.9698164,132.66983823494,136.63965463494,5.905512,0,1.6996227578,18.5227368132,15,4,7.462,136.96773863494,4.265092,2.8185444,3.6851051048,0,0,-0.447388,91.7, -0.1, -0.9,0,0,1024,1024,1684,1024,0,0,100,0,102.1,0,0,39,3.732,3.726,0,0,0,0,4.585,84.92,136.63965463494,3.937008,6,P-GPS,
14600,2022-08-23 22:07:34,-34.9051065764569,-56.1629703467755,3.937008,3.9698164,132.66983823494,136.63965463494,5.905512,0,1.4072507012,18.827428424,15,4,7.462,136.96773863494,4.265092,2.8185444,3.6851051048,0,0,-1.11847,91.6, 0, -0.7,0,0,1024,1024,1684,1024,0,0,100,0,102.1,0,0,39,3.733,3.727,0,0,0,0,4.585,84.92,136.63965463494,3.937008,6,P-GPS,
14700,2022-08-23 22:07:34,-34.9051065852309,-56.162970241415,4.265092,4.2979004,132.66983823494,136.96773863494,6.233596,0,1.37741802308,18.8591213384,15,4,7.462,136.96773863494,4.265092,2.8185444,3.6851051048,0,0,-1.789552,91.7, 0, -0.5,0,0,1024,1024,1684,1024,0,0,100,0,102.1,0,0,39,3.733,3.727,0,0,0,0,4.585,84.92,136.96773863494,4.265092,6,P-GPS,
14800,2022-08-23 22:07:34,-34.9051065949821,-56.1629701444114,4.593176,4.6259844,132.66983823494,137.29582263494,6.56168,0,1.3501804894,18.8883536228,14,4,7.462,137.29582263494,4.593176,2.8185444,3.6851051048,0,0,-2.684328,91.7, 0, -0.6,0,0,1024,1024,1684,1024,0,0,100,0,102.1,0,0,39,3.733,3.727,0,0,0,0,4.585,84.92,137.29582263494,4.593176,6,P-GPS,
14900,2022-08-23 22:07:35,-34.9051066016391,-56.1629700677936,5.249344,5.2821524,132.66983823494,137.95199063494,7.217848,0,1.32862865144,18.911417928,14,4,7.462,137.95199063494,5.249344,2.8185444,3.6851051048,0,0,-3.35541,91.6, 0.3, -0.9,0,0,1024,1024,1401,1024,0,0,57,0,102.1,0,0,39,3.733,3.727,0,0,0,0,4.585,84.92,137.95199063494,5.249344,6,P-GPS,
15000,2022-08-23 22:07:35,-34.9051065554043,-56.1629696116648,5.905512,5.9383204,132.66983823494,138.60815863494,7.545932,0,1.19255581244,19.0489179324,14,4,7.462,138.60815863494,5.905512,2.8185444,3.6851051048,0,0,-4.250186,91.6, 0.1, -1.1,0,0,1024,1024,1024,1024,0,0,0,0,102.1,0,0,39,3.733,3.727,0,0,0,0,4.585,84.92,138.60815863494,5.905512,6,P-GPS,
15100,2022-08-23 22:07:35,-34.9051064954809,-56.162969523786,6.56168,6.5944884,132.66983823494,139.26432663494,8.2021,0,1.16137798992,19.0831042852,14,4,7.462,139.26432663494,6.56168,2.8185444,3.6851051048,0,0,-4.250186,91.7, 0.1, -1,0,0,1024,1024,1024,1024,0,0,0,0,102.1,0,0,39,3.733,3.727,0,0,0,0,4.585,84.92,139.26432663494,6.56168,6,P-GPS,
15200,2022-08-23 22:07:35,-34.9051064293693,-56.1629694463011,6.889764,6.9225724,132.66983823494,139.59241063494,8.858268,0,1.13282812024,19.1165688532,14,4,7.462,139.59241063494,6.889764,2.8185444,3.6851051048,0,0,-3.579104,91.7, 0.1, -0.8,0,0,1024,1024,1024,1024,0,0,0,0,102.1,0,0,39,3.733,3.727,0,0,0,0,4.585,84.92,139.59241063494,6.889764,6,P-GPS,
15300,2022-08-23 22:07:35,-34.9051063521713,-56.1629693722322,7.545932,7.5787404,132.66983823494,140.24857863494,9.186352,0,1.1046260196,19.1524284344,14,4,7.462,140.24857863494,7.545932,2.8185444,3.6851051048,0,0,-2.908022,91.7, 0, -0.7,0,0,1024,1024,1024,1024,0,0,0,0,102.1,0,0,39,3.733,3.727,0,0,0,0,4.585,84.92,140.24857863494,7.545932,6,P-GPS,
15400,2022-08-23 22:07:35,-34.9051061106893,-56.1629690137128,7.874016,7.9068244,132.66983823494,140.57666263494,9.514436,0,0.98205711804,19.2912407748,14,4,7.462,140.57666263494,7.874016,2.8185444,3.6851051048,0,0,-2.23694,91.7, 0, -0.7,0,0,1024,1024,1024,1024,0,0,0,0,102.1,0,0,39,3.733,3.727,0,0,0,0,4.585,84.92,140.57666263494,7.874016,6,P-GPS,
15500,2022-08-23 22:07:35,-34.9051060894479,-56.1629687998526,8.2021,8.2349084,132.66983823494,140.90474663494,9.84252,0,0.91767391388,19.3556764724,14,4,7.462,140.90474663494,8.2021,2.8185444,3.6851051048,0,0,-1.342164,91.7, 0, -0.5,0,0,1024,1024,1024,1024,0,0,0,0,102.1,0,0,39,3.733,3.727,0,0,0,0,4.585,84.92,140.90474663494,8.2021,6,P-GPS,
15600,2022-08-23 22:07:35,-34.9051060682749,-56.1629686486332,8.2021,8.2349084,132.66983823494,140.90474663494,9.84252,0,0.87177168144,19.401575424,14,4,7.457,140.90474663494,8.2021,2.8185444,3.6851051048,0,0,-0.671082,91.7, 0, -0.3,0,0,1024,1024,1024,1024,0,0,0,0,102.1,0,0,39,3.748,3.744,0,0,0,0,4.627,84.92,140.90474663494,8.2021,6,P-GPS,
15700,2022-08-23 22:07:35,-34.9051060377253,-56.1629686359306,8.2021,8.2349084,132.66983823494,140.90474663494,10.170604,0,0.86620081512,19.4133536396,14,4,7.457,140.90474663494,8.2021,2.8185444,3.6851051048,0,0,-0.223694,91.7, 0, -0.4,0,0,1024,1024,1024,1024,0,0,0,0,102.1,0,0,39,3.748,3.744,0,0,0,0,4.627,84.92,140.90474663494,8.2021,6,P-GPS,
15800,2022-08-23 22:07:35,-34.9051057094603,-56.1629688620129,8.2021,8.2349084,132.66983823494,140.90474663494,10.170604,0,0.92320212928,19.5509192608,14,4,7.457,140.90474663494,8.2021,2.8185444,3.6851051048,0,0,-0.223694,91.8, 0.2, -0.3,0,0,1024,1024,1024,1024,0,0,0,0,102.1,0,0,39,3.748,3.744,0,0,0,0,4.627,84.92,140.90474663494,8.2021,6,P-GPS,
15900,2022-08-23 22:07:36,-34.9051055298592,-56.1629690667013,8.2021,8.2349084,132.66983823494,140.90474663494,10.170604,0,0.9855151234,19.6406174264,14,4,7.457,140.90474663494,8.2021,2.8185444,3.6851051048,0,0,0,91.7, 0.3, -0.5,0,0,1024,1024,1024,1024,0,0,0,0,102.1,0,0,39,3.748,3.744,0,0,0,0,4.627,84.92,140.90474663494,8.2021,6,P-GPS,
16000,2022-08-23 22:07:36,-34.905105311449,-56.1629694085172,8.530184,8.5629924,132.66983823494,141.23283063494,10.170604,0,1.09416342084,19.7702762232,14,4,7.457,141.23283063494,8.530184,2.8185444,3.6851051048,0,0,0,91.7, 0.1, -0.6,0,0,1024,1024,1323,1024,0,0,45,0,102.1,0,0,39,3.748,3.744,0,0,0,0,4.627,84.92,141.23283063494,8.530184,6,P-GPS,
16100,2022-08-23 22:07:36,-34.9051049252765,-56.1629701904897,8.530184,8.5629924,132.66983823494,141.23283063494,10.170604,0,1.34777891452,20.0433733448,14,4,7.457,141.23283063494,8.530184,2.8185444,3.6851051048,0,0,0,91.8, 0.2, -0.7,0,0,1024,1024,1578,1024,0,0,84,0,102.1,0,0,39,3.748,3.744,0,0,0,0,4.627,84.92,141.23283063494,8.530184,6,P-GPS,
16200,2022-08-23 22:07:36,-34.9051045605539,-56.1629708502832,8.530184,8.5629924,132.66983823494,141.23283063494,10.170604,0,1.570456087,20.2814639036,15,4,7.457,141.23283063494,8.530184,2.8185444,3.6851051048,0,0,-0.223694,91.8, 0.3, -0.6,0,0,1024,1024,1557,1024,0,0,81,0,102.1,0,0,39,3.748,3.744,0,0,0,0,4.627,84.92,141.23283063494,8.530184,6,P-GPS,
16300,2022-08-23 22:07:36,-34.9051035068562,-56.1629723357562,8.530184,8.5629924,132.66983823494,141.23283063494,10.170604,0,2.1143865506,20.8691279644,15,4,7.457,141.23283063494,8.530184,2.8185444,3.6851051048,0,0,-0.894776,91.7, 0.5, -0.6,0,0,1024,1024,1469,1024,0,0,67,0,102.1,0,0,39,3.748,3.744,0,0,0,0,4.627,84.92,141.23283063494,8.530184,6,P-GPS,
16400,2022-08-23 22:07:36,-34.9051032192079,-56.162972620212,8.858268,8.8910764,132.66983823494,141.56091463494,10.498688,0,2.23341870664,21.004265764,15,4,7.457,141.56091463494,8.858268,2.8185444,3.6851051048,0,0,-1.565858,91.6, 0.5, -1,0,0,1024,1024,1024,1024,0,0,0,0,102.1,0,0,39,3.748,3.744,0,0,0,0,4.627,84.92,141.56091463494,8.858268,6,P-GPS,
16500,2022-08-23 22:07:36,-34.9051030232311,-56.1629727576633,9.186352,9.2191604,132.66983823494,141.88899863494,10.826772,0,2.30020348568,21.0867460816,15,4,7.457,141.88899863494,9.186352,2.8185444,3.6851051048,0,0,-2.460634,91.6, 0.1, -1.1,0,0,1024,1024,1024,1024,0,0,0,0,102.1,0,0,39,3.748,3.744,0,0,0,0,4.627,84.92,141.88899863494,9.186352,6,P-GPS,
16600,2022-08-23 22:07:36,-34.9051028652949,-56.1629728277835,9.514436,9.5472444,132.66983823494,142.21708263494,11.154856,0,2.34379600676,21.1480649812,16,4,7.374,142.21708263494,9.514436,2.8185444,3.6851051048,0,0,-2.23694,91.6, 0.2, -1.3,0,0,1024,1024,1024,1024,0,0,0,0,102.1,0,0,39,3.702,3.693,0,0,0,0,6.096,84.92,142.21708263494,9.514436,6,P-GPS,
16700,2022-08-23 22:07:36,-34.9051030053411,-56.1629720330719,9.84252,9.8753284,132.66983823494,142.54516663494,11.48294,0,2.10828746904,21.3912736504,16,4,7.374,142.54516663494,9.84252,2.8185444,3.6851051048,0,0,-1.789552,91.5, 0.5, -1,0,0,1024,1024,1024,1024,0,0,0,0,102.1,0,0,39,3.702,3.693,0,0,0,0,6.096,84.92,142.54516663494,9.84252,6,P-GPS,
16800,2022-08-23 22:07:37,-34.9051029192517,-56.1629720316407,10.170604,10.2034124,132.66983823494,142.87325063494,11.48294,0,2.12254599968,21.4227040976,15,4,7.374,142.87325063494,10.170604,2.8185444,3.6851051048,0,0,-1.11847,91.5, 0.4, -0.8,0,0,1634,1024,1024,1024,92,0,0,0,102.1,0,0,39,3.702,3.693,0,0,0,0,6.096,84.92,142.87325063494,10.170604,6,P-GPS,
16900,2022-08-23 22:07:37,-34.9051028599634,-56.1629720770818,10.170604,10.2034124,132.66983823494,142.87325063494,11.811024,0,2.14477697152,21.4482618412,15,4,7.374,142.87325063494,10.170604,2.8185444,3.6851051048,0,0,-0.671082,91.6, -3.2, -0.7,0,0,1684,1024,1024,1024,100,0,0,0,102.1,0,0,39,3.702,3.693,0,0,0,0,6.096,84.92,142.87325063494,10.170604,6,P-GPS,
