time(millisecond),datetime(utc),latitude,longitude,height_above_takeoff(feet),height_above_ground_at_drone_location(feet),ground_elevation_at_drone_location(feet),altitude_above_seaLevel(feet),height_sonar(feet),speed(mph),distance(feet),mileage(feet),satellites,gpslevel,voltage(v),max_altitude(feet),max_ascent(feet),max_speed(mph),max_distance(feet), xSpeed(mph), ySpeed(mph), zSpeed(mph), compass_heading(degrees), pitch(degrees), roll(degrees),isPhoto,isVideo,rc_elevator,rc_aileron,rc_throttle,rc_rudder,rc_elevator(percent),rc_aileron(percent),rc_throttle(percent),rc_rudder(percent),gimbal_heading(degrees),gimbal_pitch(degrees),gimbal_roll(degrees),battery_percent,voltageCell1,voltageCell2,voltageCell3,voltageCell4,voltageCell5,voltageCell6,current(A),battery_temperature(f),altitude(feet),ascent(feet),flycStateRaw,flycState,message
0,2025-05-02 19:22:11,0,0,0,,,0,0.328084,0,0,0,12,2,0,0,0,0,0,0,0,0,290.2, 2.1, 1.5,0,0,364,364,364,1684,-100,-100,-100,100,312.5,0,0,100,4.335,4.333,0,0,0,0,0,84.74,0,0,41,Motors_Started,"Error de calibración del estabilizador. Reinicia la aeronave o contacta con la Asistencia DJI (Code: 40011). Señal de posicionamiento por satélite débil. Vuelo estacionario inestable. Vuela con cuidado (Code: 30008). Señal de posicionamiento por saté"
100,2025-05-02 19:22:11,0,0,0,,,0,0.328084,0,0,0,12,2,0,0,0,0,0,0,0,0,290.2, 2.2, 1.5,0,0,364,364,364,1684,-100,-100,-100,100,312.5,0,0,100,4.335,4.333,0,0,0,0,0,84.74,0,0,41,Motors_Started,
200,2025-05-02 19:22:11,0,0,0,,,0,0.328084,0,0,0,12,2,0,0,0,0,0,0,0,0,290.3, 2.4, 1.5,0,0,364,364,364,1684,-100,-100,-100,100,312.5,0,0,100,4.335,4.333,0,0,0,0,0,84.74,0,0,41,Motors_Started,
300,2025-05-02 19:22:11,0,0,0,,,0,0.328084,0,0,0,13,2,0,0,0,0,0,0,0,0,290.3, 2.4, 1.5,0,0,364,364,364,1684,-100,-100,-100,100,312.5,0,0,100,4.335,4.333,0,0,0,0,0,84.74,0,0,41,Motors_Started,"Setting new Return-To-Home altitude to 100m (328 ft). Data Recorder File Index is 58. Setting new Maximum Flight Altitude to 500m (1640 ft)"
400,2025-05-02 19:22:11,0,0,0,,,0,0.328084,0,0,0,13,2,0,0,0,0,0,0,0,0,290.3, 2.4, 1.6,0,0,364,364,364,1684,-100,-100,-100,100,312.5,0,0,100,4.335,4.333,0,0,0,0,0,84.74,0,0,41,Motors_Started,
500,2025-05-02 19:22:11,0,0,0,,,0,0.328084,0,0,0,13,2,0,0,0,0,0,0,0,0,290.3, 2.4, 1.6,0,0,364,364,364,1684,-100,-100,-100,100,312.6,0,0,100,4.335,4.333,0,0,0,0,0,84.74,0,0,41,Motors_Started,
600,2025-05-02 19:22:12,0,0,0,,,0,0.328084,0,0,0,13,2,0,0,0,0,0,0,0,0,290.3, 2.3, 1.6,0,0,731,554,1024,1047,-44,-71,0,3,312.6,0,0,100,4.335,4.333,0,0,0,0,0,84.74,0,0,41,Motors_Started,
700,2025-05-02 19:22:12,0,0,0,,,0,0.328084,0,0,0,14,2,0,0,0,0,0,0,0,0,290.3, 2.3, 1.6,0,0,1024,1024,1024,1024,0,0,0,0,312.6,0,0,100,4.335,4.333,0,0,0,0,0,84.74,0,0,41,Motors_Started,
800,2025-05-02 19:22:12,0,0,0,,,0,0.328084,0,0,0,14,2,0,0,0,0,0,0,0,0,290.3, 2.4, 1.6,0,0,1024,1024,1024,1024,0,0,0,0,312.6,0,0,100,4.335,4.333,0,0,0,0,0,84.74,0,0,41,Motors_Started,
900,2025-05-02 19:22:12,0,0,0,,,0,0.328084,0,0,0,14,2,0,0,0,0,0,0,0,0,290.3, 2.4, 1.6,0,0,1024,1024,1024,1024,0,0,0,0,312.6,0,0,100,4.335,4.333,0,0,0,0,0,84.74,0,0,41,Motors_Started,
1000,2025-05-02 19:22:12,0,0,0,,,0,0.328084,0,0,0,14,2,8.677,0,0,0,0,0,0,0,290.3, 2.4, 1.6,0,0,1024,1024,1024,1024,0,0,0,0,312.6,0,0,100,4.335,4.333,0,0,0,0,0.89,84.74,0,0,41,Motors_Started,
1100,2025-05-02 19:22:12,0,0,0,,,0,0.328084,0,0,0,14,2,8.677,0,0,0,0,0,0,0,290.3, 2.4, 1.6,0,0,1024,1024,1124,1024,0,0,15,0,312.6,0,0,100,4.335,4.333,0,0,0,0,0.89,84.74,0,0,10,Assisted_Takeoff,
1200,2025-05-02 19:22:12,0,0,0,,,0,0.328084,0,0,0,14,2,8.677,0,0,0,0,0,0,0,290.3, 2.3, 1.5,0,0,1024,1024,1408,1024,0,0,58,0,312.6,0,0,100,4.335,4.333,0,0,0,0,0.89,84.74,0,0,10,Assisted_Takeoff,
1300,2025-05-02 19:22:12,0,0,0,,,0,0.328084,0,0,0,14,2,8.677,0,0,0,0,0,0,0,290.3, 2.3, 1.5,0,0,1024,1024,1653,1024,0,0,95,0,312.6,0,0,100,4.335,4.333,0,0,0,0,0.89,84.74,0,0,10,Assisted_Takeoff,
1400,2025-05-02 19:22:12,0,0,0,,,0,0.328084,0,0,0,14,2,8.677,0,0,0,0,0,0,0,290.3, 2.4, 1.6,0,0,1024,1024,1348,1024,0,0,49,0,312.6,0,0,100,4.335,4.333,0,0,0,0,0.89,84.74,0,0,10,Assisted_Takeoff,
1500,2025-05-02 19:22:13,0,0,0,,,0,0.328084,0,0,0,14,2,8.677,0,0,0,0,0,0,0,290, 2.2, 1.5,0,0,1024,1024,1035,1024,0,0,2,0,312.5,0,0,100,4.335,4.333,0,0,0,0,0.89,84.74,0,0,10,Assisted_Takeoff,
1600,2025-05-02 19:22:13,0,0,0,,,0,0.328084,0,0,0,14,2,8.677,0,0,0,0,0,0,0,289, 0.6, 1.4,0,0,1024,1024,1235,1024,0,0,32,0,312,0,0,100,4.335,4.333,0,0,0,0,0.89,84.74,0,0,10,Assisted_Takeoff,
1700,2025-05-02 19:22:13,0,0,0,,,0,0.328084,0,0,0,14,2,8.677,0,0,0,0,0,0,0,288.6, -2.4, 1.2,0,0,1024,1024,1201,1024,0,0,27,0,311.3,0,0,100,4.335,4.333,0,0,0,0,0.89,84.74,0,0,10,Assisted_Takeoff,
1800,2025-05-02 19:22:13,0,0,0,,,0,0.328084,0,0,0,14,2,8.677,0,0,0,0,0,0,0,286.9, -3, 1.4,0,0,1024,1024,1201,1024,0,0,27,0,310.4,0,0,100,4.335,4.333,0,0,0,0,0.89,84.74,0,0,10,Assisted_Takeoff,
1900,2025-05-02 19:22:13,0,0,0,,,0,0.328084,0,0,0,14,2,8.677,0,0,0,0,0,0,0,284.6, -3.6, 0.4,0,0,1024,1024,1544,1024,0,0,79,0,308,0,0,100,4.335,4.333,0,0,0,0,0.89,84.74,0,0,10,Assisted_Takeoff,
2000,2025-05-02 19:22:13,0,0,0,,,0,0.328084,0.223694,0,0,14,2,8.666,0,0,0.223694,0,0,-0.223694,-0.223694,283.8, -3.6, -0.1,0,0,1024,1024,1684,1024,0,0,100,0,306.6,0,0,100,4.313,4.306,0,0,0,0,1.557,84.74,0,0,10,Assisted_Takeoff,
2100,2025-05-02 19:22:13,0,0,0,,,0,0.328084,0.223694,0,0,14,2,8.666,0,0,0.223694,0,0,-0.223694,-0.671082,283.8, 0.7, 0.2,0,0,1024,1024,1684,1024,0,0,100,0,306.5,0,0,100,4.313,4.306,0,0,0,0,1.557,84.74,0,0,6,P-GPS,
2200,2025-05-02 19:22:13,0,0,0,,,0,0.656168,0.223694,0,0,14,2,8.666,0,0,0.223694,0,0,-0.223694,-1.11847,283.6, 2.5, -0.6,0,0,1024,1024,1684,1024,0,0,100,0,306.5,0,0,100,4.313,4.306,0,0,0,0,1.557,84.74,0,0,6,P-GPS,
2300,2025-05-02 19:22:13,0,0,0.328084,,,0.328084,0.656168,0,0,0,14,2,8.666,0.328084,0.328084,0.223694,0,0,0,-1.565858,283.7, 1.4, 0.4,0,0,1024,1024,1451,1024,0,0,65,0,306.5,0,0,100,4.313,4.306,0,0,0,0,1.557,84.74,0.328084,0.328084,6,P-GPS,
2400,2025-05-02 19:22:13,0,0,0.656168,,,0.656168,0.984252,0,0,0,14,2,8.666,0.656168,0.656168,0.223694,0,0,0,-2.013246,284.1, -0.4, 1.1,0,0,1024,1024,1024,1024,0,0,0,0,306.5,0,0,100,4.313,4.306,0,0,0,0,1.557,84.74,0.656168,0.656168,6,P-GPS,
2500,2025-05-02 19:22:13,0,0,0.984252,,,0.984252,1.312336,0,0,0,14,2,8.666,0.984252,0.984252,0.223694,0,0,0,-2.684328,284.1, -1.2, -0.6,0,0,1684,1024,1024,1024,100,0,0,0,306.5,0,0,100,4.313,4.306,0,0,0,0,1.557,84.74,0.984252,0.984252,6,P-GPS,
2600,2025-05-02 19:22:14,0,0,1.64042,,,1.64042,1.64042,0.223694,0,0,14,2,8.666,1.64042,1.64042,0.223694,0,0.223694,0,-2.684328,284.1, -1.9, -1.2,0,0,1684,1024,1024,1024,100,0,0,0,306.5,0,0,100,4.313,4.306,0,0,0,0,1.557,84.74,1.64042,1.64042,6,P-GPS,
2700,2025-05-02 19:22:14,0,0,1.968504,,,1.968504,1.968504,0,0,0,13,2,8.666,1.968504,1.968504,0.223694,0,0,0,-2.460634,284.5, -10.9, -2.8,0,0,1684,1024,1024,1024,100,0,0,0,306.5,0,0,100,4.313,4.306,0,0,0,0,1.557,84.74,1.968504,1.968504,6,P-GPS,
2800,2025-05-02 19:22:14,0,0,2.296588,,,2.296588,2.296588,0.223694,0,0,13,2,8.666,2.296588,2.296588,0.223694,0,0,-0.223694,-2.013246,284.9, -17.1, -2.2,0,0,1684,1024,1024,1024,100,0,0,0,306.5,0,0,100,4.313,4.306,0,0,0,0,1.557,84.74,2.296588,2.296588,6,P-GPS,
2900,2025-05-02 19:22:14,0,0,2.296588,,,2.296588,2.624672,0.7158208,0,0,14,2,8.666,2.296588,2.296588,0.7158208,0,0.223694,-0.671082,-1.342164,284.8, -19.3, -1.6,0,0,1684,1024,1192,1024,100,0,25,0,306.5,0,0,100,4.313,4.306,0,0,0,0,1.557,84.74,2.296588,2.296588,6,P-GPS,"Error de calibración del estabilizador. Reinicia la aeronave o contacta con la Asistencia DJI (Code: 40011)"
3000,2025-05-02 19:22:14,0,0,2.624672,,,2.624672,2.624672,1.4092722,0,0,14,2,8.468,2.624672,2.624672,1.4092722,0,0.447388,-1.342164,-0.671082,284.6, -19.2, -1.4,0,0,1684,1024,1684,1024,100,0,100,0,306.5,0,0,100,4.268,4.268,0,0,0,0,4.211,84.74,2.624672,2.624672,6,P-GPS,
3100,2025-05-02 19:22:14,0,0,2.624672,,,2.624672,2.624672,2.125093,0,0,14,2,8.468,2.624672,2.624672,2.125093,0,0.671082,-2.013246,-0.671082,284.6, -19.7, -1.1,0,0,1684,1024,1684,1024,100,0,100,0,306.5,0,0,100,4.268,4.268,0,0,0,0,4.211,84.74,2.624672,2.624672,6,P-GPS,
3200,2025-05-02 19:22:14,0,0,2.624672,,,2.624672,2.952756,3.0422384,0,0,14,2,8.468,2.624672,2.624672,3.0422384,0,0.894776,-2.908022,-0.894776,284.3, -17.7, -1.1,0,0,1684,1024,1684,1024,100,0,100,0,306.5,0,0,100,4.268,4.268,0,0,0,0,4.211,84.74,2.624672,2.624672,6,P-GPS,
3300,2025-05-02 19:22:14,0,0,2.952756,,,2.952756,2.952756,3.9593838,0,0,14,2,8.468,2.952756,2.952756,3.9593838,0,1.11847,-3.802798,-1.342164,283.8, -15.1, -1,0,0,1684,1014,1684,1024,100,-2,100,0,306.5,0,0,100,4.268,4.268,0,0,0,0,4.211,84.74,2.952756,2.952756,6,P-GPS,
3400,2025-05-02 19:22:14,0,0,3.28084,,,3.28084,3.608924,4.4515106,0,0,14,2,8.468,3.28084,3.28084,4.4515106,0,1.342164,-4.250186,-2.013246,284.1, -14.2, -2.1,0,0,1684,1001,1684,1024,100,-3,100,0,306.5,0,0,100,4.268,4.268,0,0,0,0,4.211,84.74,3.28084,3.28084,6,P-GPS,
3500,2025-05-02 19:22:14,0,0,3.608924,,,3.608924,3.937008,5.1002232,0,0,13,2,8.468,3.608924,3.608924,5.1002232,0,1.342164,-4.921268,-2.908022,284.2, -12.8, -2.7,0,0,1684,1001,1684,1024,100,-3,100,0,306.5,0,0,100,4.268,4.268,0,0,0,0,4.211,84.74,3.608924,3.608924,6,P-GPS,
3600,2025-05-02 19:22:15,0,0,4.265092,,,4.265092,4.92126,5.59235,0,0,13,2,8.468,4.265092,4.265092,5.59235,0,1.565858,-5.368656,-3.802798,284.2, -13, -2,0,0,1684,995,1684,1024,100,-4,100,0,306.5,0,0,100,4.268,4.268,0,0,0,0,4.211,84.74,4.265092,4.265092,6,P-GPS,
3700,2025-05-02 19:22:15,0,0,4.92126,,,4.92126,5.577428,6.2410626,0,0,14,2,8.468,4.92126,4.92126,6.2410626,0,1.565858,-6.039738,-4.47388,284.6, -12.9, -1.8,0,0,1684,995,1684,1024,100,-4,100,0,306.5,0,0,100,4.268,4.268,0,0,0,0,4.211,84.74,4.92126,4.92126,6,P-GPS,
3800,2025-05-02 19:22:15,0,0,5.577428,,,5.577428,6.233596,6.6660812,0,0,14,2,8.468,5.577428,5.577428,6.6660812,0,1.565858,-6.487126,-5.368656,284.6, -13, -1.5,0,0,1684,993,1684,1024,100,-5,100,0,306.5,0,0,100,4.268,4.268,0,0,0,0,4.211,84.74,5.577428,5.577428,6,P-GPS,
3900,2025-05-02 19:22:15,0,0,6.56168,,,6.56168,7.217848,7.158208,0,0,14,2,8.468,6.56168,6.56168,7.158208,0,1.789552,-6.934514,-5.816044,284.7, -12.5, -1.3,0,0,1684,992,1684,1024,100,-5,100,0,306.5,0,0,100,4.268,4.268,0,0,0,0,4.211,84.74,6.56168,6.56168,6,P-GPS,
4000,2025-05-02 19:22:15,0,0,7.545932,,,7.545932,7.874016,7.605596,0,0,14,2,8.444,7.545932,7.545932,7.605596,0,1.789552,-7.381902,-6.039738,284.8, -12.8, -2.2,0,0,1684,993,1684,1024,100,-5,100,0,306.5,0,0,99,4.192,4.19,0,0,0,0,4.42,84.92,7.545932,7.545932,6,P-GPS,
4100,2025-05-02 19:22:15,0,0,8.530184,,,8.530184,11.154856,7.8069206,0,0,14,2,8.444,8.530184,8.530184,7.8069206,0,1.789552,-7.605596,-6.263432,284.7, -11.7, -1.3,0,0,1684,992,1684,1024,100,-5,100,0,306.5,0,0,99,4.192,4.19,0,0,0,0,4.42,84.92,8.530184,8.530184,6,P-GPS,
4200,2025-05-02 19:22:15,0,0,9.514436,,,9.514436,12.139108,8.2990474,0,0,14,2,8.444,9.514436,9.514436,8.2990474,0,2.013246,-8.052984,-6.487126,284.5, -11.7, -1.5,0,0,1684,964,1684,1024,100,-9,100,0,306.5,0,0,99,4.192,4.19,0,0,0,0,4.42,84.92,9.514436,9.514436,6,P-GPS,
4300,2025-05-02 19:22:15,0,0,10.498688,,,10.498688,13.12336,8.5227414,0,0,14,2,8.444,10.498688,10.498688,8.5227414,0,2.013246,-8.276678,-6.487126,284.5, -11.9, -0.8,0,0,1684,962,1684,1024,100,-9,100,0,306.5,0,0,99,4.192,4.19,0,0,0,0,4.42,84.92,10.498688,10.498688,6,P-GPS,
4400,2025-05-02 19:22:15,0,0,11.48294,,,11.48294,14.435696,8.94776,0,0,14,2,8.444,11.48294,11.48294,8.94776,0,2.013246,-8.724066,-6.487126,284.4, -12.3, -0.2,0,0,1684,963,1684,1024,100,-9,100,0,306.5,0,0,99,4.192,4.19,0,0,0,0,4.42,84.92,11.48294,11.48294,6,P-GPS,
4500,2025-05-02 19:22:15,0,0,12.467192,,,12.467192,15.419948,8.94776,0,0,14,2,8.444,12.467192,12.467192,8.94776,0,2.23694,-8.94776,-6.487126,284.3, -11.6, -1.4,0,0,1684,964,1684,1024,100,-9,100,0,306.5,0,0,99,4.192,4.19,0,0,0,0,4.42,84.92,12.467192,12.467192,6,P-GPS,
4600,2025-05-02 19:22:16,0,0,13.451444,,,13.451444,16.076116,9.4398868,0,0,14,2,8.444,13.451444,13.451444,9.4398868,0,2.23694,-9.171454,-6.487126,284.8, -11.8, -1.3,0,0,1684,964,1684,1024,100,-9,100,0,306.5,0,0,99,4.192,4.19,0,0,0,0,4.42,84.92,13.451444,13.451444,6,P-GPS,
4700,2025-05-02 19:22:16,0,0,14.435696,,,14.435696,17.060368,9.7083196,0,0,14,2,8.444,14.435696,14.435696,9.7083196,0,1.342164,-9.618842,-6.487126,279.6, -13.9, -1.3,0,0,1684,964,1684,1024,100,-9,100,0,306.5,0,0,99,4.192,4.19,0,0,0,0,4.42,84.92,14.435696,14.435696,6,P-GPS,
4800,2025-05-02 19:22:16,0,0,15.419948,,,15.419948,18.04462,9.9767524,0,0,14,2,8.444,15.419948,15.419948,9.9767524,0,1.565858,-9.842536,-6.487126,279.6, -14.8, -1.3,0,0,1684,977,1684,1024,100,-7,100,0,306.5,0,0,99,4.192,4.19,0,0,0,0,4.42,84.92,15.419948,15.419948,6,P-GPS,
4900,2025-05-02 19:22:16,0,0,16.4042,,,16.4042,19.028872,9.9767524,0,0,14,2,8.444,16.4042,16.4042,9.9767524,0,1.565858,-9.842536,-6.487126,279.4, -14.6, -2.5,0,0,1684,970,1684,1024,100,-8,100,0,306.5,0,0,99,4.192,4.19,0,0,0,0,4.42,84.92,16.4042,16.4042,6,P-GPS,"Señal de posicionamiento por satélite débil. Vuelo estacionario inestable. Vuela con cuidado (Code: 30002). Error de calibración del estabilizador. Reinicia la aeronave o contacta con la Asistencia DJI (Code: 40011)"
5000,2025-05-02 19:22:16,0,0,17.716536,,,17.716536,19.68504,10.401771,0,0,14,2,8.414,17.716536,17.716536,10.401771,0,1.565858,-10.289924,-6.487126,279.4, -14.2, -3,0,0,1684,971,1684,1024,100,-8,100,0,306.5,0,0,99,4.211,4.205,0,0,0,0,6.022,84.92,17.716536,17.716536,6,P-GPS,
5100,2025-05-02 19:22:16,0,0,18.700788,,,18.700788,20.013124,10.625465,0,0,14,2,8.414,18.700788,18.700788,10.625465,0,1.565858,-10.513618,-6.487126,279.7, -14, -2.9,0,0,1684,980,1684,1024,100,-7,100,0,306.5,0,0,99,4.211,4.205,0,0,0,0,6.022,84.92,18.700788,18.700788,6,P-GPS,"Error de calibración del estabilizador. Reinicia la aeronave o contacta con la Asistencia DJI (Code: 40011)"
5200,2025-05-02 19:22:16,0,0,19.68504,,,19.68504,20.669292,10.8938978,0,0,14,2,8.414,19.68504,19.68504,10.8938978,0,1.789552,-10.737312,-6.487126,279.7, -14, -3.1,0,0,1684,984,1684,1024,100,-6,100,0,306.5,0,0,99,4.211,4.205,0,0,0,0,6.022,84.92,19.68504,19.68504,6,P-GPS,
5300,2025-05-02 19:22:16,0,0,20.669292,,,20.669292,21.32546,10.8938978,0,0,14,2,8.414,20.669292,20.669292,10.8938978,0,1.789552,-10.737312,-6.487126,279.6, -14.2, -3,0,0,1684,1016,1684,1024,100,-1,100,0,306.5,0,0,99,4.211,4.205,0,0,0,0,6.022,84.92,20.669292,20.669292,6,P-GPS,
5400,2025-05-02 19:22:16,0,0,21.653544,,,21.653544,21.981628,11.0952224,0,0,14,2,8.414,21.653544,21.653544,11.0952224,0,1.789552,-10.961006,-6.487126,279.7, -14.8, -2.8,0,0,1684,1016,1684,1024,100,-1,100,0,306.5,0,0,99,4.211,4.205,0,0,0,0,6.022,84.92,21.653544,21.653544,6,P-GPS,
5500,2025-05-02 19:22:16,0,0,22.96588,,,22.96588,22.637796,11.5426104,0,0,14,2,8.414,22.96588,22.96588,11.5426104,0,1.789552,-11.408394,-6.487126,279.7, -14.9, -2.9,0,0,1684,1024,1684,1024,100,0,100,0,306.5,0,0,99,4.211,4.205,0,0,0,0,6.022,84.92,22.96588,22.96588,6,P-GPS,
5600,2025-05-02 19:22:17,0,0,23.950132,,,23.950132,23.622048,11.7663044,0,0,14,2,8.414,23.950132,23.950132,11.7663044,0,1.789552,-11.632088,-6.487126,279.4, -14.3, -3.2,0,0,1528,1024,1347,1024,76,0,49,0,306.5,0,0,99,4.211,4.205,0,0,0,0,6.022,84.92,23.950132,23.950132,6,P-GPS,
5700,2025-05-02 19:22:17,0,0,24.934384,,,24.934384,24.278216,11.967629,0,0,14,2,8.414,24.934384,24.934384,11.967629,0,1.565858,-11.855782,-6.487126,279.6, -13.6, -1.5,0,0,1212,1024,1220,1024,28,0,30,0,306.5,0,0,99,4.211,4.205,0,0,0,0,6.022,84.92,24.934384,24.934384,6,P-GPS,
5800,2025-05-02 19:22:17,0,0,25.918636,,,25.918636,25.262468,11.9899984,0,0,14,2,8.414,25.918636,25.918636,11.9899984,0,1.789552,-11.855782,-6.039738,279.6, -8.3, -1.9,0,0,1083,1024,1123,1024,9,0,15,0,306.5,0,0,99,4.211,4.205,0,0,0,0,6.022,84.92,25.918636,25.918636,6,P-GPS,
5900,2025-05-02 19:22:17,0,0,26.574804,,,26.574804,25.918636,11.7663044,0,0,13,2,8.414,26.574804,26.574804,11.9899984,0,1.789552,-11.632088,-5.368656,279.4, -2.7, -2.5,0,0,1077,1024,1086,1024,8,0,9,0,306.5,0,0,99,4.211,4.205,0,0,0,0,6.022,84.92,26.574804,26.574804,6,P-GPS,
6000,2025-05-02 19:22:17,0,0,27.230972,,,27.230972,26.574804,11.3636552,0,0,13,2,8.414,27.230972,27.230972,11.9899984,0,2.013246,-11.1847,-4.697574,279.2, 1.3, -2.7,0,0,1425,1024,1459,1024,61,0,66,0,306.5,0,0,99,4.211,4.205,0,0,0,0,6.022,84.92,27.230972,27.230972,6,P-GPS,
6100,2025-05-02 19:22:17,0,0,27.88714,,,27.88714,27.230972,10.9162672,0,0,14,2,8.39,27.88714,27.88714,11.9899984,0,2.013246,-10.737312,-3.802798,279, 2.6, -4,0,0,1626,1024,1684,1024,91,0,100,0,306.5,0,0,99,4.238,4.241,0,0,0,0,5.854,84.92,27.88714,27.88714,6,P-GPS,
6200,2025-05-02 19:22:17,0,0,28.215224,,,28.215224,28.215224,10.7149426,0,0,14,2,8.39,28.215224,28.215224,11.9899984,0,2.013246,-10.513618,-3.131716,279.1, -0.2, -3.8,0,0,1626,1024,1684,1024,91,0,100,0,306.5,0,0,99,4.238,4.241,0,0,0,0,5.854,84.92,28.215224,28.215224,6,P-GPS,
6300,2025-05-02 19:22:17,0,0,28.871392,,,28.871392,28.871392,10.4912486,0,0,13,2,8.39,28.871392,28.871392,11.9899984,0,2.013246,-10.289924,-3.35541,279.6, -8, -3.5,0,0,1684,1024,1684,1024,100,0,100,0,306.5,0,0,99,4.238,4.241,0,0,0,0,5.854,84.92,28.871392,28.871392,6,P-GPS,
6400,2025-05-02 19:22:17,0,0,29.52756,,,29.52756,29.52756,10.7149426,0,0,13,2,8.39,29.52756,29.52756,11.9899984,0,2.013246,-10.513618,-3.802798,279.5, -14.5, -3.6,0,0,1634,1024,1684,1024,92,0,100,0,306.5,0,0,99,4.238,4.241,0,0,0,0,5.854,84.92,29.52756,29.52756,6,P-GPS,
6500,2025-05-02 19:22:18,0,0,30.183728,,,30.183728,30.511812,11.4531328,0,0,15,2,8.39,30.183728,30.183728,11.9899984,0,2.460634,-11.1847,-4.47388,279.4, -14.7, -4,0,0,1343,1024,1385,1024,48,0,55,0,306.5,0,0,99,4.238,4.241,0,0,0,0,5.854,84.92,30.183728,30.183728,6,P-GPS,
6600,2025-05-02 19:22:18,0,0,31.16798,,,31.16798,31.16798,11.6768268,0,0,15,2,8.39,31.16798,31.16798,11.9899984,0,2.460634,-11.408394,-4.921268,279.5, -12.1, -4.4,0,0,1127,1024,1187,1024,16,0,25,0,306.5,0,0,99,4.238,4.241,0,0,0,0,5.854,84.92,31.16798,31.16798,6,P-GPS,
6700,2025-05-02 19:22:18,0,0,31.824148,,,31.824148,31.824148,11.9452596,0,0,14,2,8.39,31.824148,31.824148,11.9899984,0,2.684328,-11.632088,-4.921268,279.1, -3.8, -6,0,0,1073,1024,1095,1024,7,0,11,0,306.5,0,0,99,4.238,4.241,0,0,0,0,5.854,84.92,31.824148,31.824148,6,P-GPS,
6800,2025-05-02 19:22:18,0,0,32.480316,,,32.480316,32.480316,11.6768268,0,0,14,2,8.39,32.480316,32.480316,11.9899984,0,2.460634,-11.408394,-4.250186,278.8, 3.6, -5.8,0,0,1024,1024,1024,1024,0,0,0,0,306.5,0,0,99,4.238,4.241,0,0,0,0,5.854,84.92,32.480316,32.480316,6,P-GPS,
6900,2025-05-02 19:22:18,0,0,33.136484,,,33.136484,33.136484,11.6768268,0,0,14,2,8.39,33.136484,33.136484,11.9899984,0,2.23694,-11.1847,-3.802798,278.8, 5.7, -6,0,0,1024,1024,1024,1024,0,0,0,0,306.5,0,0,99,4.238,4.241,0,0,0,0,5.854,84.92,33.136484,33.136484,6,P-GPS,
7000,2025-05-02 19:22:18,0,0,33.464568,,,33.464568,33.464568,10.7149426,0,0,14,2,8.39,33.464568,33.464568,11.9899984,0,2.013246,-10.513618,-3.131716,278.3, 14.8, -6.1,0,0,1024,1024,1024,1024,0,0,0,0,306.5,0,0,99,4.238,4.241,0,0,0,0,5.854,84.92,33.464568,33.464568,6,P-GPS,
7100,2025-05-02 19:22:18,0,0,33.792652,,,33.792652,34.120736,10.0438606,0,0,15,2,8.341,33.792652,33.792652,11.9899984,0,2.013246,-9.842536,-2.460634,278.4, 21.5, -2.7,0,0,1024,1024,1024,1024,0,0,0,0,306.5,0,0,99,4.215,4.217,0,0,0,0,5.203,84.92,33.792652,33.792652,6,P-GPS,
7200,2025-05-02 19:22:18,0,0,34.120736,,,34.120736,34.44882,10.0438606,0,0,15,2,8.341,34.120736,34.120736,11.9899984,0,1.789552,-8.94776,-1.565858,278.8, 21.1, -2.6,0,0,1024,1024,1024,1024,0,0,0,0,306.5,0,0,99,4.215,4.217,0,0,0,0,5.203,84.92,34.120736,34.120736,6,P-GPS,
7300,2025-05-02 19:22:18,0,0,34.120736,,,34.120736,34.44882,8.6793272,0,0,15,2,8.341,34.120736,34.120736,11.9899984,0,1.789552,-8.500372,-0.894776,278.9, 20.2, -1.7,0,0,1024,1024,1024,1024,0,0,0,0,306.5,0,0,99,4.215,4.217,0,0,0,0,5.203,84.92,34.120736,34.120736,6,P-GPS,
7400,2025-05-02 19:22:18,0,0,34.44882,,,34.44882,34.44882,7.8069206,0,0,15,2,8.341,34.44882,34.44882,11.9899984,0,1.789552,-7.605596,-0.447388,279.1, 19.6, -0.7,0,0,1024,1024,1024,1024,0,0,0,0,306.5,0,0,99,4.215,4.217,0,0,0,0,5.203,84.92,34.44882,34.44882,6,P-GPS,
7500,2025-05-02 19:22:18,0,0,34.44882,,,34.44882,34.776904,6.7331894,0,0,16,2,8.341,34.44882,34.44882,11.9899984,0,1.789552,-6.487126,0,278.7, 19.3, -0.8,0,0,1024,1024,1024,1024,0,0,0,0,306.5,0,0,99,4.215,4.217,0,0,0,0,5.203,84.92,34.44882,34.44882,6,P-GPS,
7600,2025-05-02 19:22:19,0,0,34.776904,,,34.776904,34.776904,5.816044,0,0,16,2,8.341,34.776904,34.776904,11.9899984,0,1.565858,-5.59235,0,278.3, 18.8, -1.6,0,0,1024,1024,1024,1024,0,0,0,0,306.5,0,0,99,4.215,4.217,0,0,0,0,5.203,84.92,34.776904,34.776904,6,P-GPS,
7700,2025-05-02 19:22:19,0,0,35.104988,,,35.104988,34.776904,4.9436374,0,0,16,2,8.341,35.104988,35.104988,11.9899984,0,1.565858,-4.697574,0,278.2, 18.8, -2.5,0,0,1024,1024,1024,1024,0,0,0,0,306.5,0,0,99,4.215,4.217,0,0,0,0,5.203,84.92,35.104988,35.104988,6,P-GPS,
7800,2025-05-02 19:22:19,0,0,35.104988,,,35.104988,34.44882,3.8251674,0,0,16,2,8.341,35.104988,35.104988,11.9899984,0,1.342164,-3.579104,0,277.9, 18.2, -3.7,0,0,1024,1024,1024,1024,0,0,0,0,306.5,0,0,99,4.215,4.217,0,0,0,0,5.203,84.92,35.104988,35.104988,6,P-GPS,
7900,2025-05-02 19:22:19,0,0,35.433072,,,35.433072,34.44882,2.9974996,0,0,16,2,8.341,35.433072,35.433072,11.9899984,0,1.342164,-2.684328,0,277.8, 18.1, -6.9,0,0,1024,1024,1024,1024,0,0,0,0,306.5,0,0,99,4.215,4.217,0,0,0,0,5.203,84.92,35.433072,35.433072,6,P-GPS,
8000,2025-05-02 19:22:19,0,0,35.433072,,,35.433072,34.44882,2.1027236,0,0,16,2,8.341,35.433072,35.433072,11.9899984,0,1.11847,-1.789552,0,277.9, 17.3, -7.4,0,0,1024,1024,1024,1024,0,0,0,0,306.5,0,0,99,4.215,4.217,0,0,0,0,5.203,84.92,35.433072,35.433072,6,P-GPS,
8100,2025-05-02 19:22:19,0,0,35.433072,,,35.433072,34.44882,1.11847,0,0,16,2,8.514,35.433072,35.433072,11.9899984,0,0.671082,-0.894776,0,278.3, 14.2, -8.1,0,0,1024,1024,1024,1024,0,0,0,0,306.5,0,0,99,4.23,4.222,0,0,0,0,3.985,84.92,35.433072,35.433072,6,P-GPS,
8200,2025-05-02 19:22:19,0,0,35.433072,,,35.433072,34.44882,0.4921268,0,0,16,2,8.514,35.433072,35.433072,11.9899984,0,0.447388,-0.223694,0,279.2, 9.5, -6.8,0,0,1024,1024,1024,1024,0,0,0,0,306.5,0,0,99,4.23,4.222,0,0,0,0,3.985,84.92,35.433072,35.433072,6,P-GPS,
8300,2025-05-02 19:22:19,0,0,35.761156,,,35.761156,34.44882,0.223694,0,0,16,2,8.514,35.761156,35.761156,11.9899984,0,0.223694,0,0,279.1, 7.1, -6.1,0,0,1024,1024,1024,1024,0,0,0,0,306.5,0,0,99,4.23,4.222,0,0,0,0,3.985,84.92,35.761156,35.761156,6,P-GPS,
8400,2025-05-02 19:22:19,0,0,35.761156,,,35.761156,34.44882,0.223694,0,0,16,2,8.514,35.761156,35.761156,11.9899984,0,0,0.223694,0,279.3, 4.9, -3.8,0,0,1024,1024,1070,1024,0,0,7,0,306.5,0,0,99,4.23,4.222,0,0,0,0,3.985,84.92,35.761156,35.761156,6,P-GPS,
8500,2025-05-02 19:22:19,0,0,35.761156,,,35.761156,34.44882,0.447388,0,0,16,2,8.514,35.761156,35.761156,11.9899984,0,0,0.447388,0,279.4, 1.9, -4.1,0,0,1239,1024,1618,1024,33,0,90,0,306.5,0,0,99,4.23,4.222,0,0,0,0,3.985,84.92,35.761156,35.761156,6,P-GPS,
8600,2025-05-02 19:22:20,0,0,36.08924,,,36.08924,34.44882,0.447388,0,0,16,2,8.514,36.08924,36.08924,11.9899984,0,0,0.447388,-0.223694,279.2, 0.6, -4,0,0,1547,1024,1684,1024,79,0,100,0,306.5,0,0,99,4.23,4.222,0,0,0,0,3.985,84.92,36.08924,36.08924,6,P-GPS,
8700,2025-05-02 19:22:20,0,0,36.08924,,,36.08924,34.44882,0.223694,0,0,16,2,8.514,36.08924,36.08924,11.9899984,0,0,0.223694,-0.894776,279.4, -5.3, -3.4,0,0,1531,1024,1684,1024,77,0,100,0,306.5,0,0,99,4.23,4.222,0,0,0,0,3.985,84.92,36.08924,36.08924,6,P-GPS,"Señal de posicionamiento por satélite débil. Vuelo estacionario inestable. Vuela con cuidado (Code: 30002). Error de calibración del estabilizador. Reinicia la aeronave o contacta con la Asistencia DJI (Code: 40011)"
8800,2025-05-02 19:22:20,0,0,36.417324,,,36.417324,34.44882,0,0,0,16,2,8.514,36.417324,36.417324,11.9899984,0,0,0,-1.565858,279.7, -10.8, -3.3,0,0,1193,1024,1684,1024,26,0,100,0,306.5,0,0,99,4.23,4.222,0,0,0,0,3.985,84.92,36.417324,36.417324,6,P-GPS,
8900,2025-05-02 19:22:20,0,0,36.745408,,,36.745408,34.44882,0.7158208,0,0,16,2,8.514,36.745408,36.745408,11.9899984,0,0.223694,-0.671082,-2.460634,279.2, -11.3, -3.7,0,0,1024,1024,1684,1024,0,0,100,0,306.5,0,0,99,4.23,4.222,0,0,0,0,3.985,84.92,36.745408,36.745408,6,P-GPS,
9000,2025-05-02 19:22:20,0,0,37.073492,,,37.073492,34.44882,1.1408394,0,0,16,2,8.514,37.073492,37.073492,11.9899984,0,0.223694,-1.11847,-3.35541,279, -5, -3.2,0,0,1024,1024,1684,1024,0,0,100,0,306.5,0,0,99,4.23,4.222,0,0,0,0,3.985,84.92,37.073492,37.073492,6,P-GPS,
9100,2025-05-02 19:22:20,-23.0392794220288,-44.3492255238554,37.72966,37.72966,0,37.72966,34.44882,1.4092722,0,0,16,2,8.514,37.72966,37.72966,11.9899984,0,0.447388,-1.342164,-4.026492,278.7, 2.2, -3,0,0,1024,1024,1684,1024,0,0,100,0,306.5,0,0,99,4.188,4.181,0,0,0,0,3.985,84.92,37.72966,37.72966,6,P-GPS,
9200,2025-05-02 19:22:20,-23.0392798908382,-44.3492265103107,38.385828,38.385828,0,38.385828,34.44882,1.2079476,0.37275919828,0.37275919828,16,2,8.514,38.385828,38.385828,11.9899984,0.37275919828,0.447388,-1.11847,-4.921268,278.8, 4.5, -3.6,0,0,1024,1024,1349,1024,0,0,49,0,306.5,0,0,99,4.188,4.181,0,0,0,0,3.985,84.92,38.385828,38.385828,6,P-GPS,
9300,2025-05-02 19:22:20,-23.0392527696116,-44.3492083457618,39.041996,39.1404212,-0.0984252,39.041996,34.44882,0.9171454,11.3058730652,11.99639146,15,2,8.514,39.041996,39.041996,11.9899984,11.3058730652,0.223694,-0.894776,-5.368656,279.3, 3.5, -4.5,0,0,1024,1024,1024,1024,0,0,0,0,306.5,0,0,99,4.188,4.181,0,0,0,0,3.985,84.92,39.041996,39.041996,6,P-GPS,
9400,2025-05-02 19:22:20,-23.0391132386024,-44.3491129427058,40.026248,38.8123372,1.2139108,40.026248,34.44882,0.7158208,71.449149268,72.143046928,15,2,8.514,40.026248,40.026248,11.9899984,71.449149268,0.223694,-0.671082,-4.697574,279.2, 3.6, -5.7,0,0,1024,1024,1024,1024,0,0,0,0,306.5,0,0,99,4.188,4.181,0,0,0,0,3.985,84.92,40.026248,40.026248,6,P-GPS,
9500,2025-05-02 19:22:20,-23.0390032772745,-44.3490380846737,40.682416,40.4199488,0.2624672,40.682416,34.44882,0.7158208,118.7910143,119.48491196,15,2,8.514,40.682416,40.682416,11.9899984,118.7910143,0.223694,-1.11847,-4.026492,279.3, 3.2, -5.9,0,0,1024,1024,1024,1024,0,0,0,0,306.5,0,0,99,4.188,4.181,0,0,0,0,3.985,84.92,40.682416,40.682416,6,P-GPS,
9600,2025-05-02 19:22:21,-23.0390029611829,-44.3490401718267,41.338584,41.1089252,0.2296588,41.338584,34.44882,0.9171454,118.519360748,120.194885736,15,2,8.514,41.338584,41.338584,11.9899984,118.7910143,0.223694,-0.894776,-3.131716,279.3, 3.9, -5.3,0,0,1024,1024,1024,1024,0,0,0,0,306.5,0,0,99,4.188,4.181,0,0,0,0,3.985,84.92,41.338584,41.338584,6,P-GPS,
9700,2025-05-02 19:22:21,-23.0390026304861,-44.3490419046641,41.994752,41.7979016,0.1968504,41.994752,34.44882,1.1408394,118.317917172,120.789373944,15,2,8.514,41.994752,41.994752,11.9899984,118.7910143,0.223694,-1.11847,-2.460634,279.2, 4.9, -4.9,0,0,1024,1024,1024,1024,0,0,0,0,306.5,0,0,99,4.188,4.181,0,0,0,0,3.985,84.92,41.994752,41.994752,6,P-GPS,
9800,2025-05-02 19:22:21,-23.039002197466,-44.3490425938746,42.322836,42.158794,0.164042,42.322836,34.44882,0.9171454,118.332352868,121.06955768,15,2,8.514,42.322836,42.322836,11.9899984,118.7910143,0.223694,-0.894776,-1.565858,279.1, 5.5, -4.1,0,0,1024,1511,1024,1022,0,74,0,-0,306.5,0,0,99,4.188,4.181,0,0,0,0,3.985,84.92,42.322836,42.322836,6,P-GPS,
9900,2025-05-02 19:22:21,-23.0390008055974,-44.3490460773381,42.65092,42.5524948,0.0984252,42.65092,34.44882,1.006623,118.166342364,122.344492104,15,2,8.514,42.65092,42.65092,11.9899984,118.7910143,0.447388,-0.894776,-0.894776,279, 5.4, -3.8,0,0,1024,1684,946,938,0,100,-12,-13,306.5,0,0,99,4.188,4.181,0,0,0,0,3.985,84.92,42.65092,42.65092,6,P-GPS,
10000,2025-05-02 19:22:21,-23.0390004487262,-44.3490463211183,42.979004,42.9133872,0.0656168,42.979004,34.44882,0.8052984,118.23655234,122.4983635,15,2,8.514,42.979004,42.979004,11.9899984,118.7910143,0.447388,-0.671082,-0.671082,279.4, 5, 2.3,0,0,1024,1684,946,938,0,100,-12,-13,306.5,0,0,99,4.188,4.181,0,0,0,0,3.985,84.92,42.979004,42.979004,6,P-GPS,
10100,2025-05-02 19:22:21,-23.0390000983923,-44.3490464811839,42.979004,42.9133872,0.0656168,42.979004,34.44882,0.9395148,118.319229508,122.636814948,14,2,8.442,42.979004,42.979004,11.9899984,118.7910143,0.671082,-0.671082,-0.223694,280.1, 3.6, 10.8,0,0,1024,1684,878,973,0,100,-22,-8,306.5,0,0,99,4.258,4.258,0,0,0,0,4.44,84.92,42.979004,42.979004,6,P-GPS,
10200,2025-05-02 19:22:21,-23.0389997308301,-44.3490465864873,43.307088,43.2414712,0.0656168,43.307088,34.44882,1.2974252,118.41699854,122.77559448,14,2,8.442,43.307088,43.307088,11.9899984,118.7910143,1.11847,-0.671082,0,280, 2.8, 14.9,0,0,1024,1684,950,1024,0,100,-11,0,306.4,0,0,99,4.258,4.258,0,0,0,0,4.44,84.92,43.307088,43.307088,6,P-GPS,
10300,2025-05-02 19:22:21,-23.0389992153909,-44.3490452666232,43.307088,43.2414712,0.0656168,43.307088,34.44882,1.2974252,118.80413766,123.256893708,16,4,8.442,43.307088,43.307088,11.9899984,118.80413766,2.013246,-0.447388,0,279.8, 4, 15.7,0,0,1024,1684,1024,1024,0,100,0,0,306.3,0,0,99,4.258,4.258,0,0,0,0,4.44,84.92,43.307088,43.307088,6,P-GPS,
10400,2025-05-02 19:22:21,-23.0389980332933,-44.3490452591395,43.307088,43.2742796,0.0328084,43.307088,34.44882,2.684328,119.176841084,123.688324168,16,4,8.442,43.307088,43.307088,11.9899984,119.176841084,2.684328,-0.223694,0,279.8, 5, 14.3,0,0,1024,1684,1024,1024,0,100,0,0,306.3,0,0,99,4.258,4.258,0,0,0,0,4.44,84.92,43.307088,43.307088,6,P-GPS,"Punto de origen actualizado. Altitud de RPO establecida en 100m (Code: 30213). Error de calibración del estabilizador. Reinicia la aeronave o contacta con la Asistencia DJI (Code: 40011)"
10500,2025-05-02 19:22:21,-23.0389966638431,-44.3490452232653,43.635172,43.635172,0,43.635172,34.44882,3.35541,119.613520888,124.1879961,16,4,8.442,43.635172,43.635172,11.9899984,119.613520888,3.35541,-0.223694,0,279.9, 5.2, 13.3,0,0,1024,1684,1024,1024,0,100,0,0,306.3,0,0,99,4.258,4.258,0,0,0,0,4.44,84.92,43.635172,43.635172,6,P-GPS,
10600,2025-05-02 19:22:22,-23.0389950309445,-44.3490453115847,43.635172,43.7007888,-0.0656168,43.635172,34.44882,3.802798,120.112864736,124.784452812,16,4,8.442,43.635172,43.635172,11.9899984,120.112864736,3.802798,0,0,279.5, 4.9, 11.9,0,0,1024,1172,1024,1024,0,22,0,0,306.3,0,0,99,4.258,4.258,0,0,0,0,4.44,84.92,43.635172,43.635172,6,P-GPS,
10700,2025-05-02 19:22:22,-23.0389929511194,-44.3490451450211,43.635172,43.7335972,-0.0984252,43.635172,34.44882,4.250186,120.796919876,125.545607692,16,4,8.442,43.635172,43.635172,11.9899984,120.796919876,4.250186,0,0,279.3, 4.5, 11.2,0,0,1024,1024,1024,1024,0,0,0,0,306.3,0,0,99,4.258,4.258,0,0,0,0,4.44,84.92,43.635172,43.635172,6,P-GPS,
10800,2025-05-02 19:22:22,-23.0389912622911,-44.3490451767549,43.635172,43.799214,-0.164042,43.635172,34.44882,4.47388,121.325135116,126.161749444,16,4,8.442,43.635172,43.635172,11.9899984,121.325135116,4.47388,0,0,278.9, 4.3, 3.2,0,0,1024,1024,1024,1024,0,0,0,0,306.3,0,0,99,4.258,4.258,0,0,0,0,4.44,84.92,43.635172,43.635172,6,P-GPS,
10900,2025-05-02 19:22:22,-23.0389894995542,-44.3490451780675,43.635172,43.8648308,-0.2296588,43.635172,34.44882,4.47388,121.882549832,126.804794084,16,4,8.442,43.635172,43.635172,11.9899984,121.882549832,4.47388,0.223694,0,277.9, 3.9, -15.8,0,0,1024,1024,1024,1024,0,0,0,0,306.3,0,0,99,4.258,4.258,0,0,0,0,4.44,84.92,43.635172,43.635172,6,P-GPS,
11000,2025-05-02 19:22:22,-23.0389874004655,-44.3490451959244,43.635172,43.8976392,-0.2624672,43.635172,34.44882,4.026492,122.544951428,127.570870224,16,4,8.442,43.635172,43.635172,11.9899984,122.544951428,4.026492,0,0,278.4, 3.1, -18,0,0,1024,1024,1024,1024,0,0,0,0,306.3,0,0,99,4.258,4.258,0,0,0,0,4.44,84.92,43.635172,43.635172,6,P-GPS,
11100,2025-05-02 19:22:22,-23.0389849294613,-44.3490456642921,43.635172,43.963256,-0.328084,43.635172,34.44882,3.35541,123.252628616,128.4858965,16,4,8.393,43.635172,43.635172,11.9899984,123.252628616,3.35541,0,0,278.9, 2.8, -18.4,0,0,1024,1024,1024,1024,0,0,0,0,306.3,0,0,99,4.233,4.227,0,0,0,0,5.626,85.1,43.635172,43.635172,6,P-GPS,
11200,2025-05-02 19:22:22,-23.0389832056198,-44.3490456747875,43.635172,44.0288728,-0.3937008,43.635172,34.44882,2.684328,123.799544644,129.114833528,16,4,8.393,43.635172,43.635172,11.9899984,123.799544644,2.684328,0,0,278.5, 3.4, -17.6,0,0,1024,1024,1024,1024,0,0,0,0,306.3,0,0,99,4.233,4.227,0,0,0,0,5.626,85.1,43.635172,43.635172,6,P-GPS,
11300,2025-05-02 19:22:22,-23.0389818310258,-44.3490456864092,43.635172,44.0616812,-0.4265092,43.635172,34.44882,2.013246,124.23556828,129.616473964,15,4,8.393,43.635172,43.635172,11.9899984,124.23556828,2.013246,0,0,278.6, 3.9, -15.8,0,0,1024,1024,1024,1024,0,0,0,0,306.3,0,0,99,4.233,4.227,0,0,0,0,5.626,85.1,43.635172,43.635172,6,P-GPS,
11400,2025-05-02 19:22:22,-23.0389808560552,-44.3490455960522,43.963256,44.4225736,-0.4593176,43.963256,34.44882,1.565858,124.561355692,129.973429356,15,4,8.393,43.963256,43.963256,11.9899984,124.561355692,1.565858,0,0,279, 2.8, -13.6,0,0,1024,1024,1024,1024,0,0,0,0,306.3,0,0,99,4.233,4.227,0,0,0,0,5.626,85.1,43.963256,43.963256,6,P-GPS,
11500,2025-05-02 19:22:23,-23.0389800800495,-44.3490455192603,43.963256,44.4225736,-0.4593176,43.963256,34.44882,1.11847,124.821526304,130.2575501,16,5,8.393,43.963256,43.963256,11.9899984,124.821526304,1.11847,0,0,279, 2.6, -11.4,0,0,1024,1357,1024,1024,0,50,0,0,306.3,0,0,99,4.233,4.227,0,0,0,0,5.626,85.1,43.963256,43.963256,6,P-GPS,
11600,2025-05-02 19:22:23,-23.0389795140024,-44.3490451341743,43.963256,44.4225736,-0.4593176,43.963256,34.44882,0.894776,125.064636548,130.501316512,16,5,8.393,43.963256,43.963256,11.9899984,125.064636548,0.894776,0,0,278.7, 2.5, -10,0,0,1024,1684,1024,1024,0,100,0,0,306.3,0,0,99,4.233,4.227,0,0,0,0,5.626,85.1,43.963256,43.963256,6,P-GPS,
11700,2025-05-02 19:22:23,-23.0389789697715,-44.3490451085941,44.29134,44.783466,-0.492126,44.29134,34.44882,0.894776,125.24278616,130.700135416,16,5,8.393,44.29134,44.29134,11.9899984,125.24278616,0.894776,0,0,279, 3.4, -2.9,0,0,1024,1684,1024,1024,0,100,0,0,306.3,0,0,99,4.233,4.227,0,0,0,0,5.626,85.1,44.29134,44.29134,6,P-GPS,
11800,2025-05-02 19:22:23,-23.0389786048161,-44.3490451126437,44.29134,44.783466,-0.492126,44.29134,34.44882,0.894776,125.358599812,130.83333752,16,5,8.393,44.29134,44.29134,11.9899984,125.358599812,0.894776,0,0,279.7, 2.8, 7.7,0,0,1024,1684,1024,1024,0,100,0,0,306.3,0,0,99,4.233,4.227,0,0,0,0,5.626,85.1,44.29134,44.29134,6,P-GPS,
11900,2025-05-02 19:22:23,-23.0389781234969,-44.3490451598116,44.29134,44.8162744,-0.5249344,44.29134,34.44882,1.342164,125.504597192,131.009518628,16,5,8.393,44.29134,44.29134,11.9899984,125.504597192,1.342164,0,0,279.2, 2, 10.7,0,0,1024,1684,1024,1024,0,100,0,0,306.3,0,0,99,4.233,4.227,0,0,0,0,5.626,85.1,44.29134,44.29134,6,P-GPS,
12000,2025-05-02 19:22:23,-23.0389779726004,-44.3490459043346,44.29134,44.8162744,-0.5249344,44.29134,34.44882,1.342164,125.432418712,131.265424148,16,5,8.393,44.29134,44.29134,11.9899984,125.504597192,1.789552,0,0,279.4, 3, 12.5,0,0,1024,1684,1024,1024,0,100,0,0,306.3,0,0,99,4.233,4.227,0,0,0,0,5.626,85.1,44.29134,44.29134,6,P-GPS,
12100,2025-05-02 19:22:23,-23.0389770132482,-44.349046096134,44.29134,44.8490828,-0.5577428,44.29134,34.44882,2.460634,125.70866544,131.621395288,16,5,8.451,44.29134,44.29134,11.9899984,125.70866544,2.460634,0,0,279.2, 1.4, 13.5,0,0,1024,1684,1024,1024,0,100,0,0,306.3,0,0,99,4.236,4.234,0,0,0,0,3.438,85.1,44.29134,44.29134,6,P-GPS,
12200,2025-05-02 19:22:23,-23.0389757383996,-44.3490460459987,44.29134,44.8818912,-0.5905512,44.29134,34.44882,2.908022,126.12533212,132.086946484,16,5,8.451,44.29134,44.29134,11.9899984,126.12533212,2.908022,0,0,279.6, 2.3, 15.4,0,0,1024,1684,1024,1024,0,100,0,0,306.3,0,0,99,4.236,4.234,0,0,0,0,3.438,85.1,44.29134,44.29134,6,P-GPS,
12300,2025-05-02 19:22:23,-23.0389743084923,-44.3490459472177,43.963256,44.5866156,-0.6233596,43.963256,34.44882,3.579104,126.5994135,132.609584296,16,5,8.451,44.29134,44.29134,11.9899984,126.5994135,3.579104,0,0.223694,279, 2.5, 13.1,0,0,1024,1684,1024,1024,0,100,0,0,306.3,0,0,99,4.236,4.234,0,0,0,0,3.438,85.1,43.963256,43.963256,6,P-GPS,
12400,2025-05-02 19:22:23,-23.0389724869181,-44.3490456908976,43.635172,44.3241484,-0.6889764,43.635172,34.44882,4.026492,127.225069688,133.279859908,16,5,8.451,44.29134,44.29134,11.9899984,127.225069688,4.026492,0.223694,0.447388,279, 3.2, 11.4,0,0,1024,1684,1024,1024,0,100,0,0,306.3,0,0,99,4.236,4.234,0,0,0,0,3.438,85.1,43.635172,43.635172,6,P-GPS,
12500,2025-05-02 19:22:23,-23.03897062049,-44.3490455048398,43.635172,44.3569568,-0.7217848,43.635172,34.44882,4.47388,127.8543348,133.963586964,16,5,8.451,44.29134,44.29134,11.9899984,127.8543348,4.47388,0.223694,0.447388,279.3, 3.6, 12.8,0,0,1024,1684,1024,1024,0,100,0,0,306.3,0,0,99,4.236,4.234,0,0,0,0,3.438,85.1,43.635172,43.635172,6,P-GPS,
12600,2025-05-02 19:22:24,-23.0389683617014,-44.3490452272532,43.635172,44.4225736,-0.7874016,43.635172,34.44882,5.144962,128.625004116,134.792983316,16,5,8.451,44.29134,44.29134,11.9899984,128.625004116,5.144962,0.223694,0.447388,279.6, 3.6, 10.2,0,0,1026,1684,1024,1024,0,100,0,0,306.3,0,0,99,4.236,4.234,0,0,0,0,3.438,85.1,43.635172,43.635172,6,P-GPS,
12700,2025-05-02 19:22:24,-23.0389660630029,-44.3490448622211,43.307088,44.1601064,-0.8530184,43.307088,34.44882,5.6370888,129.423232488,135.640424288,16,5,8.451,44.29134,44.29134,11.9899984,129.423232488,5.59235,0.671082,0.447388,279.7, 4, 10.5,0,0,1031,1472,1024,1024,1,68,0,0,306.3,0,0,99,4.236,4.234,0,0,0,0,3.438,85.1,43.307088,43.307088,6,P-GPS,
12800,2025-05-02 19:22:24,-23.0389633739175,-44.3490433797627,43.307088,44.2257232,-0.9186352,43.307088,34.44882,5.8831522,130.522970056,136.740818024,16,5,8.451,44.29134,44.29134,11.9899984,130.522970056,5.816044,0.894776,0.223694,279.6, 3.9, 12.1,0,0,1024,1088,1024,1024,0,10,0,0,306.3,0,0,99,4.236,4.234,0,0,0,0,3.438,85.1,43.307088,43.307088,6,P-GPS,
12900,2025-05-02 19:22:24,-23.0389607958203,-44.3490426758187,43.307088,44.2585316,-0.9514436,43.307088,34.44882,6.1068462,131.46489922,137.710634328,16,5,8.451,44.29134,44.29134,11.9899984,131.46489922,6.039738,0.894776,0,279.2, 3.4, 7.3,0,0,1024,1088,1024,1024,0,10,0,0,306.3,0,0,99,4.236,4.234,0,0,0,0,3.438,85.1,43.307088,43.307088,6,P-GPS,
13000,2025-05-02 19:22:24,-23.0389577937545,-44.3490419469264,43.307088,44.3569568,-1.0498688,43.307088,34.44882,6.3305402,132.548232588,138.832681608,16,5,8.451,44.29134,44.29134,11.9899984,132.548232588,6.263432,0.894776,0,278.7, 3.5, 1.2,0,0,1024,1024,1024,1024,0,0,0,0,306.3,0,0,99,4.236,4.234,0,0,0,0,3.438,85.1,43.307088,43.307088,6,P-GPS,
13100,2025-05-02 19:22:24,-23.0389549180917,-44.3490412637682,43.307088,44.4225736,-1.1154856,43.307088,34.44882,6.3305402,133.583993776,139.906828624,16,5,8.443,44.29134,44.29134,11.9899984,133.583993776,6.263432,0.894776,0,278.6, 3.2, -5,0,0,1024,1024,1024,1024,0,0,0,0,306.3,0,0,99,4.222,4.223,0,0,0,0,3.983,85.1,43.307088,43.307088,6,P-GPS,
13200,2025-05-02 19:22:24,-23.0389520169373,-44.3490406461444,43.307088,44.4881904,-1.1811024,43.307088,34.44882,5.8831522,134.618442628,140.985568816,16,5,8.443,44.29134,44.29134,11.9899984,134.618442628,5.816044,0.894776,0,278.2, 2.4, -19.4,0,0,1024,1024,1024,1024,0,0,0,0,306.3,0,0,99,4.222,4.223,0,0,0,0,3.983,85.1,43.307088,43.307088,6,P-GPS,
13300,2025-05-02 19:22:24,-23.0389489301436,-44.3490397429796,43.307088,44.5866156,-1.2795276,43.307088,34.44882,5.2120702,135.75787836,142.151579352,16,5,8.443,44.29134,44.29134,11.9899984,135.75787836,5.144962,0.894776,0,278.6, 2.2, -16.1,0,0,1024,1024,1024,1024,0,0,0,0,306.3,0,0,99,4.222,4.223,0,0,0,0,3.983,85.1,43.307088,43.307088,6,P-GPS,
13400,2025-05-02 19:22:24,-23.0389468480379,-44.3490391326728,42.979004,44.29134,-1.312336,42.979004,34.44882,4.5633576,136.526907256,142.938652868,16,5,8.443,44.29134,44.29134,11.9899984,136.526907256,4.47388,0.894776,0,278.3, 2.3, -18.2,0,0,1024,1302,1024,1024,0,42,0,0,306.3,0,0,99,4.222,4.223,0,0,0,0,3.983,85.1,42.979004,42.979004,6,P-GPS,
13500,2025-05-02 19:22:24,-23.0389450872144,-44.3490386104672,42.979004,44.3569568,-1.3779528,42.979004,34.44882,3.8699062,137.178153996,143.604335304,16,5,8.443,44.29134,44.29134,11.9899984,137.178153996,3.802798,0.671082,0,278.4, 1.8, -18.4,0,0,1053,1684,1024,1024,4,100,0,0,306.3,0,0,99,4.222,4.223,0,0,0,0,3.983,85.1,42.979004,42.979004,6,P-GPS,
13600,2025-05-02 19:22:25,-23.0389433814584,-44.3490381915493,42.979004,44.3897652,-1.4107612,42.979004,34.44882,3.1988242,137.795936168,144.242458684,16,5,8.443,44.29134,44.29134,11.9899984,137.795936168,3.131716,0.671082,0,279, 1.4, -14.7,0,0,1067,1684,1024,1024,7,100,0,0,306.3,0,0,99,4.222,4.223,0,0,0,0,3.983,85.1,42.979004,42.979004,6,P-GPS,
13700,2025-05-02 19:22:25,-23.0389422504585,-44.3490379625517,42.979004,44.4225736,-1.4435696,42.979004,34.44882,3.1540854,138.198495236,144.662406204,16,5,8.443,44.29134,44.29134,11.9899984,138.198495236,3.131716,0.447388,0,279.2, 1.8, -4.6,0,0,1063,1684,1024,1024,6,100,0,0,306.3,0,0,99,4.222,4.223,0,0,0,0,3.983,85.1,42.979004,42.979004,6,P-GPS,
13800,2025-05-02 19:22:25,-23.0389408674079,-44.3490379278074,42.979004,44.455382,-1.476378,42.979004,34.44882,3.1540854,138.652891576,145.166999396,16,5,8.443,44.29134,44.29134,11.9899984,138.652891576,3.131716,0.447388,0,279.4, 2.1, 3.7,0,0,1063,1684,1024,1024,6,100,0,0,306.3,0,0,99,4.222,4.223,0,0,0,0,3.983,85.1,42.979004,42.979004,6,P-GPS,
13900,2025-05-02 19:22:25,-23.0389395211407,-44.3490378843922,42.979004,44.4881904,-1.5091864,42.979004,34.44882,3.6014734,139.097445396,145.658469228,15,5,8.443,44.29134,44.29134,11.9899984,139.097445396,3.579104,0.447388,0,279.5, 1.9, 7.2,0,0,1063,1684,1024,1024,6,100,0,0,306.3,0,0,99,4.222,4.223,0,0,0,0,3.983,85.1,42.979004,42.979004,6,P-GPS,
14000,2025-05-02 19:22:25,-23.0389380783719,-44.3490377275137,42.979004,44.5538072,-1.5748032,42.979004,34.44882,3.8251674,139.590555648,146.187340636,15,5,8.443,44.29134,44.29134,11.9899984,139.590555648,3.802798,0.447388,0,279.1, 1.1, 7.4,0,0,1064,1684,1024,1024,6,100,0,0,306.3,0,0,99,4.222,4.223,0,0,0,0,3.983,85.1,42.979004,42.979004,6,P-GPS,
14100,2025-05-02 19:22:25,-23.0389370389361,-44.3490382849939,42.979004,44.5866156,-1.6076116,42.979004,34.44882,4.4962494,139.844820748,146.610240912,15,5,8.483,44.29134,44.29134,11.9899984,139.844820748,4.47388,0.447388,0,279.3, 1.5, 9.2,0,0,1066,1684,1024,1024,6,100,0,0,306.3,0,0,99,4.231,4.226,0,0,0,0,3.567,85.1,42.979004,42.979004,6,P-GPS,
14200,2025-05-02 19:22:25,-23.0389354305089,-44.349038157219,42.979004,44.619424,-1.64042,42.979004,34.44882,4.7199434,140.388455936,147.198823608,15,5,8.483,44.29134,44.29134,11.9899984,140.388455936,4.697574,0.447388,0,279.2, 2.1, 9.1,0,0,1066,1684,1024,1024,6,100,0,0,306.3,0,0,99,4.231,4.226,0,0,0,0,3.567,85.1,42.979004,42.979004,6,P-GPS,
14300,2025-05-02 19:22:25,-23.0389337414282,-44.3490380335478,42.65092,44.3241484,-1.6732284,42.65092,34.44882,4.9436374,140.958337844,147.816277696,16,5,8.483,44.29134,44.29134,11.9899984,140.958337844,4.921268,0.447388,0,279, 1.3, 9.9,0,0,1066,1684,1024,1024,6,100,0,0,306.3,0,0,99,4.231,4.226,0,0,0,0,3.567,85.1,42.65092,42.65092,6,P-GPS,
14400,2025-05-02 19:22:25,-23.0389316617945,-44.3490379137489,42.65092,44.3897652,-1.7388452,42.65092,34.44882,5.3910254,141.655516344,148.57612024,16,5,8.483,44.29134,44.29134,11.9899984,141.655516344,5.368656,0.447388,0,279.2, 2.7, 9.9,0,0,1067,1684,1024,1018,7,100,0,-1,306.3,0,0,99,4.231,4.226,0,0,0,0,3.567,85.1,42.65092,42.65092,6,P-GPS,
14500,2025-05-02 19:22:26,-23.038929254342,-44.3490380439093,42.65092,44.455382,-1.804462,42.65092,34.44882,5.8384134,142.423560988,149.455713444,16,5,8.483,44.29134,44.29134,11.9899984,142.423560988,5.816044,0.447388,0,279.3, 2.7, 10,0,0,1066,1684,1024,764,6,100,0,-39,306.3,0,0,99,4.231,4.226,0,0,0,0,3.567,85.1,42.65092,42.65092,6,P-GPS,
14600,2025-05-02 19:22:26,-23.0389264690969,-44.3490378012937,42.65092,44.5538072,-1.9028872,42.65092,34.44882,5.8384134,143.371395664,150.475070432,16,5,8.483,44.29134,44.29134,11.9899984,143.371395664,6.263432,0.447388,0,279.4, 3.5, 12.3,0,0,1075,1684,1024,447,8,100,0,-87,306.3,0,0,99,4.231,4.226,0,0,0,0,3.567,85.1,42.65092,42.65092,6,P-GPS,
14700,2025-05-02 19:22:26,-23.0389236567481,-44.3490375767978,42.322836,44.29134,-1.968504,42.322836,34.44882,6.5094954,144.326776272,151.503941856,16,5,8.483,44.29134,44.29134,11.9899984,144.326776272,6.487126,0.447388,0.223694,279.2, 4.1, 12.9,0,0,1083,1684,1024,364,9,100,0,-100,305.5,0,0,99,4.231,4.226,0,0,0,0,3.567,85.1,42.322836,42.322836,6,P-GPS,
14800,2025-05-02 19:22:26,-23.0389205040089,-44.3490374089268,42.322836,44.3569568,-2.0341208,42.322836,34.44882,7.1805774,145.386487592,152.655516696,16,5,8.483,44.29134,44.29134,11.9899984,145.386487592,7.158208,0.671082,0.223694,277.9, 4.7, 12.8,0,0,1083,1684,1024,364,9,100,0,-100,302.8,0,0,99,4.231,4.226,0,0,0,0,3.567,85.1,42.322836,42.322836,6,P-GPS,
14900,2025-05-02 19:22:26,-23.0389173570604,-44.3490371876665,42.322836,44.4881904,-2.1653544,42.322836,34.44882,7.4266408,146.453744844,153.806107284,16,5,8.483,44.29134,44.29134,11.9899984,146.453744844,7.381902,0.894776,0.223694,274, 3.9, 11.6,0,0,1084,1684,1024,364,9,100,0,-100,298.4,0,0,99,4.231,4.226,0,0,0,0,3.567,85.1,42.322836,42.322836,6,P-GPS,
15000,2025-05-02 19:22:26,-23.0389135883003,-44.3490369886238,42.322836,44.5538072,-2.2309712,42.322836,34.44882,7.6503348,147.723758008,155.182747748,16,5,8.483,44.29134,44.29134,11.9899984,147.723758008,7.605596,0.894776,0,269.3, 2.9, 11.5,0,0,1084,1684,1024,364,9,100,0,-100,293.6,0,0,99,4.231,4.226,0,0,0,0,3.567,85.1,42.322836,42.322836,6,P-GPS,
15100,2025-05-02 19:22:26,-23.0389102933458,-44.3490366292589,41.994752,44.3569568,-2.3622048,41.994752,34.44882,8.0753534,148.862209488,156.39108112,16,5,8.433,44.29134,44.29134,11.9899984,148.862209488,8.052984,0.671082,0,264.6, 2.4, 12.5,0,0,1084,1684,1024,364,9,100,0,-100,288.8,0,0,99,4.22,4.219,0,0,0,0,4.022,85.28,41.994752,41.994752,6,P-GPS,
15200,2025-05-02 19:22:26,-23.0389066988228,-44.3490361902765,41.994752,44.4225736,-2.4278216,41.994752,34.44882,8.5227414,150.112209528,157.710634968,16,5,8.433,44.29134,44.29134,11.9899984,150.112209528,8.500372,0.671082,0,260.1, 2.2, 12.3,0,0,1079,1684,1024,364,8,100,0,-100,284,0,0,99,4.22,4.219,0,0,0,0,4.022,85.28,41.994752,41.994752,6,P-GPS,
15300,2025-05-02 19:22:26,-23.0389031431609,-44.3490357715606,41.994752,44.5538072,-2.5590552,41.994752,34.44882,8.9701294,151.347445788,159.01575312,16,5,8.433,44.29134,44.29134,11.9899984,151.347445788,8.94776,0.671082,0,255, 0.9, 11.5,0,0,1078,1684,1024,364,8,100,0,-100,279.2,0,0,99,4.22,4.219,0,0,0,0,4.022,85.28,41.994752,41.994752,6,P-GPS,
15400,2025-05-02 19:22:26,-23.038899228831,-44.3490345503533,41.994752,44.6522324,-2.6574804,41.994752,34.44882,9.171454,152.815621688,160.501317472,16,5,8.433,44.29134,44.29134,11.9899984,152.815621688,9.171454,0.447388,0,250.1, 0.5, 12.2,0,0,1062,1684,1024,570,6,100,0,-69,274.4,0,0,99,4.22,4.219,0,0,0,0,4.022,85.28,41.994752,41.994752,6,P-GPS,
15500,2025-05-02 19:22:26,-23.038895454404,-44.3490341700294,41.994752,44.783466,-2.788714,41.994752,34.44882,9.395148,154.119755588,161.884519616,16,5,8.433,44.29134,44.29134,11.9899984,154.119755588,9.395148,0.223694,0,245.3, 0.2, 11.7,0,0,1061,1684,1024,1024,6,100,0,0,269.7,0,0,99,4.22,4.219,0,0,0,0,4.022,85.28,41.994752,41.994752,6,P-GPS,
15600,2025-05-02 19:22:27,-23.0388914826095,-44.3490341419034,41.994752,44.8818912,-2.8871392,41.994752,34.44882,9.618842,155.442262192,163.333666644,16,5,8.433,44.29134,44.29134,11.9899984,155.442262192,9.618842,0,0,241.1, 0.6, 11.4,0,0,1061,1684,1024,1024,6,100,0,0,266.4,0,0,99,4.22,4.219,0,0,0,0,4.022,85.28,41.994752,41.994752,6,P-GPS,
15700,2025-05-02 19:22:27,-23.0388875601309,-44.3490342589682,41.994752,44.947508,-2.952756,41.994752,34.44882,10.06623,156.730319976,164.765097136,16,5,8.433,44.29134,44.29134,11.9899984,156.730319976,10.06623,0,0,238.7, -0.2, 11.2,0,0,1061,1684,1024,1024,6,100,0,0,265.3,0,0,99,4.22,4.219,0,0,0,0,4.022,85.28,41.994752,41.994752,6,P-GPS,
15800,2025-05-02 19:22:27,-23.0388830319362,-44.3490350172027,41.994752,44.9146996,-2.9199476,41.994752,34.44882,10.06623,158.135831832,166.4370132,16,5,8.433,44.29134,44.29134,11.9899984,158.135831832,10.06623,-0.447388,0,237.6, -1.3, 12.6,0,0,1062,1684,1024,1024,6,100,0,0,264.9,0,0,99,4.22,4.219,0,0,0,0,4.022,85.28,41.994752,41.994752,6,P-GPS,
15900,2025-05-02 19:22:27,-23.0388787419242,-44.3490354745766,41.994752,44.8818912,-2.8871392,41.994752,34.44882,10.3122934,159.506894868,168.009519812,16,5,8.433,44.29134,44.29134,11.9899984,159.506894868,10.289924,-0.671082,0,237.4, -1.7, 11.8,0,0,1062,1684,1024,1024,6,100,0,0,264.9,0,0,99,4.22,4.219,0,0,0,0,4.022,85.28,41.994752,41.994752,6,P-GPS,
16000,2025-05-02 19:22:27,-23.0388742027604,-44.3490360798337,41.994752,44.8818912,-2.8871392,41.994752,34.44882,10.5807262,160.945543208,169.678155036,16,5,8.433,44.29134,44.29134,11.9899984,160.945543208,10.513618,-1.11847,0,237.6, -2, 11.3,0,0,1064,1684,1024,991,6,100,0,-5,264.9,0,0,99,4.22,4.219,0,0,0,0,4.022,85.28,41.994752,41.994752,6,P-GPS,
16100,2025-05-02 19:22:27,-23.0388697970507,-44.3490367653469,41.994752,44.8490828,-2.8543308,41.994752,34.44882,10.8267896,162.333666612,171.301842752,16,5,8.451,44.29134,44.29134,11.9899984,162.333666612,10.737312,-1.342164,0,237.5, -1.9, 12,0,0,1063,1684,1024,679,6,100,0,-52,264.9,0,0,99,4.226,4.223,0,0,0,0,3.785,85.28,41.994752,41.994752,6,P-GPS,
16200,2025-05-02 19:22:27,-23.0388646228588,-44.3490375367572,41.994752,44.8490828,-2.8543308,41.994752,34.44882,11.072853,163.973430444,173.207354624,16,5,8.451,44.29134,44.29134,11.9899984,163.973430444,10.961006,-1.565858,0,237.3, -2.3, 11.6,0,0,1062,1684,1024,879,6,100,0,-22,264.6,0,0,99,4.226,4.223,0,0,0,0,3.785,85.28,41.994752,41.994752,6,P-GPS,
16300,2025-05-02 19:22:27,-23.0388600046568,-44.349038384554,41.994752,44.8162744,-2.8215224,41.994752,34.44882,11.3636552,165.421265136,174.91634418,16,5,8.451,44.29134,44.29134,11.9899984,165.421265136,11.1847,-2.013246,0,236.8, -2.1, 10.8,0,0,1069,1684,1024,1024,7,100,0,0,263.5,0,0,99,4.226,4.223,0,0,0,0,3.785,85.28,41.994752,41.994752,6,P-GPS,
16400,2025-05-02 19:22:27,-23.0388551134233,-44.3490393773081,41.994752,44.783466,-2.788714,41.994752,34.44882,11.632088,166.948496156,176.731632952,16,5,8.451,44.29134,44.29134,11.9899984,166.948496156,11.408394,-2.23694,-0.223694,235.9, -2, 10.1,0,0,1070,1684,1024,1024,7,100,0,0,262.8,0,0,99,4.226,4.223,0,0,0,0,3.785,85.28,41.994752,41.994752,6,P-GPS,
16500,2025-05-02 19:22:27,-23.0388504422773,-44.3490404069078,41.994752,44.783466,-2.788714,41.994752,34.44882,11.6768268,168.40223636,178.470478152,16,5,8.451,44.29134,44.29134,11.9899984,168.40223636,11.408394,-2.460634,-0.223694,235.7, -2, 11.1,0,0,1070,1684,1024,1024,7,100,0,0,262.5,0,0,99,4.226,4.223,0,0,0,0,3.785,85.28,41.994752,41.994752,6,P-GPS,
16600,2025-05-02 19:22:28,-23.0388455916898,-44.3490415214889,41.994752,44.783466,-2.788714,41.994752,34.44882,11.9452596,169.911750844,180.279533328,16,5,8.451,44.29134,44.29134,11.9899984,169.911750844,11.632088,-2.684328,0,235.5, -1.4, 10.5,0,0,1070,1684,1024,1024,7,100,0,0,262.5,0,0,99,4.226,4.223,0,0,0,0,3.785,85.28,41.994752,41.994752,6,P-GPS,
16700,2025-05-02 19:22:28,-23.0388411197611,-44.349042327691,41.666668,44.4225736,-2.7559056,41.666668,34.44882,11.9899984,171.33530732,181.933404772,16,5,8.451,44.29134,44.29134,11.9899984,171.33530732,11.632088,-2.908022,0,235.3, -2.8, 11.1,0,0,1070,1684,1024,1024,7,100,0,0,262.5,0,0,99,4.226,4.223,0,0,0,0,3.785,85.28,41.666668,41.666668,6,P-GPS,
16800,2025-05-02 19:22:28,-23.0388363193948,-44.349043725623,41.666668,44.4225736,-2.7559056,41.666668,34.44882,12.2584312,172.804795556,183.74672504,16,5,8.451,44.29134,44.29134,12.2584312,172.804795556,11.855782,-3.131716,0,235.4, -4.2, 10.4,0,0,1069,1684,1024,1024,7,100,0,0,262.5,0,0,99,4.226,4.223,0,0,0,0,3.785,85.28,41.666668,41.666668,6,P-GPS,
16900,2025-05-02 19:22:28,-23.0388317040979,-44.3490451703837,41.666668,44.4225736,-2.7559056,41.666668,34.44882,12.526864,174.211947832,185.499021684,16,5,8.451,44.29134,44.29134,12.526864,174.211947832,12.079476,-3.35541,0,235.3, -3.8, 11.4,0,0,1069,1684,1024,1024,7,100,0,0,262.5,0,0,99,4.226,4.223,0,0,0,0,3.785,85.28,41.666668,41.666668,6,P-GPS,
17000,2025-05-02 19:22:28,-23.0388266943267,-44.3490468380527,41.666668,44.3897652,-2.7230972,41.666668,34.44882,12.6610804,175.73491376,187.410439068,16,5,8.451,44.29134,44.29134,12.6610804,175.73491376,12.079476,-3.802798,0,234.9, -4.6, 11.2,0,0,1069,1684,1024,1024,7,100,0,0,262.5,0,0,99,4.226,4.223,0,0,0,0,3.785,85.28,41.666668,41.666668,6,P-GPS,
17100,2025-05-02 19:22:28,-23.038822103704,-44.3490485114377,41.666668,44.3897652,-2.7230972,41.666668,34.44882,12.7281886,177.12106866,189.177171408,16,5,8.449,44.29134,44.29134,12.7281886,177.12106866,12.079476,-4.026492,0,235.1, -3.5, 11.1,0,0,1069,1684,1024,1024,7,100,0,0,262.5,0,0,99,4.221,4.215,0,0,0,0,3.958,85.28,41.666668,41.666668,6,P-GPS,
17200,2025-05-02 19:22:28,-23.0388170173569,-44.3490502328156,41.666668,44.3897652,-2.7230972,41.666668,34.44882,13.0189908,178.678811492,191.120741024,16,5,8.449,44.29134,44.29134,13.0189908,178.678811492,12.30317,-4.250186,0,235.3, -3.5, 11.5,0,0,1070,1684,1024,1024,7,100,0,0,262.5,0,0,99,4.221,4.215,0,0,0,0,3.958,85.28,41.666668,41.666668,6,P-GPS,
17300,2025-05-02 19:22:28,-23.0388121278561,-44.3490519396567,41.666668,44.3897652,-2.7230972,41.666668,34.44882,13.086099,180.178155372,192.994428748,16,5,8.449,44.29134,44.29134,13.086099,180.178155372,12.30317,-4.47388,-0.223694,235.2, -3, 11,0,0,1070,1684,1024,995,7,100,0,-4,262.5,0,0,99,4.221,4.215,0,0,0,0,3.958,85.28,41.666668,41.666668,6,P-GPS,
17400,2025-05-02 19:22:28,-23.0388068809835,-44.3490536931572,41.666668,44.4225736,-2.7559056,41.666668,34.44882,13.086099,181.80282734,194.997381568,16,5,8.449,44.29134,44.29134,13.086099,181.80282734,12.526864,-4.697574,-0.223694,235, -3.4, 11.4,0,0,1067,1684,1024,539,7,100,0,-73,262.5,0,0,99,4.221,4.215,0,0,0,0,3.958,85.28,41.666668,41.666668,6,P-GPS,
17500,2025-05-02 19:22:28,-23.0388016373417,-44.3490546966431,41.666668,44.4225736,-2.7559056,41.666668,34.44882,13.4663788,183.512473064,196.939966932,16,5,8.449,44.29134,44.29134,13.4663788,183.512473064,12.526864,-4.921268,-0.223694,234.9, -3.5, 11,0,0,1067,1684,1024,539,7,100,0,-73,262.4,0,0,99,4.221,4.215,0,0,0,0,3.958,85.28,41.666668,41.666668,6,P-GPS,
17600,2025-05-02 19:22:29,-23.0387963482338,-44.3490569619332,41.338584,44.0944896,-2.7559056,41.338584,34.44882,13.533487,185.112538732,199.01411398,16,5,8.449,44.29134,44.29134,13.533487,185.112538732,12.526864,-5.144962,-0.223694,234.7, -3, 10.9,0,0,1035,1684,1024,364,2,100,0,-100,261.5,0,0,99,4.221,4.215,0,0,0,0,3.958,85.28,41.338584,41.338584,6,P-GPS,
17700,2025-05-02 19:22:29,-23.0387912728298,-44.3490593532463,41.338584,44.0944896,-2.7559056,41.338584,34.44882,13.8019198,186.635176576,201.032486748,16,5,8.449,44.29134,44.29134,13.8019198,186.635176576,12.526864,-5.816044,0,232.6, -1.7, 10.4,0,0,1041,1684,1024,632,3,100,0,-59,257.9,0,0,99,4.221,4.215,0,0,0,0,3.958,85.28,41.338584,41.338584,6,P-GPS,
17800,2025-05-02 19:22:29,-23.0387859022866,-44.3490623160685,41.338584,44.127298,-2.788714,41.338584,34.44882,14.1150914,188.213916784,203.22999338,16,5,8.449,44.29134,44.29134,14.1150914,188.213916784,12.750558,-6.039738,0,228.3, -1.6, 9.6,0,0,1042,1684,1024,1024,3,100,0,0,253.7,0,0,99,4.221,4.215,0,0,0,0,3.958,85.28,41.338584,41.338584,6,P-GPS,
17900,2025-05-02 19:22:29,-23.0387806023007,-44.349066148451,41.0105,43.8648308,-2.8543308,41.0105,34.44882,14.316416,189.697512632,205.5528281,16,5,8.449,44.29134,44.29134,14.316416,189.697512632,12.974252,-6.039738,0,225, -2.4, 9.2,0,0,1041,1684,1024,1024,3,100,0,0,251.7,0,0,99,4.221,4.215,0,0,0,0,3.958,85.28,41.0105,41.0105,6,P-GPS,
18000,2025-05-02 19:22:29,-23.0387751604056,-44.3490690173471,41.0105,43.8976392,-2.8871392,41.0105,34.44882,14.4058936,191.336620296,207.759521084,16,5,8.449,44.29134,44.29134,14.4058936,191.336620296,12.974252,-6.263432,0,223.5, -3, 9.4,0,0,1042,1684,1024,621,3,100,0,-61,250.8,0,0,99,4.221,4.215,0,0,0,0,3.958,85.28,41.0105,41.0105,6,P-GPS,
18100,2025-05-02 19:22:29,-23.0387700095721,-44.3490718651827,41.0105,43.9304476,-2.9199476,41.0105,34.44882,14.316416,192.886161028,209.868116952,16,5,8.449,44.29134,44.29134,14.4058936,192.886161028,12.750558,-6.487126,0,223.1, -2.5, 9,0,0,1042,1684,1024,575,3,100,0,-68,250.6,0,0,99,4.221,4.215,0,0,0,0,3.958,85.28,41.0105,41.0105,6,P-GPS,
18200,2025-05-02 19:22:29,-23.0387646438101,-44.349074988394,41.0105,43.963256,-2.952756,41.0105,34.44882,14.5177406,194.49803772,212.088917548,16,5,8.449,44.29134,44.29134,14.5177406,194.49803772,12.750558,-6.934514,-0.223694,223.1, -2, 8.8,0,0,1041,1684,1024,1024,3,100,0,0,249.7,0,0,99,4.221,4.215,0,0,0,0,3.958,85.28,41.0105,41.0105,6,P-GPS,
18300,2025-05-02 19:22:29,-23.0387595342739,-44.3490780325418,41.0105,44.0288728,-3.0183728,41.0105,34.44882,14.5177406,196.0383921,214.214901868,16,5,8.433,44.29134,44.29134,14.5177406,196.0383921,12.750558,-6.934514,-0.223694,221.6, -2, 9,0,0,1041,1684,1024,1024,3,100,0,0,247.7,0,0,99,4.209,4.207,0,0,0,0,4.202,85.46,41.0105,41.0105,6,P-GPS,
18400,2025-05-02 19:22:29,-23.0387540152818,-44.3490811381557,41.0105,44.0944896,-3.0839896,41.0105,34.44882,14.8085428,197.729008952,216.482290392,16,5,8.433,44.29134,44.29134,14.8085428,197.729008952,12.974252,-7.158208,-0.223694,219.9, -2.3, 9.1,0,0,1041,1684,1024,1024,3,100,0,0,246.7,0,0,99,4.209,4.207,0,0,0,0,4.202,85.46,41.0105,41.0105,6,P-GPS,
18500,2025-05-02 19:22:29,-23.0387488909463,-44.3490842600054,41.0105,44.127298,-3.116798,41.0105,34.44882,14.7414346,199.290032624,218.625663164,16,5,8.433,44.29134,44.29134,14.8085428,199.290032624,12.750558,-7.381902,-0.223694,219, -3.1, 9.2,0,0,1035,1684,1024,1024,2,100,0,0,246.3,0,0,99,4.209,4.207,0,0,0,0,4.202,85.46,41.0105,41.0105,6,P-GPS,
18600,2025-05-02 19:22:30,-23.0387436786489,-44.3490876463479,41.338584,44.5538072,-3.2152232,41.338584,34.44882,14.8532816,200.87270984,220.8415425,16,5,8.433,44.29134,44.29134,14.8532816,200.87270984,12.750558,-7.605596,-0.447388,219.2, -3.6, 9.4,0,0,1027,1672,1024,1024,0,98,0,0,246.3,0,0,99,4.209,4.207,0,0,0,0,4.202,85.46,41.338584,41.338584,6,P-GPS,
18700,2025-05-02 19:22:30,-23.0387387242187,-44.3490909610443,41.338584,44.619424,-3.28084,41.338584,34.44882,15.0769756,202.380583904,222.96424598,16,5,8.433,44.29134,44.29134,15.0769756,202.380583904,12.750558,-8.052984,-0.447388,219, -4.1, 9,0,0,1024,1592,1024,1024,0,86,0,0,246.3,0,0,99,4.209,4.207,0,0,0,0,4.202,85.46,41.338584,41.338584,6,P-GPS,
18800,2025-05-02 19:22:30,-23.038733876823,-44.3490945867346,41.338584,44.7178492,-3.3792652,41.338584,34.44882,15.211192,203.838917284,225.111227676,16,5,8.433,44.29134,44.29134,15.211192,203.838917284,12.750558,-8.276678,-0.447388,218.5, -4.5, 8.9,0,0,1024,1564,1024,1024,0,82,0,0,246.3,0,0,99,4.209,4.207,0,0,0,0,4.202,85.46,41.338584,41.338584,6,P-GPS,
18900,2025-05-02 19:22:30,-23.038728921976,-44.3490980993561,41.338584,44.783466,-3.444882,41.338584,34.44882,15.1440838,205.355649616,227.269692312,16,5,8.433,44.29134,44.29134,15.211192,205.355649616,12.526864,-8.500372,-0.447388,218.4, -4.9, 7.1,0,0,1024,1635,1024,1024,0,93,0,0,246.3,0,0,99,4.209,4.207,0,0,0,0,4.202,85.46,41.338584,41.338584,6,P-GPS,
19000,2025-05-02 19:22:30,-23.0387237724713,-44.3491018314215,41.338584,44.8818912,-3.5433072,41.338584,34.44882,15.0769756,206.938326832,229.527894484,16,5,8.433,44.29134,44.29134,15.211192,206.938326832,12.30317,-8.724066,-0.447388,218.6, -3.8, 5.2,0,0,1024,1684,1024,1024,0,100,0,0,246.3,0,0,99,4.209,4.207,0,0,0,0,4.202,85.46,41.338584,41.338584,6,P-GPS,
19100,2025-05-02 19:22:30,-23.0387189432099,-44.3491054687999,41.338584,44.947508,-3.608924,41.338584,34.44882,15.0322368,208.42520352,231.671923424,15,5,8.433,44.29134,44.29134,15.211192,208.42520352,12.079476,-8.94776,-0.447388,218.9, -2.7, 5.8,0,0,1024,1684,1024,1024,0,100,0,0,246.3,0,0,99,4.209,4.207,0,0,0,0,4.202,85.46,41.338584,41.338584,6,P-GPS,
