time(millisecond),datetime(utc),latitude,longitude,height_above_takeoff(feet),height_above_ground_at_drone_location(feet),ground_elevation_at_drone_location(feet),altitude_above_seaLevel(feet),height_sonar(feet),speed(mph),distance(feet),mileage(feet),satellites,gpslevel,voltage(v),max_altitude(feet),max_ascent(feet),max_speed(mph),max_distance(feet), xSpeed(mph), ySpeed(mph), zSpeed(mph), compass_heading(degrees), pitch(degrees), roll(degrees),isPhoto,isVideo,rc_elevator,rc_aileron,rc_throttle,rc_rudder,rc_elevator(percent),rc_aileron(percent),rc_throttle(percent),rc_rudder(percent),gimbal_heading(degrees),gimbal_pitch(degrees),gimbal_roll(degrees),battery_percent,voltageCell1,voltageCell2,voltageCell3,voltageCell4,voltageCell5,voltageCell6,current(A),battery_temperature(f),altitude(feet),ascent(feet),flycStateRaw,flycState,message
597100,2025-05-01 19:12:34,-23.025930821561,-44.286516144623,0,0,7.363586849808,10.874085649808,2.952756,0,0,0,22,5,0,10.874085649808,0,0,0,-0.223694,0,0,61.6, -9.4, -4.3,0,0,364,364,364,1684,-100,-100,-100,100,72.5,0,0,49,3.87,3.868,0,0,0,0,0,111.02,10.874085649808,0,41,Motors_Started,"Error de calibración del estabilizador. Reinicia la aeronave o contacta con la Asistencia DJI (Code: 40011)"
597200,2025-05-01 19:12:34,-23.0259308673138,-44.2865161697187,0,0,7.363586849808,10.874085649808,2.952756,0,0.0186992131968,0.0186992131968,22,5,0,10.874085649808,0,0,0.0186992131968,0,0,0,61.9, -8.8, -4.4,0,0,364,364,364,1684,-100,-100,-100,100,72.9,0,0,49,3.87,3.868,0,0,0,0,0,111.02,10.874085649808,0,41,Motors_Started,
597300,2025-05-01 19:12:35,-23.0259305659084,-44.2865159973252,0,0,7.363586849808,10.874085649808,2.952756,0,0.105576775032,0.142971789352,22,5,0,10.874085649808,0,0,0.105576775032,0,0,0,61.2, -8.5, -4.3,0,0,364,364,364,1684,-100,-100,-100,100,73.1,0,0,49,3.87,3.868,0,0,0,0,0,111.02,10.874085649808,0,41,Motors_Started,
597400,2025-05-01 19:12:35,-23.0259305857102,-44.2865160450592,0,0,7.363586849808,10.874085649808,2.952756,0.223694,0.09231627592,0.160553154744,22,5,0,10.874085649808,0,0.223694,0.105576775032,0,-0.223694,0,60.3, -7.6, -4.7,0,0,364,364,364,1684,-100,-100,-100,100,72.7,0,0,49,3.87,3.868,0,0,0,0,0,111.02,10.874085649808,0,41,Motors_Started,
597500,2025-05-01 19:12:35,-23.0259305932141,-44.2865160577188,0,0,7.363586849808,10.874085649808,2.952756,0.223694,0.088274937208,0.165609257268,22,5,7.736,10.874085649808,0,0.223694,0.105576775032,0,-0.223694,0.223694,59.3, -7.3, -4.4,0,0,364,364,364,1684,-100,-100,-100,100,71.8,0,0,49,3.87,3.868,0,0,0,0,0.661,111.02,10.874085649808,0,41,Motors_Started,
597600,2025-05-01 19:12:35,-23.0259306137455,-44.2865160679954,0,0,7.363586849808,10.874085649808,2.952756,0,0.080068244032,0.173856960944,22,5,7.736,10.874085649808,0,0.223694,0.105576775032,0,0,0.223694,58.3, -7.3, -3.6,0,0,517,613,364,1684,-77,-62,-100,100,70.8,0,0,49,3.87,3.868,0,0,0,0,0.661,111.02,10.874085649808,0,41,Motors_Started,"Setting new Return-To-Home altitude to 100m (328 ft). Data Recorder File Index is 55. Setting new Maximum Flight Altitude to 500m (1640 ft)"
597700,2025-05-01 19:12:35,-23.0259306688781,-44.2865160989741,0,0,7.363586849808,10.874085649808,2.952756,0,26.540519222,0.196502302876,22,5,7.736,10.874085649808,0,0.223694,26.540519222,0,0,0.223694,57.5, -6.3, -3,0,0,1024,1024,1024,1024,0,0,0,0,70.1,0,0,49,3.87,3.868,0,0,0,0,0.661,111.02,10.874085649808,0,41,Motors_Started,
597800,2025-05-01 19:12:35,-23.0259305229695,-44.2865159120594,0,0,7.363586849808,10.874085649808,2.952756,0,26.6044299852,0.27880086194,22,5,7.736,10.874085649808,0,0.223694,26.6044299852,0,0,0.223694,56.3, -5.3, -2,0,0,1024,1024,1024,1024,0,0,0,0,69.2,0,0,49,3.87,3.868,0,0,0,0,0.661,111.02,10.874085649808,0,41,Motors_Started,
597900,2025-05-01 19:12:35,-23.0259305232822,-44.2865159270274,0,0,7.363586849808,10.874085649808,2.952756,0,26.5994103,0.283828093072,22,5,7.736,10.874085649808,0,0.223694,26.6044299852,0,0,0.223694,54.9, -3.4, -1.6,0,0,1024,1024,1024,1024,0,0,0,0,68,0,0,49,3.87,3.868,0,0,0,0,0.661,111.02,10.874085649808,0,41,Motors_Started,
598000,2025-05-01 19:12:35,-23.0259305377688,-44.2865159242721,0,0,7.363586849808,10.874085649808,2.952756,0,26.60023051,0.289193906892,22,5,7.736,10.874085649808,0,0.223694,26.6044299852,0,0,0.223694,53.3, -2.1, -0.3,0,0,1024,1024,1024,1024,0,0,0,0,66.7,0,0,49,3.87,3.868,0,0,0,0,0.661,111.02,10.874085649808,0,41,Motors_Started,
598100,2025-05-01 19:12:35,-23.0259305976956,-44.28651588257,0,0,7.363586849808,10.874085649808,2.952756,0,26.6137475708,0.315157818484,22,5,7.736,10.874085649808,0,0.223694,26.6137475708,0,0,0.223694,52.2, -1.4, 0.3,0,0,1024,1024,1024,1024,0,0,0,0,65.4,0,0,49,3.87,3.868,0,0,0,0,0.661,111.02,10.874085649808,0,41,Motors_Started,
598200,2025-05-01 19:12:35,-23.0259303980093,-44.2865156362299,-0.328084,-0.1968504,7.232353249808,10.546001649808,2.952756,0,26.6980979672,0.42538387188,22,5,7.736,10.874085649808,0,0.223694,26.6980979672,0,0,0.223694,51, -3, 1.9,0,0,1024,1024,1024,1024,0,0,0,0,64.2,0,0,49,3.87,3.868,0,0,0,0,0.661,111.02,10.546001649808,-0.328084,10,Assisted_Takeoff,
598300,2025-05-01 19:12:36,-23.0259304506406,-44.2865155620597,-0.328084,-0.1968504,7.232353249808,10.546001649808,2.952756,0,26.7225402252,0.45683400412,22,5,7.736,10.874085649808,0,0.223694,26.7225402252,0,0,0.223694,50.4, -4.4, 2.1,0,0,1024,1024,1024,1024,0,0,0,0,63.4,0,0,49,3.87,3.868,0,0,0,0,0.661,111.02,10.546001649808,-0.328084,10,Assisted_Takeoff,
598400,2025-05-01 19:12:36,-23.0259304820109,-44.2865154702407,-0.328084,-0.164042,7.199544849808,10.546001649808,2.952756,0,26.7530848456,0.48972114428,22,5,7.736,10.874085649808,0,0.223694,26.7530848456,0,0,0.447388,49.6, -5.6, 2.8,0,0,1024,1024,1024,1024,0,0,0,0,62.7,0,0,49,3.87,3.868,0,0,0,0,0.661,111.02,10.546001649808,-0.328084,10,Assisted_Takeoff,
598500,2025-05-01 19:12:36,-23.0259304830531,-44.2865153586131,-0.328084,-0.164042,7.199544849808,10.546001649808,2.952756,0,26.7905520384,0.52720474128,22,5,7.716,10.874085649808,0,0.223694,26.7905520384,0,0,0.447388,48.6, -6.3, 2.9,0,0,1024,1024,1024,1024,0,0,0,0,61.9,0,0,49,3.856,3.852,0,0,0,0,1.238,111.02,10.546001649808,-0.328084,10,Assisted_Takeoff,
598600,2025-05-01 19:12:36,-23.0259302048888,-44.286515047039,-0.328084,-0.164042,7.199544849808,10.546001649808,2.952756,0,26.8977042728,0.67296261996,22,5,7.716,10.874085649808,0,0.223694,26.8977042728,0,0,0.447388,47.7, -7.7, 3,0,0,1024,1024,1024,1024,0,0,0,0,61,0,0,49,3.856,3.852,0,0,0,0,1.238,111.02,10.546001649808,-0.328084,10,Assisted_Takeoff,
598700,2025-05-01 19:12:36,-23.0259301603867,-44.2865148640711,-0.328084,-0.164042,7.199544849808,10.546001649808,2.952756,0,26.9595481068,0.73650920992,22,5,7.716,10.874085649808,0,0.223694,26.9595481068,0,0,0.447388,46.9, -8, 2,0,0,1024,1024,1163,1024,0,0,21,0,60.2,0,0,49,3.856,3.852,0,0,0,0,1.238,111.02,10.546001649808,-0.328084,10,Assisted_Takeoff,
598800,2025-05-01 19:12:36,-23.0259301291206,-44.2865147088053,-0.328084,-0.164042,7.199544849808,10.546001649808,2.952756,0,27.01197593,0.7898786342,22,5,7.716,10.874085649808,0,0.223694,27.01197593,0,0,0.223694,45.8, -8.2, 1.8,0,0,1024,1024,1500,1024,0,0,72,0,59,0,0,49,3.856,3.852,0,0,0,0,1.238,111.02,10.546001649808,-0.328084,10,Assisted_Takeoff,
598900,2025-05-01 19:12:36,-23.0259301001473,-44.2865146086458,-0.328084,-0.164042,7.199544849808,10.546001649808,2.952756,0,27.0458998156,0.82513126,22,5,7.716,10.874085649808,0,0.223694,27.0458998156,0,0,0.223694,44.6, -7.7, 1.6,0,0,1024,1024,1671,1024,0,0,98,0,57.8,0,0,49,3.856,3.852,0,0,0,0,1.238,111.02,10.546001649808,-0.328084,10,Assisted_Takeoff,
599000,2025-05-01 19:12:36,-23.0259295865491,-44.2865144806353,-0.328084,-0.098425199999999,7.133928049808,10.546001649808,2.952756,0,27.0947843316,1.01738192232,22,5,7.716,10.874085649808,0,0.223694,27.0947843316,0,0,0.223694,43.6, -6.8, 1.3,0,0,1024,1024,1684,1024,0,0,100,0,56.8,0,0,49,3.856,3.852,0,0,0,0,1.238,111.02,10.546001649808,-0.328084,10,Assisted_Takeoff,
599100,2025-05-01 19:12:36,-23.025929477743,-44.286514377646,-0.328084,1.7301704513528E-15,7.035502849808,10.546001649808,2.952756,0,27.1307751464,1.07003284264,22,5,7.716,10.874085649808,0,0.223694,27.1307751464,0,0,0.223694,42.2, -5.8, 1,0,0,1024,1024,1684,1024,0,0,100,0,55.5,0,0,49,3.856,3.852,0,0,0,0,1.238,111.02,10.546001649808,-0.328084,10,Assisted_Takeoff,
599200,2025-05-01 19:12:37,-23.0259293895725,-44.286514286944,-0.328084,1.7301704513528E-15,7.035502849808,10.546001649808,2.952756,0,27.162402444,1.11433074432,22,5,7.716,10.874085649808,0,0.223694,27.162402444,0,0,0,41.4, -5.1, 0.6,0,0,1024,1024,1684,1024,0,0,100,0,54.3,0,0,49,3.856,3.852,0,0,0,0,1.238,111.02,10.546001649808,-0.328084,10,Assisted_Takeoff,
599300,2025-05-01 19:12:37,-23.0259293388172,-44.2865142016036,-0.328084,1.7301704513528E-15,7.035502849808,10.546001649808,0.656168,0,27.1917331536,1.14844819948,22,5,7.716,10.874085649808,0,0.223694,27.1917331536,0,0,0,40.9, -4.3, 0,0,0,1024,1024,1684,1024,0,0,100,0,53.8,0,0,49,3.856,3.852,0,0,0,0,1.238,111.02,10.546001649808,-0.328084,10,Assisted_Takeoff,
599400,2025-05-01 19:12:37,-23.0259292528353,-44.2865141501462,0,0.328084,7.035502849808,10.874085649808,0.656168,0,27.2102042828,1.18426184892,22,5,7.716,10.874085649808,0,0.223694,27.2102042828,0.223694,0,0,40.5, -3.2, -1.6,0,0,1024,1024,1684,1024,0,0,100,0,53.2,0,0,49,3.856,3.852,0,0,0,0,1.238,111.02,10.874085649808,0,10,Assisted_Takeoff,
599500,2025-05-01 19:12:37,-23.0259288606539,-44.2865142537312,0,0.328084,7.035502849808,10.874085649808,0.656168,0.447388,27.1814641244,1.33151579064,22,5,7.723,10.874085649808,0,0.447388,27.2102042828,0.447388,0,0,40.2, -2.9, -2.7,0,0,1024,1024,1684,1024,0,0,100,0,52.9,0,0,49,3.854,3.847,0,0,0,0,1.366,111.02,10.874085649808,0,10,Assisted_Takeoff,
599600,2025-05-01 19:12:37,-23.025928581239,-44.2865142488164,0,0.328084,7.035502849808,10.874085649808,0.656168,0.447388,27.1878617624,1.43347445532,22,5,7.723,10.874085649808,0,0.447388,27.2102042828,0.447388,0,0,39.3, -2.7, -2.5,0,0,1024,1024,1684,1024,0,0,100,0,52.2,0,0,49,3.854,3.847,0,0,0,0,1.366,111.02,10.874085649808,0,10,Assisted_Takeoff,
599700,2025-05-01 19:12:37,-23.0259282185519,-44.2865142248377,0,0.4265092,6.937077649808,10.874085649808,0.656168,0.671082,27.2026255424,1.56604663804,22,5,7.723,10.874085649808,0,0.671082,27.2102042828,0.671082,0,0,38.3, -2.4, -2.1,0,0,1024,1024,1101,1024,0,0,12,0,51.3,0,0,49,3.854,3.847,0,0,0,0,1.366,111.02,10.874085649808,0,10,Assisted_Takeoff,
599800,2025-05-01 19:12:37,-23.0259277905187,-44.286514220593,0,0.4265092,6.937077649808,10.874085649808,0.656168,0.894776,27.2128289548,1.72222118372,22,5,7.723,10.874085649808,0,0.894776,27.2128289548,0.894776,0,-0.671082,38.2, -0.7, -1,0,0,1024,1024,1024,1024,0,0,0,0,51.1,0,0,49,3.854,3.847,0,0,0,0,1.366,111.02,10.874085649808,0,6,P-GPS,
599900,2025-05-01 19:12:37,-23.025927041695,-44.2865142149334,0,0.5577428,6.805844049808,10.874085649808,0.984252,0.894776,27.2321859108,1.99543313472,22,5,7.723,10.874085649808,0,0.894776,27.2321859108,0.894776,0,-1.11847,38.7, 1.9, 3,0,0,1024,1024,1024,1024,0,0,0,0,51.1,0,0,49,3.854,3.847,0,0,0,0,1.366,111.02,10.874085649808,0,6,P-GPS,
600000,2025-05-01 19:12:37,-23.0259265592587,-44.2865142071143,0.328084,0.8858268,6.805844049808,11.202169649808,0.984252,0.671082,27.247540242,2.17146988576,22,5,7.723,11.202169649808,0.328084,0.894776,27.247540242,0.671082,0,-1.342164,38.7, 2.5, 3.8,0,0,1024,1024,1024,1024,0,0,0,0,51.1,0,0,49,3.854,3.847,0,0,0,0,1.366,111.02,11.202169649808,0.328084,6,P-GPS,
600100,2025-05-01 19:12:37,-23.0259261076716,-44.2865141379335,0.656168,1.312336,6.707418849808,11.530253649808,1.312336,0.671082,27.2835966736,2.3378609672,22,5,7.723,11.530253649808,0.656168,0.894776,27.2835966736,0.671082,0,-1.342164,38.7, 2.8, 3.6,0,0,1024,1024,1024,1024,0,0,0,0,51.1,0,0,49,3.854,3.847,0,0,0,0,1.366,111.02,11.530253649808,0.656168,6,P-GPS,
600200,2025-05-01 19:12:37,-23.025925718721,-44.2865140781357,0.984252,1.64042,6.707418849808,11.858337649808,1.312336,0.447388,27.3155192468,2.4811844626,22,5,7.723,11.858337649808,0.984252,0.894776,27.3155192468,0.447388,0,-1.342164,38.8, 2.6, 3.5,0,0,1024,1024,1024,1024,0,0,0,0,51.1,0,0,49,3.854,3.847,0,0,0,0,1.366,111.02,11.858337649808,0.984252,6,P-GPS,
600300,2025-05-01 19:12:38,-23.0259250722418,-44.2865140055294,1.312336,2.0997376,6.576185249808,12.186421649808,6.56168,0.447388,27.3611885396,2.7183071736,22,5,7.723,12.186421649808,1.312336,0.894776,27.3611885396,0.447388,0,-0.894776,38.8, 2.1, 3,0,0,1024,1024,1024,1024,0,0,0,0,51.1,0,0,49,3.854,3.847,0,0,0,0,1.366,111.02,12.186421649808,1.312336,6,P-GPS,
600400,2025-05-01 19:12:38,-23.0259247051775,-44.2865139733592,1.64042,2.4278216,6.576185249808,12.514505649808,6.56168,0.447388,27.3849418212,2.85266413328,23,5,7.723,12.514505649808,1.64042,0.894776,27.3849418212,0.447388,0,-0.447388,38.8, 2.3, 2.6,0,0,1024,1024,1024,1024,0,0,0,0,51.1,0,0,49,3.854,3.847,0,0,0,0,1.366,111.02,12.514505649808,1.64042,6,P-GPS,
600500,2025-05-01 19:12:38,-23.0259243098695,-44.2865139105082,1.64042,2.5262468,6.477760049808,12.514505649808,6.889764,0.447388,27.4207029772,2.99842857364,23,5,7.599,12.514505649808,1.64042,0.894776,27.4207029772,0.447388,0,-0.223694,38.6, 1.9, 1.7,0,0,1024,1024,1024,1024,0,0,0,0,51.1,0,0,49,3.812,3.808,0,0,0,0,4.6,111.02,12.514505649808,1.64042,6,P-GPS,
600600,2025-05-01 19:12:38,-23.0259239766768,-44.2865138729763,1.968504,2.8543308,6.477760049808,12.842589649808,6.889764,0.447388,27.4462279124,3.12064642532,23,5,7.599,12.842589649808,1.968504,0.894776,27.4462279124,0.447388,0,0,38.6, 1.6, 2.3,0,0,1024,1024,1024,1024,0,0,0,0,51.1,0,0,49,3.812,3.808,0,0,0,0,4.6,111.02,12.842589649808,1.968504,6,P-GPS,
600700,2025-05-01 19:12:38,-23.0259235103946,-44.2865138645614,1.968504,2.8543308,6.477760049808,12.842589649808,6.889764,0.447388,27.4681439236,3.2907809452,23,5,7.599,12.842589649808,1.968504,0.894776,27.4681439236,0.447388,0,0,38.5, 2.2, 2.7,0,0,1024,1024,1024,1024,0,0,0,0,51.1,0,0,49,3.812,3.808,0,0,0,0,4.6,111.02,12.842589649808,1.968504,6,P-GPS,"Punto de origen actualizado. Altitud de RPO establecida en 100m (Code: 30213)"
600800,2025-05-01 19:12:38,-23.0259232572433,-44.2865138716359,2.296588,3.3136484,6.346526449808,13.170673649808,7.217848,0.447388,27.4765756824,3.3831693996,23,5,7.599,13.170673649808,2.296588,0.894776,27.4765756824,0.447388,0,0,38.6, 3.6, 2.9,0,0,1024,1024,1024,1024,0,0,0,0,51.1,0,0,49,3.812,3.808,0,0,0,0,4.6,111.02,13.170673649808,2.296588,6,P-GPS,
600900,2025-05-01 19:12:38,-23.0259229731384,-44.2865138755827,2.296588,3.3136484,6.346526449808,13.170673649808,7.217848,0.447388,27.4877633468,3.4868439436,23,5,7.599,13.170673649808,2.296588,0.894776,27.4877633468,0.447388,0,0,38.6, 2.9, 3.2,0,0,1024,1024,1024,1024,0,0,0,0,51.1,0,0,49,3.812,3.808,0,0,0,0,4.6,111.02,13.170673649808,2.296588,6,P-GPS,
601000,2025-05-01 19:12:38,-23.0259227259276,-44.2865138939763,2.296588,3.3136484,6.346526449808,13.170673649808,7.217848,0.223694,27.4928158404,3.577263894,23,5,7.599,13.170673649808,2.296588,0.894776,27.4928158404,0.223694,0,0,38.7, 2.8, 4,0,0,1024,1024,1024,1024,0,0,0,0,51.1,0,0,49,3.812,3.808,0,0,0,0,4.6,111.02,13.170673649808,2.296588,6,P-GPS,
601100,2025-05-01 19:12:38,-23.0259224839278,-44.2865139286039,2.296588,3.4120736,6.248101249808,13.170673649808,7.217848,0.223694,27.4925205648,3.6663058916,23,5,7.599,13.170673649808,2.296588,0.894776,27.4928158404,0.223694,0,0,38.6, 3.1, 3.4,0,0,1024,1024,1142,1024,0,0,18,0,51.1,0,0,49,3.812,3.808,0,0,0,0,4.6,111.02,13.170673649808,2.296588,6,P-GPS,
601200,2025-05-01 19:12:39,-23.0259220662123,-44.2865139763379,2.624672,3.7401576,6.248101249808,13.498757649808,7.545932,0.223694,27.4966544232,3.819553928,23,5,7.599,13.498757649808,2.624672,0.894776,27.4966544232,0.223694,0,0,38.6, 3.6, 3.7,0,0,1196,1024,1564,1024,26,0,82,0,51.1,0,0,49,3.812,3.808,0,0,0,0,4.6,111.02,13.498757649808,2.624672,6,P-GPS,
601300,2025-05-01 19:12:39,-23.0259220180625,-44.2865139373911,2.624672,3.7401576,6.248101249808,13.498757649808,7.545932,0,27.5120087544,3.8414699392,23,5,7.599,13.498757649808,2.624672,0.894776,27.5120087544,0,0,0,38.7, 3, 3.4,0,0,1615,1024,1684,1024,90,0,100,0,51.1,0,0,49,3.812,3.808,0,0,0,0,4.6,111.02,13.498757649808,2.624672,6,P-GPS,
601400,2025-05-01 19:12:39,-23.0259219767912,-44.286513913338,2.624672,3.7401576,6.248101249808,13.498757649808,7.545932,0,27.5220153164,3.8585303072,23,5,7.599,13.498757649808,2.624672,0.894776,27.5220153164,0,0,-0.447388,38.5, 0.7, 3,0,0,1615,1024,1684,1024,90,0,100,0,51.1,0,0,49,3.812,3.808,0,0,0,0,4.6,111.02,13.498757649808,2.624672,6,P-GPS,
601500,2025-05-01 19:12:39,-23.0259218543322,-44.2865139067848,2.952756,4.0682416,6.248101249808,13.826841649808,7.545932,0,27.5302830332,3.9032809648,23,5,7.599,13.826841649808,2.952756,0.894776,27.5302830332,0,0,-0.894776,38.4, -6.8, 2.9,0,0,1684,1024,1664,1024,100,0,97,0,51.1,0,0,49,3.812,3.808,0,0,0,0,4.6,111.02,13.826841649808,2.952756,6,P-GPS,
601600,2025-05-01 19:12:39,-23.0259215486538,-44.2865138014126,2.952756,4.0682416,6.248101249808,13.826841649808,7.874016,0.6263432,27.5808079692,4.0202757192,23,5,7.624,13.826841649808,2.952756,0.894776,27.5808079692,0.447388,0.447388,-1.789552,38.4, -12.4, 2.5,0,0,1684,1024,1243,1024,100,0,33,0,51.1,0,0,49,3.815,3.81,0,0,0,0,4.589,111.02,13.826841649808,2.952756,6,P-GPS,
601700,2025-05-01 19:12:39,-23.0259211366705,-44.286513523349,3.28084,4.4947508,6.149676049808,14.154925649808,8.2021,1.2750558,27.6947515424,4.1972442288,23,5,7.624,14.154925649808,3.28084,1.2750558,27.6947515424,0.894776,0.894776,-2.23694,38.7, -12.9, 2.1,0,0,1684,1024,1024,1024,100,0,0,0,51.1,0,0,49,3.815,3.81,0,0,0,0,4.589,111.02,14.154925649808,3.28084,6,P-GPS,
601800,2025-05-01 19:12:39,-23.0259205798208,-44.286513113626,3.937008,5.2165356,6.084059249808,14.811093649808,8.530184,1.2750558,27.8610245136,4.442585444,23,5,7.624,14.811093649808,3.937008,1.2750558,27.8610245136,1.342164,1.11847,-2.23694,38.8, -13.6, 2.6,0,0,1684,1024,1024,1024,100,0,0,0,51.1,0,0,49,3.815,3.81,0,0,0,0,4.589,111.02,14.811093649808,3.937008,6,P-GPS,
601900,2025-05-01 19:12:39,-23.0259198611168,-44.2865125639032,3.937008,5.3149608,5.985634049808,14.811093649808,8.858268,2.23694,28.0842856756,4.7632547456,23,5,7.624,14.811093649808,3.937008,2.23694,28.0842856756,1.789552,1.342164,-1.789552,38.7, -14.9, 2.5,0,0,1669,1024,1024,1024,98,0,0,0,51.1,0,0,49,3.815,3.81,0,0,0,0,4.589,111.02,14.811093649808,3.937008,6,P-GPS,
602000,2025-05-01 19:12:39,-23.0259188019247,-44.286512035776,4.265092,5.8070868,5.821592049808,15.139177649808,9.186352,2.8632832,28.3234261032,5.1884516096,23,5,7.624,15.139177649808,4.265092,2.8632832,28.3234261032,2.23694,1.789552,-1.11847,38.8, -15.7, 2.6,0,0,1117,1024,1024,1024,14,0,0,0,51.1,0,0,49,3.815,3.81,0,0,0,0,4.589,111.02,15.139177649808,4.265092,6,P-GPS,
602100,2025-05-01 19:12:39,-23.0259177139678,-44.2865111878833,4.593176,6.2992128,5.657550049808,15.467261649808,9.186352,3.35541,28.674377558,5.6769358772,23,5,7.624,15.467261649808,4.593176,3.35541,28.674377558,2.684328,2.013246,-0.671082,38.8, -14, 2.6,0,0,1024,1024,1024,1024,0,0,0,0,51.1,0,0,49,3.815,3.81,0,0,0,0,4.589,111.02,15.467261649808,4.593176,6,P-GPS,
602200,2025-05-01 19:12:39,-23.0259165440936,-44.2865102815331,4.593176,6.4632548,5.493508049808,15.467261649808,9.514436,3.6685816,29.0543972552,6.2011484924,23,5,7.624,15.467261649808,4.593176,3.6685816,29.0543972552,2.908022,2.23694,-0.223694,39, -3.3, 2.5,0,0,1024,1024,1024,1024,0,0,0,0,51.1,0,0,49,3.815,3.81,0,0,0,0,4.589,111.02,15.467261649808,4.593176,6,P-GPS,
602300,2025-05-01 19:12:40,-23.0259152273729,-44.2865093051086,4.593176,6.725722,5.231040849808,15.467261649808,9.514436,3.5343652,29.4730652476,6.7827758076,23,5,7.624,15.467261649808,4.593176,3.6685816,29.4730652476,2.908022,2.013246,0,39.4, 13.3, 2.2,0,0,1024,1024,1024,1024,0,0,0,0,51.1,-0.1,0,49,3.815,3.81,0,0,0,0,4.589,111.02,15.467261649808,4.593176,6,P-GPS,
602400,2025-05-01 19:12:40,-23.0259137106532,-44.2865083189287,4.593176,6.889764,5.066998849808,15.467261649808,9.84252,2.908022,29.9167332408,7.427657718,23,5,7.624,15.467261649808,4.593176,3.6685816,29.9167332408,2.460634,1.565858,0,39.4, 15.9, 2.6,0,0,1024,1024,1024,1024,0,0,0,0,51.1,-0.7,0,49,3.815,3.81,0,0,0,0,4.589,111.02,15.467261649808,4.593176,6,P-GPS,
602500,2025-05-01 19:12:40,-23.0259127780889,-44.2865075691848,4.593176,6.9881892,4.968573649808,15.467261649808,9.84252,2.4158952,30.2399287892,7.8509188864,23,5,7.624,15.467261649808,4.593176,3.6685816,30.2399287892,2.013246,1.342164,0,39.3, 14.7, 2.5,0,0,1024,1024,1024,1024,0,0,0,0,51.1,-1.8,0,49,3.815,3.81,0,0,0,0,4.589,111.02,15.467261649808,4.593176,6,P-GPS,
602600,2025-05-01 19:12:40,-23.0259120829387,-44.2865070095577,4.593176,7.1522312,4.804531649808,15.467261649808,10.170604,1.6105968,30.4826781408,8.1665685028,23,5,7.628,15.467261649808,4.593176,3.6685816,30.4826781408,1.342164,0.894776,0,39, 12.3, 2.2,0,0,1024,1024,1024,1024,0,0,0,0,51.1,-3.1,0,49,3.82,3.812,0,0,0,0,4.952,111.02,15.467261649808,4.593176,6,P-GPS,
602700,2025-05-01 19:12:40,-23.0259115380744,-44.2865065729517,4.593176,7.1522312,4.804531649808,15.467261649808,10.170604,1.2079476,30.673229328,8.4135829464,23,5,7.628,15.467261649808,4.593176,3.6685816,30.673229328,1.11847,0.447388,0,39, 9.7, 2.3,0,0,1024,1024,1024,1024,0,0,0,0,51.1,-4.5,0,49,3.82,3.812,0,0,0,0,4.952,111.02,15.467261649808,4.593176,6,P-GPS,
602800,2025-05-01 19:12:40,-23.025911174762,-44.2865062299521,4.92126,7.6443572,4.640489649808,15.795345649808,10.170604,0.7158208,30.817586288,8.5891735032,24,5,7.628,15.795345649808,4.92126,3.6685816,30.817586288,0.671082,0.223694,0,38.8, 7.3, 2.3,0,0,1024,1024,1024,1024,0,0,0,0,51.1,-5.9,0,49,3.82,3.812,0,0,0,0,4.952,111.02,15.795345649808,4.92126,6,P-GPS,
602900,2025-05-01 19:12:40,-23.0259111867474,-44.2865057604313,4.92126,7.6443572,4.640489649808,15.795345649808,10.170604,0.223694,30.9692267128,8.746883482,24,5,7.628,15.795345649808,4.92126,3.6685816,30.9692267128,0.223694,0,0,38.9, 5.3, 2.2,0,0,1024,1024,1024,1024,0,0,0,0,51.1,-7.4,0,49,3.82,3.812,0,0,0,0,4.952,111.02,15.795345649808,4.92126,6,P-GPS,
603000,2025-05-01 19:12:40,-23.0259111258826,-44.2865055817825,4.92126,7.6443572,4.640489649808,15.795345649808,10.498688,0,31.0328422004,8.810859862,24,5,7.628,15.795345649808,4.92126,3.6685816,31.0328422004,0,0,0,38.8, 3.4, 2.2,0,0,1024,1024,1024,1024,0,0,0,0,51.1,-8.8,0,49,3.82,3.812,0,0,0,0,4.952,111.02,15.795345649808,4.92126,6,P-GPS,
603100,2025-05-01 19:12:40,-23.0259112458403,-44.2865056381548,4.92126,7.6443572,4.640489649808,15.795345649808,10.498688,0,31.0036755328,8.8585632756,24,5,7.628,15.795345649808,4.92126,3.6685816,31.0328422004,0,0,0,38.8, 2.2, 2.1,0,0,1024,1024,1024,1024,0,0,0,0,51.1,-10.3,0,49,3.82,3.812,0,0,0,0,4.952,111.02,15.795345649808,4.92126,6,P-GPS,
603200,2025-05-01 19:12:40,-23.025911354438,-44.2865057069632,4.92126,7.6443572,4.640489649808,15.795345649808,10.498688,0,30.9715561092,8.9044294188,24,5,7.628,15.795345649808,4.92126,3.6685816,31.0328422004,0,0,0,38.8, 1.4, 1.8,0,0,1024,1024,1024,1024,0,0,0,0,51.1,-11.7,0,49,3.82,3.812,0,0,0,0,4.952,111.02,15.795345649808,4.92126,6,P-GPS,
603300,2025-05-01 19:12:41,-23.0259115561045,-44.2865063429201,4.92126,7.5131236,4.771723249808,15.795345649808,10.498688,0,30.7464904852,9.1302824444,24,5,7.628,15.795345649808,4.92126,3.6685816,31.0328422004,0,0,0,38.9, 1.1, 1.8,0,0,1024,1024,1024,1024,0,0,0,0,51.1,-12.9,0,49,3.82,3.812,0,0,0,0,4.952,111.02,15.795345649808,4.92126,6,P-GPS,
603400,2025-05-01 19:12:41,-23.0259115242131,-44.2865064230476,4.92126,7.5131236,4.771723249808,15.795345649808,10.498688,0,30.723262138,9.1595803456,24,5,7.628,15.795345649808,4.92126,3.6685816,31.0328422004,0,0,0,38.8, 0.9, 1.6,0,0,1024,1024,1024,1024,0,0,0,0,51.1,-13.3,0,49,3.82,3.812,0,0,0,0,4.952,111.02,15.795345649808,4.92126,6,P-GPS,
603500,2025-05-01 19:12:41,-23.0259114566782,-44.2865065252922,4.92126,7.5787404,4.706106449808,15.795345649808,10.498688,0,30.696031166,9.2018375648,24,5,7.628,15.795345649808,4.92126,3.6685816,31.0328422004,0,0,0,38.8, 0.8, 1.3,0,0,1024,1024,1024,1024,0,0,0,0,51.1,-12.7,0,49,3.82,3.812,0,0,0,0,4.952,111.02,15.795345649808,4.92126,6,P-GPS,
603600,2025-05-01 19:12:41,-23.0259114181167,-44.286506622473,4.92126,7.5787404,4.706106449808,15.795345649808,10.498688,0,30.6678815588,9.2374018704,24,5,7.62,15.795345649808,4.92126,3.6685816,31.0328422004,0,0,0,38.7, 0.4, 1.2,0,0,1024,1024,1024,1024,0,0,0,0,51.1,-11.6,0,49,3.814,3.807,0,0,0,0,4.437,111.02,15.795345649808,4.92126,6,P-GPS,
603700,2025-05-01 19:12:41,-23.0259111813279,-44.2865069557918,4.92126,7.5787404,4.706106449808,15.795345649808,10.498688,0,30.5809721072,9.378773266,24,5,7.62,15.795345649808,4.92126,3.6685816,31.0328422004,0,0,0,38.7, 0.7, 1.1,0,0,1024,1024,1024,1024,0,0,0,0,51.1,-10.2,0,49,3.814,3.807,0,0,0,0,4.437,111.02,15.795345649808,4.92126,6,P-GPS,
603800,2025-05-01 19:12:41,-23.0259111897698,-44.2865070499938,4.92126,7.5787404,4.706106449808,15.795345649808,10.498688,0,30.5496072768,9.4105646056,24,5,7.62,15.795345649808,4.92126,3.6685816,31.0328422004,0,0,0,38.8, 1.2, 1.4,0,0,1024,1024,1024,1024,0,0,0,0,51.1,-8.8,0,49,3.814,3.807,0,0,0,0,4.437,111.02,15.795345649808,4.92126,6,P-GPS,
603900,2025-05-01 19:12:41,-23.0259111878938,-44.2865071558129,4.92126,7.5787404,4.706106449808,15.795345649808,10.498688,0,30.5153553072,9.4460961028,24,5,7.62,15.795345649808,4.92126,3.6685816,31.0328422004,0,0,0,38.8, 0.7, 1.6,0,0,1024,1024,1024,1024,0,0,0,0,51.1,-7.4,0,49,3.814,3.807,0,0,0,0,4.437,111.02,15.795345649808,4.92126,6,P-GPS,
604000,2025-05-01 19:12:41,-23.0259111847672,-44.2865072370574,4.92126,7.5787404,4.706106449808,15.795345649808,10.498688,0,30.4892398208,9.4733926916,24,5,7.62,15.795345649808,4.92126,3.6685816,31.0328422004,0,0,0,38.8, 0.6, 1.5,0,0,1024,1024,1024,1024,0,0,0,0,51.1,-5.9,0,49,3.814,3.807,0,0,0,0,4.437,111.02,15.795345649808,4.92126,6,P-GPS,
604100,2025-05-01 19:12:41,-23.0259108533463,-44.2865071841107,4.92126,7.5787404,4.706106449808,15.795345649808,10.826772,0,30.537074468,9.5956039816,24,5,7.62,15.795345649808,4.92126,3.6685816,31.0328422004,0,0,0,38.7, 0.7, 1.2,0,0,1024,1024,1024,1024,0,0,0,0,51.1,-4.6,0,49,3.814,3.807,0,0,0,0,4.437,111.02,15.795345649808,4.92126,6,P-GPS,
604200,2025-05-01 19:12:42,-23.0259108301051,-44.2865071847809,4.92126,7.5787404,4.706106449808,15.795345649808,10.826772,0,30.5390101636,9.6041013572,24,5,7.62,15.795345649808,4.92126,3.6685816,31.0328422004,0,0,0,38.8, 1.3, 1.5,0,0,1024,1024,1024,1024,0,0,0,0,51.1,-3.6,0,49,3.814,3.807,0,0,0,0,4.437,111.02,15.795345649808,4.92126,6,P-GPS,
604300,2025-05-01 19:12:42,-23.0259108062386,-44.2865071369724,4.92126,7.5787404,4.706106449808,15.795345649808,10.826772,0,30.556759508,9.622375636,24,5,7.62,15.795345649808,4.92126,3.6685816,31.0328422004,0,0,0,38.8, 0.5, 1.4,0,0,1024,1024,1024,1024,0,0,0,0,51.1,-2.9,0,49,3.814,3.807,0,0,0,0,4.437,111.02,15.795345649808,4.92126,6,P-GPS,
604400,2025-05-01 19:12:42,-23.0259108024867,-44.2865071153767,4.92126,7.5787404,4.706106449808,15.795345649808,10.826772,0,30.5641085896,9.6297247176,24,5,7.62,15.795345649808,4.92126,3.6685816,31.0328422004,0,0,0,38.7, 0.3, 1.5,0,0,1024,1024,1024,1024,0,0,0,0,51.1,-2.5,0,49,3.814,3.807,0,0,0,0,4.437,111.02,15.795345649808,4.92126,6,P-GPS,
604500,2025-05-01 19:12:42,-23.025910830522,-44.2865071510469,4.593176,7.2506564,4.706106449808,15.467261649808,10.826772,0,30.5499025524,9.645505558,24,5,7.62,15.795345649808,4.92126,3.6685816,31.0328422004,0,0,0,38.8, 0.1, 1.4,0,0,1246,1024,1024,1024,34,0,0,0,51.1,-2.3,0,49,3.814,3.807,0,0,0,0,4.437,111.02,15.467261649808,4.593176,6,P-GPS,
604600,2025-05-01 19:12:42,-23.0259106737745,-44.2865070069513,4.593176,7.2506564,4.706106449808,15.467261649808,10.826772,0,30.6113198772,9.7204071352,24,5,7.618,15.795345649808,4.92126,3.6685816,31.0328422004,0,0,0,38.8, -1, 1.4,0,0,1684,1024,1024,1024,100,0,0,0,51.1,-2.3,0,49,3.812,3.804,0,0,0,0,4.354,111.2,15.467261649808,4.593176,6,P-GPS,
604700,2025-05-01 19:12:42,-23.0259107353687,-44.2865070058343,4.593176,7.2506564,4.706106449808,15.467261649808,10.826772,0,30.6059392996,9.7428808892,24,5,7.618,15.795345649808,4.92126,3.6685816,31.0328422004,0,0,0,38.7, -9.7, 1.4,0,0,1684,1024,1024,1024,100,0,0,0,51.1,-2.3,0,49,3.812,3.804,0,0,0,0,4.354,111.2,15.467261649808,4.593176,6,P-GPS,
604800,2025-05-01 19:12:42,-23.0259107137951,-44.2865069289088,4.593176,7.2506564,4.706106449808,15.467261649808,10.498688,0.3131716,30.6329078044,9.7698822024,24,5,7.618,15.795345649808,4.92126,3.6685816,31.0328422004,0.223694,0.223694,0,38.6, -17.4, 1.3,0,0,1684,1024,1024,1024,100,0,0,0,51.1,-2.3,0,49,3.812,3.804,0,0,0,0,4.354,111.2,15.467261649808,4.593176,6,P-GPS,
604900,2025-05-01 19:12:42,-23.0259105250519,-44.2865067046112,4.593176,7.2506564,4.706106449808,15.467261649808,10.498688,0.9395148,30.7233605632,9.8719163264,24,5,7.618,15.795345649808,4.92126,3.6685816,31.0328422004,0.671082,0.671082,0,38.7, -18.8, 1.2,0,0,1684,1024,1024,1024,100,0,0,0,51.1,-2.3,0,49,3.812,3.804,0,0,0,0,4.354,111.2,15.467261649808,4.593176,6,P-GPS,
605000,2025-05-01 19:12:42,-23.0259101535062,-44.2865063280264,4.593176,7.4146984,4.542064449808,15.467261649808,10.498688,1.7448132,30.8806112244,10.0573165948,24,5,7.618,15.795345649808,4.92126,3.6685816,31.0328422004,1.342164,1.11847,0,38.7, -18.8, 1.4,0,0,1684,1024,1024,1024,100,0,0,0,51.1,-2.3,0,49,3.812,3.804,0,0,0,0,4.354,111.2,15.467261649808,4.593176,6,P-GPS,
605100,2025-05-01 19:12:42,-23.0259094864955,-44.2865057023462,4.593176,7.5131236,4.443639249808,15.467261649808,10.498688,2.3711564,31.147310708,10.3788061064,24,5,7.618,15.795345649808,4.92126,3.6685816,31.147310708,1.789552,1.565858,0,38.6, -18, 1.4,0,0,1684,1024,1024,1024,100,0,0,0,51.1,-2.3,0,49,3.812,3.804,0,0,0,0,4.354,111.2,15.467261649808,4.593176,6,P-GPS,
605200,2025-05-01 19:12:42,-23.0259086463747,-44.2865049256449,4.593176,7.5787404,4.378022449808,15.467261649808,10.498688,3.1764548,31.4810705612,10.7812667492,24,5,7.618,15.795345649808,4.92126,3.6685816,31.4810705612,2.460634,2.013246,0,38.6, -17.5, 1.5,0,0,1684,1024,1024,1024,100,0,0,0,51.1,-2.3,0,49,3.812,3.804,0,0,0,0,4.354,111.2,15.467261649808,4.593176,6,P-GPS,
605300,2025-05-01 19:12:43,-23.0259075420552,-44.2865039110182,4.593176,7.7427824,4.213980449808,15.467261649808,10.498688,3.802798,31.92011257,11.3089242464,24,5,7.618,15.795345649808,4.92126,3.802798,31.92011257,2.908022,2.460634,0,38.8, -17.1, 1.4,0,0,1684,1024,1024,1024,100,0,0,0,51.1,-2.3,0,49,3.812,3.804,0,0,0,0,4.354,111.2,15.467261649808,4.593176,6,P-GPS,
605400,2025-05-01 19:12:43,-23.0259061916713,-44.2865027237748,4.593176,8.0052496,3.951513249808,15.467261649808,10.498688,4.4291412,32.4434393584,11.9426841092,24,5,7.618,15.795345649808,4.92126,4.4291412,32.4434393584,3.35541,2.908022,0,38.6, -17.1, 0.6,0,0,1684,1024,1024,1024,100,0,0,0,51.1,-2.3,0,49,3.812,3.804,0,0,0,0,4.354,111.2,15.467261649808,4.593176,6,P-GPS,
605500,2025-05-01 19:12:43,-23.025904568751,-44.2865012593613,4.593176,8.2021,3.754662849808,15.467261649808,10.498688,4.921268,33.089567988,12.7123691732,24,5,7.618,15.795345649808,4.92126,4.921268,33.089567988,3.802798,3.131716,0,38.6, -17.2, 1.5,0,0,1684,1024,1024,1024,100,0,0,0,51.1,-2.3,0,49,3.812,3.804,0,0,0,0,4.354,111.2,15.467261649808,4.593176,6,P-GPS,
605600,2025-05-01 19:12:43,-23.0259028546378,-44.2864997396927,4.593176,8.4645672,3.492195649808,15.467261649808,10.498688,5.4133948,33.768701868,13.51952143,24,5,7.605,15.795345649808,4.92126,5.4133948,33.768701868,4.250186,3.35541,0,38.7, -17.1, 1.9,0,0,1684,1024,1024,1024,100,0,0,0,51.1,-2.3,0,49,3.807,3.799,0,0,0,0,4.516,111.2,15.467261649808,4.593176,6,P-GPS,
605700,2025-05-01 19:12:43,-23.0259008850804,-44.2864980330348,4.593176,8.7926512,3.164111649808,15.467261649808,10.498688,6.039738,34.543636276,14.4386159476,24,5,7.605,15.795345649808,4.92126,6.039738,34.543636276,4.697574,3.802798,0,38.7, -17.4, 1.1,0,0,1684,1024,1024,1024,100,0,0,0,51.1,-2.3,0,49,3.807,3.799,0,0,0,0,4.516,111.2,15.467261649808,4.593176,6,P-GPS,
605800,2025-05-01 19:12:43,-23.0258982728999,-44.2864958853029,4.593176,9.2191604,2.737602449808,15.467261649808,10.826772,6.3529096,35.545604812,15.6337931512,24,5,7.605,15.795345649808,4.92126,6.3529096,35.545604812,4.921268,4.026492,0,38.7, -17.4, 0.7,0,0,1684,1024,1024,1024,100,0,0,0,51.1,-2.3,0,49,3.807,3.799,0,0,0,0,4.516,111.2,15.467261649808,4.593176,6,P-GPS,
605900,2025-05-01 19:12:43,-23.0258960046467,-44.2864938062305,4.593176,9.5472444,2.409518449808,15.467261649808,10.826772,6.9792528,36.492127152,16.7164703512,24,5,7.605,15.795345649808,4.92126,6.9792528,36.492127152,5.368656,4.47388,0,38.7, -17.1, 1.1,0,0,1684,1024,1024,1024,100,0,0,0,51.1,-2.3,0,49,3.807,3.799,0,0,0,0,4.516,111.2,15.467261649808,4.593176,6,P-GPS,
606000,2025-05-01 19:12:43,-23.025893696373,-44.2864917037752,4.593176,9.84252,2.114242849808,15.467261649808,10.826772,7.2924244,37.458662616,17.8154205176,24,5,7.605,15.795345649808,4.92126,7.2924244,37.458662616,5.59235,4.697574,0,38.7, -17.6, 1.2,0,0,1684,1024,1024,1024,100,0,0,0,51.1,-2.3,0,49,3.807,3.799,0,0,0,0,4.516,111.2,15.467261649808,4.593176,6,P-GPS,
606100,2025-05-01 19:12:43,-23.0258911187936,-44.2864893755329,4.593176,10.334646,1.622116849808,15.467261649808,11.154856,7.7845512,38.540355564,19.0383536276,24,5,7.605,15.795345649808,4.92126,7.7845512,38.540355564,6.039738,4.921268,0,38.5, -18.6, 1.7,0,0,1684,1024,1024,1024,100,0,0,0,51.1,-2.3,0,49,3.807,3.799,0,0,0,0,4.516,111.2,15.467261649808,4.593176,6,P-GPS,
606200,2025-05-01 19:12:43,-23.0258885421523,-44.2864870192906,4.593176,10.6299216,1.326841249808,15.467261649808,11.154856,8.4108944,39.638780796,20.267061016,24,5,7.605,15.795345649808,4.92126,8.4108944,39.638780796,6.487126,5.368656,0,38.6, -18.4, 0.5,0,0,1684,1024,1024,1024,100,0,0,0,51.1,-2.3,0,49,3.807,3.799,0,0,0,0,4.516,111.2,15.467261649808,4.593176,6,P-GPS,
606300,2025-05-01 19:12:44,-23.0258857057937,-44.2864841972509,4.593176,11.1220476,0.834715249808,15.467261649808,11.154856,8.9030212,40.926182412,21.6702106672,24,5,7.605,15.795345649808,4.92126,8.9030212,40.926182412,6.934514,5.59235,0,38.7, -16.9, 0.2,0,0,1684,1024,1024,1024,100,0,0,0,51.1,-2.3,0,49,3.807,3.799,0,0,0,0,4.516,111.2,15.467261649808,4.593176,6,P-GPS,
606400,2025-05-01 19:12:44,-23.0258828747503,-44.2864815749343,4.593176,11.5485568,0.408206049808,15.467261649808,11.154856,9.2161928,42.159450168,23.0274941752,24,5,7.605,15.795345649808,4.92126,9.2161928,42.159450168,7.158208,5.816044,0,38.8, -15.5, 1.1,0,0,1684,1024,1024,1024,100,0,0,0,51.1,-2.3,0,49,3.807,3.799,0,0,0,0,4.516,111.2,15.467261649808,4.593176,6,P-GPS,
606500,2025-05-01 19:12:44,-23.0258797957666,-44.2864787625755,4.92126,12.3687668,-0.083919950192,15.795345649808,11.48294,9.5293644,43.497048636,24.4950467156,24,5,7.605,15.795345649808,4.92126,9.5293644,43.497048636,7.381902,6.039738,0,38.7, -15.7, 1.3,0,0,1684,1024,1024,1024,100,0,0,0,51.1,-2,0,49,3.807,3.799,0,0,0,0,4.516,111.2,15.795345649808,4.92126,6,P-GPS,
606600,2025-05-01 19:12:44,-23.0258767304357,-44.2864759938549,4.92126,12.8280844,-0.543237550192,15.795345649808,11.48294,10.0214912,44.82775734,25.9493774708,23,5,7.601,15.795345649808,4.92126,10.0214912,44.82775734,7.82929,6.263432,0,38.7, -15.3, 2.2,0,0,1684,1024,1024,1024,100,0,0,0,51.1,-1.1,0,49,3.799,3.792,0,0,0,0,4.712,111.2,15.795345649808,4.92126,6,P-GPS,
606700,2025-05-01 19:12:44,-23.025873348379,-44.2864730442514,4.92126,13.4186356,-1.133788750192,15.795345649808,11.811024,10.3346628,46.273295444,27.5316281776,23,5,7.601,15.795345649808,4.92126,10.3346628,46.273295444,8.052984,6.487126,0,38.7, -15.5, 0.5,0,0,1684,1024,1024,1024,100,0,0,0,51.1,0,0,49,3.799,3.792,0,0,0,0,4.712,111.2,15.795345649808,4.92126,6,P-GPS,
606800,2025-05-01 19:12:44,-23.0258700135341,-44.286470046914,4.92126,13.9107616,-1.625914750192,15.795345649808,11.811024,10.625465,47.733269244,29.1106636612,23,5,7.601,15.795345649808,4.92126,10.625465,47.733269244,8.052984,6.934514,0,38.7, -15.3, 0,0,0,1630,1024,1024,1024,92,0,0,0,51.1,0,0,49,3.799,3.792,0,0,0,0,4.712,111.2,15.795345649808,4.92126,6,P-GPS,
606900,2025-05-01 19:12:44,-23.0258664060486,-44.2864667720343,4.92126,14.5013128,-2.216465950192,15.795345649808,12.139108,10.8044202,49.330382156,30.825788388,23,5,7.601,15.795345649808,4.92126,10.8044202,49.330382156,8.276678,6.934514,0,38.8, -15.4, 0,0,0,1024,1024,1024,1024,0,0,0,0,51.1,0,0,49,3.799,3.792,0,0,0,0,4.712,111.2,15.795345649808,4.92126,6,P-GPS,
607000,2025-05-01 19:12:44,-23.0258629120592,-44.2864636378992,4.92126,14.9934388,-2.708591950192,15.795345649808,12.139108,11.2741776,50.873361208,32.4788068136,23,5,7.601,15.795345649808,4.92126,11.2741776,50.873361208,8.724066,7.158208,0,38.7, -7.9, 0.1,0,0,1024,1024,1684,1024,0,0,100,0,51.1,0,0,49,3.799,3.792,0,0,0,0,4.712,111.2,15.795345649808,4.92126,6,P-GPS,
607100,2025-05-01 19:12:44,-23.0258591687745,-44.2864605832214,4.92126,15.58399,-3.299143150192,15.795345649808,12.467192,10.961006,52.446523988,34.186680884,23,5,7.601,15.795345649808,4.92126,11.2741776,52.446523988,8.500372,6.934514,0,38.2, 17.6, -0.7,0,0,1024,1024,1684,1024,0,0,100,0,51.1,0,0,49,3.799,3.792,0,0,0,0,4.712,111.2,15.795345649808,4.92126,6,P-GPS,
607200,2025-05-01 19:12:45,-23.0258559306462,-44.2864577952136,4.92126,16.076116,-3.791269150192,15.795345649808,12.467192,9.7083196,53.855644768,35.694226864,23,5,7.601,15.795345649808,4.92126,11.2741776,53.855644768,7.605596,6.039738,-0.671082,38.7, 26.3, 0,0,0,1024,1024,1684,1024,0,0,100,0,51.1,0,0,49,3.799,3.792,0,0,0,0,4.712,111.2,15.795345649808,4.92126,6,P-GPS,
607300,2025-05-01 19:12:45,-23.0258529655754,-44.2864552617374,4.92126,16.568242,-4.283395150192,15.795345649808,12.795276,7.9635064,55.145014888,37.070539244,23,5,7.601,15.795345649808,4.92126,11.2741776,55.145014888,6.263432,4.921268,-1.342164,39.1, 22.8, 0.4,0,0,1026,1024,1684,1024,0,0,100,0,51.1,0,0,49,3.799,3.792,0,0,0,0,4.712,111.2,15.795345649808,4.92126,6,P-GPS,
607400,2025-05-01 19:12:45,-23.0258506555299,-44.2864533450053,5.249344,17.22441,-4.611479150192,16.123429649808,13.12336,6.3976484,56.136484736,38.130906732,24,5,7.601,16.123429649808,5.249344,11.2741776,56.136484736,5.144962,3.802798,-2.23694,39, 19.3, 1.1,0,0,1436,1024,1684,1024,62,0,100,0,51.1,0,0,49,3.799,3.792,0,0,0,0,4.712,111.2,16.123429649808,5.249344,6,P-GPS,
607500,2025-05-01 19:12:45,-23.0258486746124,-44.2864520459109,5.577428,17.8149612,-4.873946350192,16.451513649808,13.451444,6.3976484,56.890421768,38.975066864,24,5,7.601,16.451513649808,5.577428,11.2741776,56.890421768,4.026492,3.131716,-3.131716,38.5, 17.5, 1.2,0,0,1684,1024,1684,1024,100,0,100,0,51.1,0,0,49,3.799,3.792,0,0,0,0,4.712,111.2,16.451513649808,5.577428,6,P-GPS,
607600,2025-05-01 19:12:45,-23.0258472077101,-44.286450880412,6.233596,18.7335964,-5.136413550192,17.107681649808,14.107612,3.9817532,57.50820394,39.638124628,24,5,7.601,17.107681649808,6.233596,11.2741776,57.50820394,3.131716,2.460634,-3.802798,38.7, 13.9, 0.2,0,0,1684,1024,1684,1024,100,0,100,0,51.1,0,0,49,3.799,3.792,0,0,0,0,4.712,111.2,17.107681649808,6.233596,6,P-GPS,
607700,2025-05-01 19:12:45,-23.0258459663407,-44.2864498682428,6.889764,19.5538064,-5.300455550192,17.763849649808,14.76378,3.0422384,58.039043852,40.204397612,24,5,7.601,17.763849649808,6.889764,11.2741776,58.039043852,2.460634,1.789552,-4.697574,39.1, -1.8, 0.3,0,0,1684,1024,1684,1024,100,0,100,0,51.1,0,0,49,3.799,3.764,0,0,0,0,4.909,111.2,17.763849649808,6.889764,6,P-GPS,
607800,2025-05-01 19:12:45,-23.0258449046473,-44.2864490639139,7.545932,20.3740164,-5.464497550192,18.420017649808,15.419948,3.2211936,58.47605174,40.676510488,24,5,7.601,18.420017649808,7.545932,11.2741776,58.47605174,2.684328,1.789552,-5.368656,38.8, -10.9, 1.2,0,0,1684,1024,1684,1024,100,0,100,0,51.1,0,0,49,3.799,3.764,0,0,0,0,4.909,111.2,18.420017649808,7.545932,6,P-GPS,
607900,2025-05-01 19:12:45,-23.0258438431624,-44.2864483823826,8.530184,21.5223104,-5.628539550192,19.404269649808,16.4042,3.7133204,58.879266976,41.126313652,24,5,7.601,19.404269649808,8.530184,11.2741776,58.879266976,3.131716,2.013246,-5.816044,38.6, -12.7, 1,0,0,1684,1024,1527,1024,100,0,76,0,51.1,0,0,49,3.799,3.764,0,0,0,0,4.909,111.2,19.404269649808,8.530184,6,P-GPS,
608000,2025-05-01 19:12:45,-23.0258430114835,-44.2864483893826,9.514436,22.637796,-5.759773150192,20.388521649808,17.388452,4.2278166,59.043965144,41.429791352,23,5,7.601,20.388521649808,9.514436,11.2741776,59.043965144,3.579104,2.23694,-6.039738,38.7, -11.8, 1.5,0,0,1684,1024,1024,1024,100,0,0,0,51.1,0,0,49,3.799,3.764,0,0,0,0,4.909,111.2,20.388521649808,9.514436,6,P-GPS,
608100,2025-05-01 19:12:45,-23.0258415761599,-44.2864473629156,10.498688,23.78609,-5.923815150192,21.372773649808,18.372704,4.7199434,59.620736816,42.056759876,23,5,7.601,21.372773649808,10.498688,11.2741776,59.620736816,4.026492,2.460634,-5.816044,38.8, -12, 2.7,0,0,1684,1024,1024,1024,100,0,0,0,51.1,0,0,49,3.799,3.764,0,0,0,0,4.909,111.2,21.372773649808,10.498688,6,P-GPS,
608200,2025-05-01 19:12:45,-23.0258400931034,-44.2864463307145,11.48294,25.0328092,-6.186282350192,22.357025649808,19.028872,4.921268,60.209647596,42.699476432,23,5,7.601,22.357025649808,11.48294,11.2741776,60.209647596,4.250186,2.460634,-5.368656,38.7, -12.7, 3.6,0,0,1684,1024,1024,1024,100,0,0,0,51.1,0,0,49,3.799,3.764,0,0,0,0,4.909,111.2,22.357025649808,11.48294,6,P-GPS,
608300,2025-05-01 19:12:46,-23.0258383348007,-44.2864452022263,12.467192,26.3123368,-6.481557950192,23.341277649808,19.68504,5.5252418,60.882875964,43.444555196,23,5,7.601,23.341277649808,12.467192,11.2741776,60.882875964,4.697574,2.908022,-4.697574,38.5, -14.2, 3.5,0,0,1621,1024,1024,1024,90,0,0,0,51.1,0,0,49,3.799,3.764,0,0,0,0,4.909,111.2,23.341277649808,12.467192,6,P-GPS,
608400,2025-05-01 19:12:46,-23.0258364078695,-44.2864443493441,13.12336,27.230972,-6.744025150192,23.997445649808,20.341208,5.7265664,61.516734252,44.203413488,24,5,7.601,23.997445649808,13.12336,11.2741776,61.516734252,4.921268,2.908022,-4.026492,38.5, -15.3, 4,0,0,1092,1024,1024,994,10,0,0,-5,51.1,0,0,49,3.799,3.764,0,0,0,0,4.909,111.2,23.997445649808,13.12336,6,P-GPS,
608500,2025-05-01 19:12:46,-23.0258341467033,-44.286443071771,13.451444,27.8543316,-7.039300750192,24.325529649808,20.997376,6.0173686,62.339897008,45.133531628,24,5,7.601,24.325529649808,13.451444,11.2741776,62.339897008,5.144962,3.131716,-3.131716,38.4, -15.4, 4.3,0,0,1092,1024,1024,994,10,0,0,-5,51.1,0,0,49,3.799,3.764,0,0,0,0,4.909,111.2,24.325529649808,13.451444,6,P-GPS,
608600,2025-05-01 19:12:46,-23.0258317737087,-44.2864414972938,13.779528,28.3464576,-7.203342750192,24.653613649808,21.32546,6.263432,63.2709994,46.147967356,24,5,7.601,24.653613649808,13.779528,11.2741776,63.2709994,5.144962,3.579104,-2.460634,38.5, -8.1, 4.8,0,0,1024,1024,1024,364,0,0,0,-100,51.1,0,0,49,3.799,3.764,0,0,0,0,4.909,111.2,24.653613649808,13.779528,6,P-GPS,
608700,2025-05-01 19:12:46,-23.0258292686668,-44.2864391186366,14.107612,28.8057752,-7.334576350192,24.981697649808,21.653544,6.263432,64.4521018,47.361550072,24,5,7.522,24.981697649808,14.107612,11.2741776,64.4521018,5.144962,3.579104,-1.565858,38.8, 11.3, 3.3,0,0,1024,1024,1024,364,0,0,0,-100,49.7,0,0,48,3.811,3.805,0,0,0,0,7.227,111.2,24.981697649808,14.107612,6,P-GPS,
608800,2025-05-01 19:12:46,-23.02582564732,-44.286435708672,14.435696,29.2979012,-7.498618350192,25.309781649808,21.653544,5.6370888,66.153545424,49.109909708,24,5,7.522,25.309781649808,14.435696,11.2741776,66.153545424,4.697574,3.131716,-1.11847,36.5, 20.8, 2,0,0,1024,1024,1024,364,0,0,0,-100,45.6,0,0,48,3.811,3.805,0,0,0,0,7.227,111.2,25.309781649808,14.435696,6,P-GPS,
608900,2025-05-01 19:12:46,-23.0258235268514,-44.2864339323121,14.435696,29.3963264,-7.597043550192,25.309781649808,21.981628,4.8317904,67.09153758,50.08694386,24,5,7.522,25.309781649808,14.435696,11.2741776,67.09153758,4.026492,2.684328,-0.447388,31.8, 22.5, 0,0,0,1024,1024,1024,364,0,0,0,-100,40.9,0,0,48,3.811,3.805,0,0,0,0,7.227,111.2,25.309781649808,14.435696,6,P-GPS,
609000,2025-05-01 19:12:46,-23.0258218225349,-44.2864325717815,14.435696,29.4619432,-7.662660350192,25.309781649808,21.981628,3.914645,67.827758076,50.858597428,24,5,7.522,25.309781649808,14.435696,11.2741776,67.827758076,3.35541,2.013246,-0.223694,27.1, 20.4, -1.4,0,0,1024,1024,1024,364,0,0,0,-100,36.1,0,0,48,3.811,3.805,0,0,0,0,7.227,111.2,25.309781649808,14.435696,6,P-GPS,
609100,2025-05-01 19:12:46,-23.0258204656894,-44.2864316296123,14.76378,29.855644,-7.728277150192,25.637865649808,21.981628,3.1093466,68.376642608,51.445867788,24,5,7.522,25.637865649808,14.76378,11.2741776,68.376642608,2.684328,1.565858,0,22.1, 19.3, -2.8,0,0,1024,1024,1024,364,0,0,0,-100,31.3,0,0,48,3.811,3.805,0,0,0,0,7.227,111.2,25.637865649808,14.76378,6,P-GPS,
609200,2025-05-01 19:12:47,-23.0258196704876,-44.2864311794531,14.76378,29.8884524,-7.761085550192,25.637865649808,21.981628,2.3040482,68.670933956,51.772967536,24,5,7.522,25.637865649808,14.76378,11.2741776,68.670933956,2.013246,1.11847,0,17.1, 16.7, -3.9,0,0,1024,1024,1024,364,0,0,0,-100,26.5,0,0,48,3.811,3.805,0,0,0,0,7.227,111.2,25.637865649808,14.76378,6,P-GPS,
609300,2025-05-01 19:12:47,-23.0258191118662,-44.2864307176025,14.76378,29.8884524,-7.761085550192,25.637865649808,21.981628,1.6105968,68.91732504,52.02920114,24,5,7.522,25.637865649808,14.76378,11.2741776,68.91732504,1.342164,0.894776,0,12.5, 11.8, -3.4,0,0,1024,1024,1024,364,0,0,0,-100,21.7,0,0,48,3.811,3.805,0,0,0,0,7.227,111.2,25.637865649808,14.76378,6,P-GPS,
609400,2025-05-01 19:12:47,-23.0258188438112,-44.2864305251772,14.76378,29.8884524,-7.761085550192,25.637865649808,21.981628,1.006623,69.027561264,52.146327128,24,5,7.522,25.637865649808,14.76378,11.2741776,69.027561264,0.894776,0.447388,0,7.7, 8.8, -2.8,0,0,1024,1024,1024,364,0,0,0,-100,16.9,0,0,48,3.811,3.805,0,0,0,0,7.227,111.2,25.637865649808,14.76378,6,P-GPS,
609500,2025-05-01 19:12:47,-23.0258188710128,-44.2864306703154,15.091864,30.2165364,-7.761085550192,25.965949649808,21.981628,0.7158208,68.982613756,52.196195896,24,5,7.522,25.965949649808,15.091864,11.2741776,69.027561264,0.671082,0.223694,0,2.8, 6.1, -3,0,0,1024,1024,1024,364,0,0,0,-100,12.1,0,0,48,3.811,3.805,0,0,0,0,7.227,111.2,25.965949649808,15.091864,6,P-GPS,
609600,2025-05-01 19:12:47,-23.025819045582,-44.2864309159108,15.091864,30.2165364,-7.761085550192,25.965949649808,21.981628,0.7158208,68.878611128,52.300198524,24,5,7.522,25.965949649808,15.091864,11.2741776,69.027561264,0.223694,0,0,358.3, 4.2, -2.1,0,0,1024,1024,1021,364,0,0,-0,-100,7.3,0,0,48,3.811,3.805,0,0,0,0,7.227,111.2,25.965949649808,15.091864,6,P-GPS,
609700,2025-05-01 19:12:47,-23.0258206819467,-44.2864325747602,15.091864,30.1181112,-7.662660350192,25.965949649808,21.981628,0.223694,68.074805328,53.1167996,24,5,7.623,25.965949649808,15.091864,11.2741776,69.027561264,0.223694,0,0,353.4, 2.8, -1.8,0,0,1024,1024,1024,364,0,0,0,-100,2.5,0,0,48,3.801,3.796,0,0,0,0,3.604,111.2,25.965949649808,15.091864,6,P-GPS,
609800,2025-05-01 19:12:47,-23.0258209962755,-44.2864329480684,15.091864,30.1181112,-7.662660350192,25.965949649808,22.637796,0,67.905842068,53.286747112,24,5,7.623,25.965949649808,15.091864,11.2741776,69.027561264,0,0,0,348.7, 2.9, -0.6,0,0,1024,1024,1024,364,0,0,0,-100,357.8,0,0,48,3.801,3.796,0,0,0,0,3.604,111.2,25.965949649808,15.091864,6,P-GPS,
609900,2025-05-01 19:12:47,-23.0258212399428,-44.2864333411105,14.76378,29.7900272,-7.662660350192,25.637865649808,22.637796,0,67.747049412,53.445867852,24,5,7.623,25.965949649808,15.091864,11.2741776,69.027561264,0,0,0,343.9, 2.3, -0.9,0,0,1024,1024,1024,364,0,0,0,-100,353,0,0,48,3.801,3.796,0,0,0,0,3.604,111.2,25.637865649808,14.76378,6,P-GPS,
610000,2025-05-01 19:12:47,-23.0258214483837,-44.2864337439825,14.76378,29.7572188,-7.629851950192,25.637865649808,22.637796,0.223694,67.592849932,53.601051584,24,5,7.623,25.965949649808,15.091864,11.2741776,69.027561264,0,-0.223694,0,339.2, 2.2, -0.3,0,0,1024,1024,1024,364,0,0,0,-100,348.2,0,0,48,3.801,3.796,0,0,0,0,3.604,111.2,25.637865649808,14.76378,6,P-GPS,
610100,2025-05-01 19:12:47,-23.0258215020572,-44.2864346870454,14.76378,29.691602,-7.564235150192,25.637865649808,22.637796,0.223694,67.32775806,53.918308812,24,5,7.623,25.965949649808,15.091864,11.2741776,69.027561264,0,-0.223694,0,334.4, 1.7, 0.3,0,0,1024,1024,1024,364,0,0,0,-100,343.4,0,0,48,3.801,3.796,0,0,0,0,3.604,111.2,25.637865649808,14.76378,6,P-GPS,
610200,2025-05-01 19:12:47,-23.0258215934585,-44.286435106896,14.76378,29.691602,-7.564235150192,25.637865649808,22.637796,0.223694,67.19488404,54.06332194,24,5,7.623,25.965949649808,15.091864,11.2741776,69.027561264,0,-0.223694,0,329.6, 1.7, 2.2,0,0,1024,1024,1024,364,0,0,0,-100,338.6,0,0,48,3.801,3.796,0,0,0,0,3.604,111.2,25.637865649808,14.76378,6,P-GPS,
610300,2025-05-01 19:12:48,-23.0258216291019,-44.2864355115552,14.76378,29.6587936,-7.531426750192,25.637865649808,22.637796,0.223694,67.07841422,54.199804884,24,5,7.623,25.965949649808,15.091864,11.2741776,69.027561264,0,-0.223694,0,324.8, 1.7, 2.7,0,0,1024,1024,1024,364,0,0,0,-100,333.8,0,0,48,3.801,3.796,0,0,0,0,3.604,111.2,25.637865649808,14.76378,6,P-GPS,
610400,2025-05-01 19:12:48,-23.0258216565118,-44.2864358621506,14.76378,29.6587936,-7.531426750192,25.637865649808,22.637796,0.447388,66.9783486,54.317915124,24,5,7.623,25.965949649808,15.091864,11.2741776,69.027561264,0,-0.447388,0,319.9, 2.2, 3.1,0,0,1024,1024,1024,364,0,0,0,-100,329,0,0,48,3.801,3.796,0,0,0,0,3.604,111.2,25.637865649808,14.76378,6,P-GPS,
610500,2025-05-01 19:12:48,-23.0258211225906,-44.286436297565,14.76378,29.6587936,-7.531426750192,25.637865649808,22.637796,0.223694,66.979332852,54.561353452,24,5,7.623,25.965949649808,15.091864,11.2741776,69.027561264,0,-0.223694,0,315.2, 3, 3.8,0,0,1024,1024,1024,364,0,0,0,-100,324.2,0,0,48,3.801,3.796,0,0,0,0,3.604,111.2,25.637865649808,14.76378,6,P-GPS,
610600,2025-05-01 19:12:48,-23.0258210728775,-44.286436558352,14.76378,29.6259852,-7.498618350192,25.637865649808,22.637796,0.223694,66.920605816,54.650920384,24,5,7.623,25.965949649808,15.091864,11.2741776,69.027561264,0,-0.223694,0,310.3, 4.4, 3.1,0,0,1024,1024,1024,364,0,0,0,-100,319.5,0,0,48,3.801,3.796,0,0,0,0,3.604,111.2,25.637865649808,14.76378,6,P-GPS,
610700,2025-05-01 19:12:48,-23.0258209477088,-44.2864368011177,14.76378,29.6259852,-7.498618350192,25.637865649808,22.637796,0,66.883532324,54.744424324,24,5,7.596,25.965949649808,15.091864,11.2741776,69.027561264,0,0,0,305.4, 4.2, 2,0,0,1024,1024,1024,364,0,0,0,-100,314.7,0,0,48,3.8,3.793,0,0,0,0,4.457,111.2,25.637865649808,14.76378,6,P-GPS,
610800,2025-05-01 19:12:48,-23.0258208398406,-44.2864369853515,14.76378,29.6259852,-7.498618350192,25.637865649808,22.637796,0,66.858269856,54.817587056,25,5,7.596,25.965949649808,15.091864,11.2741776,69.027561264,0,0,0,300.6, 4.3, 1.7,0,0,1024,1024,1024,364,0,0,0,-100,309.9,0,0,48,3.8,3.793,0,0,0,0,4.457,111.2,25.637865649808,14.76378,6,P-GPS,
610900,2025-05-01 19:12:48,-23.0258205258245,-44.286437399915,14.76378,29.6259852,-7.498618350192,25.637865649808,22.637796,0,66.81758744,54.998033256,25,5,7.596,25.965949649808,15.091864,11.2741776,69.027561264,0,0,0,295.9, 4.2, 1.2,0,0,1024,1024,1024,364,0,0,0,-100,305.1,0,0,48,3.8,3.793,0,0,0,0,4.457,111.2,25.637865649808,14.76378,6,P-GPS,
611000,2025-05-01 19:12:48,-23.0258204985188,-44.2864375247978,14.76378,29.5931768,-7.465809950192,25.637865649808,22.637796,0,66.790356468,55.04101226,25,5,7.596,25.965949649808,15.091864,11.2741776,69.027561264,0,0,0,291.2, 5.3, 1.2,0,0,1024,1024,1024,364,0,0,0,-100,300.3,0,0,48,3.8,3.793,0,0,0,0,4.457,111.2,25.637865649808,14.76378,6,P-GPS,
611100,2025-05-01 19:12:48,-23.0258205084197,-44.2864376102126,14.76378,29.5603684,-7.433001550192,25.637865649808,22.637796,0,66.765422084,55.069883652,25,5,7.596,25.965949649808,15.091864,11.2741776,69.027561264,0,0,0,286.4, 4.8, 0.8,0,0,1024,1024,1024,364,0,0,0,-100,295.5,0,0,48,3.8,3.793,0,0,0,0,4.457,111.2,25.637865649808,14.76378,6,P-GPS,
611200,2025-05-01 19:12:49,-23.0258205362466,-44.2864376516168,14.76378,29.5603684,-7.433001550192,25.637865649808,22.637796,0,66.748361716,55.08694402,26,5,7.596,25.965949649808,15.091864,11.2741776,69.027561264,0,0,0,281.6, 4.4, 0.4,0,0,1024,1024,1024,364,0,0,0,-100,290.7,0,0,48,3.8,3.793,0,0,0,0,4.457,111.2,25.637865649808,14.76378,6,P-GPS,
611300,2025-05-01 19:12:49,-23.025820618268,-44.2864376645743,14.76378,29.5603684,-7.433001550192,25.637865649808,22.637796,0,66.726708172,55.117455832,26,5,7.596,25.965949649808,15.091864,11.2741776,69.027561264,0,0,0,276.8, 4.3, 0.3,0,0,1024,1024,1010,364,0,0,-2,-100,285.9,0,0,48,3.8,3.793,0,0,0,0,4.457,111.2,25.637865649808,14.76378,6,P-GPS,
611400,2025-05-01 19:12:49,-23.02582088872,-44.286437775755,14.76378,29.5603684,-7.433001550192,25.637865649808,22.637796,0,66.636813156,55.222770796,26,5,7.596,25.965949649808,15.091864,11.2741776,69.027561264,0,0,0,272.1, 4.9, 0.9,0,0,1024,1024,1024,364,0,0,0,-100,281.1,0,0,48,3.8,3.793,0,0,0,0,4.457,111.2,25.637865649808,14.76378,6,P-GPS,
611500,2025-05-01 19:12:49,-23.0258208987252,-44.2864376793934,14.76378,29.5603684,-7.433001550192,25.637865649808,22.637796,0.223694,66.660435204,55.255251112,26,5,7.596,25.965949649808,15.091864,11.2741776,69.027561264,0,0.223694,0,267.3, 4.1, 0.1,0,0,1024,1024,1024,364,0,0,0,-100,276.3,0,0,48,3.8,3.793,0,0,0,0,4.457,111.2,25.637865649808,14.76378,6,P-GPS,
611600,2025-05-01 19:12:49,-23.0258208637071,-44.2864375889148,14.76378,29.5603684,-7.433001550192,25.637865649808,22.637796,0,66.692259352,55.288387596,26,5,7.596,25.965949649808,15.091864,11.2741776,69.027561264,0,0,0,262.5, 4.1, -0.9,0,0,1024,1024,1024,364,0,0,0,-100,271.5,0,0,48,3.8,3.793,0,0,0,0,4.457,111.2,25.637865649808,14.76378,6,P-GPS,
611700,2025-05-01 19:12:49,-23.025820745417,-44.2864375403616,14.76378,29.5603684,-7.433001550192,25.637865649808,22.96588,0.223694,66.731301348,55.33464744,26,5,7.596,25.965949649808,15.091864,11.2741776,69.027561264,0,0.223694,0,257.6, 4, -1.5,0,0,1024,1024,1024,364,0,0,0,-100,266.7,0,0,48,3.802,3.794,0,0,0,0,4.339,111.2,25.637865649808,14.76378,6,P-GPS,
611800,2025-05-01 19:12:49,-23.0258205530261,-44.2864376428296,14.76378,29.5603684,-7.433001550192,25.637865649808,22.96588,0.223694,66.74704938,55.412731432,26,5,7.596,25.965949649808,15.091864,11.2741776,69.027561264,0,0,0,252.8, 4.6, -3.2,0,0,1024,1024,1024,364,0,0,0,-100,261.9,0,0,48,3.802,3.794,0,0,0,0,4.339,111.2,25.637865649808,14.76378,6,P-GPS,
611900,2025-05-01 19:12:49,-23.0258204451579,-44.2864376259254,14.76378,29.5931768,-7.465809950192,25.637865649808,22.637796,0.223694,66.775592688,55.452429596,26,5,7.596,25.965949649808,15.091864,11.2741776,69.027561264,0,0.223694,0,247.8, 3.9, -3.4,0,0,1024,1024,1024,364,0,0,0,-100,257.1,0,0,48,3.802,3.794,0,0,0,0,4.339,111.2,25.637865649808,14.76378,6,P-GPS,
612000,2025-05-01 19:12:49,-23.025820358655,-44.2864375990424,15.091864,29.9212608,-7.465809950192,25.965949649808,22.637796,0.223694,66.801839408,55.485237996,26,5,7.596,25.965949649808,15.091864,11.2741776,69.027561264,0,0.223694,0,243, 3.6, -3.2,0,0,1024,1024,1024,364,0,0,0,-100,252.3,0,0,48,3.802,3.794,0,0,0,0,4.339,111.2,25.965949649808,15.091864,6,P-GPS,
612100,2025-05-01 19:12:49,-23.025820306649,-44.2864375555531,15.091864,29.9212608,-7.465809950192,25.965949649808,22.637796,0.223694,66.825133372,55.509188128,26,5,7.596,25.965949649808,15.091864,11.2741776,69.027561264,0,0.223694,0,238.3, 3.2, -3.3,0,0,1024,1024,995,364,0,0,-4,-100,247.5,0,0,48,3.802,3.794,0,0,0,0,4.339,111.2,25.965949649808,15.091864,6,P-GPS,
612200,2025-05-01 19:12:49,-23.0258203760598,-44.2864377925103,15.091864,29.9212608,-7.465809950192,25.965949649808,22.637796,0.223694,66.746393212,55.592849548,26,5,7.596,25.965949649808,15.091864,11.2741776,69.027561264,0,0.223694,0,233.5, 2.8, -3.3,0,0,1024,1024,975,364,0,0,-7,-100,242.7,0,0,48,3.802,3.794,0,0,0,0,4.339,111.2,25.965949649808,15.091864,6,P-GPS,
612300,2025-05-01 19:12:50,-23.0258203466696,-44.2864376055956,15.091864,29.9212608,-7.465809950192,25.965949649808,22.637796,0.223694,66.80282366,55.656497844,26,5,7.596,25.965949649808,15.091864,11.2741776,69.027561264,0,0.223694,0,228.7, 2.6, -3.3,0,0,1024,1024,989,364,0,0,-5,-100,237.9,0,0,48,3.802,3.794,0,0,0,0,4.339,111.2,25.965949649808,15.091864,6,P-GPS,
612400,2025-05-01 19:12:50,-23.025820330307,-44.2864374445958,15.091864,29.9540692,-7.498618350192,25.965949649808,22.637796,0.223694,66.849083504,55.710631704,26,5,7.596,25.965949649808,15.091864,11.2741776,69.027561264,0,0.223694,0,223.9, 2.9, -3.1,0,0,1024,1024,988,364,0,0,-5,-100,233.1,0,0,48,3.802,3.794,0,0,0,0,4.339,111.2,25.965949649808,15.091864,6,P-GPS,
612500,2025-05-01 19:12:50,-23.0258203288479,-44.2864373454788,15.091864,29.9540692,-7.498618350192,25.965949649808,22.637796,0.223694,66.875986392,55.744096272,26,5,7.596,25.965949649808,15.091864,11.2741776,69.027561264,0,0.223694,0,219.1, 3.2, -3.3,0,0,1024,1024,988,364,0,0,-5,-100,228.3,0,0,48,3.802,3.794,0,0,0,0,4.339,111.2,25.965949649808,15.091864,6,P-GPS,
612600,2025-05-01 19:12:50,-23.025820693411,-44.2864373277555,15.091864,29.9540692,-7.498618350192,25.965949649808,22.637796,0.223694,66.79954282,55.877298376,26,5,7.596,25.965949649808,15.091864,11.2741776,69.027561264,0,0.223694,0,214.2, 2.6, -3.1,0,0,1024,1024,1002,364,0,0,-3,-100,223.5,0,0,48,3.802,3.794,0,0,0,0,4.339,111.2,25.965949649808,15.091864,6,P-GPS,
612700,2025-05-01 19:12:50,-23.0258207443747,-44.2864371930428,15.091864,29.9540692,-7.498618350192,25.965949649808,22.637796,0.223694,66.82414912,55.926182892,26,5,7.596,25.965949649808,15.091864,11.2741776,69.027561264,0,0.223694,0,209.4, 2.9, -3,0,0,1024,1024,1024,364,0,0,0,-100,218.7,0,0,48,3.802,3.794,0,0,0,0,4.339,111.2,25.965949649808,15.091864,6,P-GPS,
612800,2025-05-01 19:12:50,-23.0258207846038,-44.2864370448515,15.091864,29.9540692,-7.498618350192,25.965949649808,22.637796,0.223694,66.854660932,55.978020164,26,5,7.591,25.965949649808,15.091864,11.2741776,69.027561264,0,0.223694,0,204.7, 2.3, -2.9,0,0,1024,1024,1004,364,0,0,-3,-100,213.9,0,0,48,3.801,3.793,0,0,0,0,4.29,111.2,25.965949649808,15.091864,6,P-GPS,
612900,2025-05-01 19:12:50,-23.025820821081,-44.2864368584581,15.091864,29.9540692,-7.498618350192,25.965949649808,22.637796,0.223694,66.8963276,56.041996544,26,5,7.591,25.965949649808,15.091864,11.2741776,69.027561264,0,0.223694,0,199.9, 1.9, -2.8,0,0,1024,1024,1024,495,0,0,0,-80,209.1,0,0,48,3.801,3.793,0,0,0,0,4.29,111.2,25.965949649808,15.091864,6,P-GPS,
613000,2025-05-01 19:12:50,-23.0258208546399,-44.2864366867348,15.091864,29.9540692,-7.498618350192,25.965949649808,22.637796,0.223694,66.934713428,56.101051664,26,5,7.591,25.965949649808,15.091864,11.2741776,69.027561264,0,0.223694,0,195, 1.9, -2.8,0,0,1024,1024,1024,527,0,0,0,-75,204.4,0,0,48,3.801,3.793,0,0,0,0,4.29,111.2,25.965949649808,15.091864,6,P-GPS,
613100,2025-05-01 19:12:50,-23.0258211342633,-44.2864365092776,15.091864,29.9540692,-7.498618350192,25.965949649808,22.637796,0.223694,66.920277732,56.219161904,26,5,7.591,25.965949649808,15.091864,11.2741776,69.027561264,0,0.223694,0,190.4, 2.2, -3.1,0,0,1024,1024,991,364,0,0,-5,-100,200.7,0,0,48,3.801,3.793,0,0,0,0,4.29,111.2,25.965949649808,15.091864,6,P-GPS,
613200,2025-05-01 19:12:50,-23.0258211871031,-44.2864363718841,15.091864,29.9868776,-7.531426750192,25.965949649808,22.637796,0.223694,66.945212116,56.269030672,26,5,7.591,25.965949649808,15.091864,11.2741776,69.027561264,0,0.223694,0,187, 2.2, -3.1,0,0,1024,1024,765,364,0,0,-39,-100,197.5,0,0,48,3.801,3.793,0,0,0,0,4.29,111.2,25.965949649808,15.091864,6,P-GPS,
613300,2025-05-01 19:12:51,-23.0258212558885,-44.2864362582459,15.419948,30.3149616,-7.531426750192,26.294033649808,22.637796,0.223694,66.960632064,56.314634348,26,5,7.591,26.294033649808,15.419948,11.2741776,69.027561264,0,0.223694,0,183.6, 1.5, -3.9,0,0,1024,1024,969,364,0,0,-8,-100,193.6,0,0,48,3.801,3.793,0,0,0,0,4.29,111.2,26.294033649808,15.419948,6,P-GPS,
613400,2025-05-01 19:12:51,-23.0258212985147,-44.2864361513843,15.419948,30.3149616,-7.531426750192,26.294033649808,22.637796,0.223694,66.979660936,56.354004428,26,5,7.591,26.294033649808,15.419948,11.2741776,69.027561264,0,0.223694,0.223694,179.2, 0.8, -3.7,0,0,1024,1024,969,364,0,0,-8,-100,189,0,0,48,3.801,3.793,0,0,0,0,4.29,111.2,26.294033649808,15.419948,6,P-GPS,
