time(millisecond),datetime(utc),latitude,longitude,height_above_takeoff(feet),height_above_ground_at_drone_location(feet),ground_elevation_at_drone_location(feet),altitude_above_seaLevel(feet),height_sonar(feet),speed(mph),distance(feet),mileage(feet),satellites,gpslevel,voltage(v),max_altitude(feet),max_ascent(feet),max_speed(mph),max_distance(feet), xSpeed(mph), ySpeed(mph), zSpeed(mph), compass_heading(degrees), pitch(degrees), roll(degrees),isPhoto,isVideo,rc_elevator,rc_aileron,rc_throttle,rc_rudder,rc_elevator(percent),rc_aileron(percent),rc_throttle(percent),rc_rudder(percent),gimbal_heading(degrees),gimbal_pitch(degrees),gimbal_roll(degrees),battery_percent,voltageCell1,voltageCell2,voltageCell3,voltageCell4,voltageCell5,voltageCell6,current(A),battery_temperature(f),altitude(feet),ascent(feet),flycStateRaw,flycState,message
0,2022-08-11 20:31:07,-34.9287739962978,-56.1628085817264,0,0,6.000885690716,6.000885690716,0.328084,0,0,0,22,5,0,6.000885690716,0,0,0,0,0,0,216.2, 0, -0.1,0,0,364,364,364,1684,-100,-100,-100,100,0,0,0,54,3.909,3.904,0,0,0,0,0,91.94,6.000885690716,0,6,P-GPS,"Aeronave en Zona de altitud restringida (150). Vuela con precaución (Code: 190001). Baja velocidad de la tarjeta SD. Puede afectar a su uso normal. Sustituye la tarjeta SD (Code: 10028). Estabilizador atascado. Comprueba que la cubierta del estabiliz"
100,2022-08-11 20:31:07,-34.9287739607595,-56.1628085762815,0,0,6.000885690716,6.000885690716,0.328084,0,0.0130680450376,0.0130680450376,22,5,0,6.000885690716,0,0,0.0130680450376,0,0,0,216.1, 0, -0.1,0,0,364,364,364,1684,-100,-100,-100,100,0,0,0,54,3.909,3.904,0,0,0,0,0,91.94,6.000885690716,0,41,Motors_Started,
200,2022-08-11 20:31:08,-34.9287739187163,-56.1628085715558,0,0,6.000885690716,6.000885690716,0.328084,0,0.0284686032732,0.0284724746644,22,5,0,6.000885690716,0,0,0.0284686032732,0,0,0,216.1, 0, -0.1,0,0,364,364,364,1684,-100,-100,-100,100,0,0,0,54,3.909,3.904,0,0,0,0,0,91.94,6.000885690716,0,41,Motors_Started,
300,2022-08-11 20:31:08,-34.9287738659596,-56.1628085677162,0,0,6.000885690716,6.000885690716,0.328084,0,0.047738190504,0.047754922788,22,5,0,6.000885690716,0,0,0.047738190504,0,0,0,216.1, 0, -0.2,0,0,364,364,364,1684,-100,-100,-100,100,0,0,0,54,3.909,3.904,0,0,0,0,0,91.94,6.000885690716,0,41,Motors_Started,"Setting new Return-To-Home altitude to 40m (131 ft). Data Recorder File Index is 20. Setting new Maximum Flight Altitude to 120m (394 ft)"
400,2022-08-11 20:31:08,-34.9287737400288,-56.1628084492879,0,0,6.000885690716,6.000885690716,0.328084,0,0.101545935008,0.105771656928,22,5,0,6.000885690716,0,0,0.101545935008,0,0,0,216.2, 0, -0.1,0,0,364,364,364,1684,-100,-100,-100,100,0,0,0,54,3.909,3.904,0,0,0,0,0,91.94,6.000885690716,0,41,Motors_Started,
500,2022-08-11 20:31:08,-34.9287736810555,-56.1628083962792,0,0,6.000885690716,6.000885690716,0.328084,0,0.127694229808,0.132499676156,22,5,0,6.000885690716,0,0,0.127694229808,0,0,0,216.2, 0, -0.2,0,0,364,364,364,1684,-100,-100,-100,100,0,0,0,54,3.909,3.904,0,0,0,0,0,91.94,6.000885690716,0,41,Motors_Started,
600,2022-08-11 20:31:08,-34.9287736495418,-56.1628083617931,0,0,6.000885690716,6.000885690716,0.328084,0,0.142596461256,0.147946855128,22,5,0,6.000885690716,0,0,0.142596461256,0,0,0,216.2, 0, -0.1,0,0,364,364,783,1387,-100,-100,-37,55,0,0,0,54,3.909,3.904,0,0,0,0,0,91.94,6.000885690716,0,41,Motors_Started,
700,2022-08-11 20:31:08,-34.9287736452761,-56.1628083440903,0,0,6.000885690716,6.000885690716,0.328084,0,0.146474414136,0.15346621226,22,5,0,6.000885690716,0,0,0.146474414136,0,0,0,216.2, 0, -0.1,0,0,1024,822,1024,1024,0,-31,0,0,0,0,0,54,3.909,3.904,0,0,0,0,0,91.94,6.000885690716,0,41,Motors_Started,
800,2022-08-11 20:31:08,-34.9287736838686,-56.1628083687229,0,0,6.000885690716,6.000885690716,0.328084,0,0.130587930688,0.169357945052,22,5,0,6.000885690716,0,0,0.146474414136,0,0,0,216.2, 0, -0.2,0,0,1024,1024,1024,1024,0,0,0,0,0,0,0,54,3.909,3.904,0,0,0,0,0,91.94,6.000885690716,0,41,Motors_Started,
900,2022-08-11 20:31:08,-34.9287736467303,-56.162808369965,0,0,6.000885690716,6.000885690716,0.328084,0,0.142403547864,0.182912735512,22,5,7.819,6.000885690716,0,0,0.146474414136,0,0,0,216.2, 0, -0.1,0,0,1024,1024,1024,1024,0,0,0,0,0,0,0,54,3.909,3.904,0,0,0,0,0.886,91.94,6.000885690716,0,41,Motors_Started,
1000,2022-08-11 20:31:08,-34.9287736038371,-56.1628083733901,0,0,6.000885690716,6.000885690716,0.328084,0,0.156162734656,0.19859580688,22,5,7.819,6.000885690716,0,0,0.156162734656,0,0,0,216.2, 0, -0.2,0,0,1024,1024,1627,1343,0,0,91,48,0,0,0,54,3.909,3.904,0,0,0,0,0.886,91.94,6.000885690716,0,41,Motors_Started,
1100,2022-08-11 20:31:08,-34.9287735505096,-56.1628083788577,0,0,6.000885690716,6.000885690716,0.328084,0,0.1735974465,0.218121069972,22,5,7.819,6.000885690716,0,0,0.1735974465,0,0,0,216.2, 0, -0.2,0,0,1024,1024,1684,1654,0,0,100,95,0,0,0,54,3.909,3.904,0,0,0,0,0.886,91.94,6.000885690716,0,41,Motors_Started,
1200,2022-08-11 20:31:09,-34.9287735206937,-56.1628083841769,0,0,6.000885690716,6.000885690716,0.328084,0,0.183309717152,0.229115164812,22,5,7.819,6.000885690716,0,0,0.183309717152,0,0,0,216.2, 0, -0.1,0,0,1024,1024,1684,1679,0,0,100,99,0,0,0,54,3.909,3.904,0,0,0,0,0.886,91.94,6.000885690716,0,10,Assisted_Takeoff,
1300,2022-08-11 20:31:09,-34.9287735344695,-56.1628084239499,0,0,6.000885690716,6.000885690716,0.328084,0,0.174982617148,0.242030519556,22,5,7.819,6.000885690716,0,0,0.183309717152,0,0,0,216.1, 0, -0.2,0,0,1024,1024,1684,1679,0,0,100,99,0,0,0,54,3.909,3.904,0,0,0,0,0.886,91.94,6.000885690716,0,10,Assisted_Takeoff,
1400,2022-08-11 20:31:09,-34.9287735130221,-56.1628084283168,0,0,6.000885690716,6.000885690716,0.328084,0,0.18219652814,0.24996391876,22,5,7.819,6.000885690716,0,0,0.183309717152,0,0,0,216.3, -0.2, -0.3,0,0,1024,1024,1684,1679,0,0,100,99,0,0,0,54,3.909,3.904,0,0,0,0,0.886,91.94,6.000885690716,0,10,Assisted_Takeoff,
1500,2022-08-11 20:31:09,-34.9287734713681,-56.1628084318243,0,-0.032808399999999,6.033694090716,6.000885690716,0.328084,0,0.19669948136,0.265197515048,22,5,7.819,6.000885690716,0,0,0.19669948136,0,0,0,216.3, -0.3, -0.4,0,0,1024,1024,1684,1672,0,0,100,98,0,0,0,54,3.909,3.904,0,0,0,0,0.886,91.94,6.000885690716,0,10,Assisted_Takeoff,
1600,2022-08-11 20:31:09,-34.9287734497342,-56.1628084339433,0,-0.032808399999999,6.033694090716,6.000885690716,0.328084,0,0.204254271628,0.273115822388,22,5,7.819,6.000885690716,0,0,0.204254271628,0,0,0,216.6, -1, -0.4,0,0,1024,1024,1684,1669,0,0,100,98,0,0,0,54,3.909,3.904,0,0,0,0,0.886,91.94,6.000885690716,0,10,Assisted_Takeoff,
1700,2022-08-11 20:31:09,-34.9287734984068,-56.1628084444232,0,-0.032808399999999,6.033694090716,6.000885690716,0.328084,0,0.186240491524,0.291148631364,22,5,7.819,6.000885690716,0,0,0.204254271628,0,0,0,218.1, -1.6, 1,0,0,1024,1024,1684,1669,0,0,100,98,0,0,0,54,3.909,3.904,0,0,0,0,0.886,91.94,6.000885690716,0,10,Assisted_Takeoff,
1800,2022-08-11 20:31:09,-34.9287735576943,-56.1628084575587,0,0,6.000885690716,6.000885690716,0.328084,0,0.164277892396,0.313133540204,22,5,7.819,6.000885690716,0,0,0.204254271628,0,0,-0.223694,221.4, -0.8, 1.2,0,0,1024,1024,1684,1665,0,0,100,97,0,0,0,54,3.909,3.904,0,0,0,0,0.886,91.94,6.000885690716,0,6,P-GPS,"Baja velocidad de la tarjeta SD. Puede afectar a su uso normal. Sustituye la tarjeta SD (Code: 10028). Estabilizador atascado. Comprueba que la cubierta del estabilizador se haya retirado y asegúrate de que los tres ejes del estabilizador puedan gira"
1900,2022-08-11 20:31:09,-34.9287736650894,-56.1628084860732,0,0,6.000885690716,6.000885690716,0.328084,0,0.124182418672,0.35323491944,22,5,7.805,6.000885690716,0,0,0.204254271628,0,0,-0.671082,227.7, 0.1, 0.4,0,0,1024,1024,1684,1245,0,0,100,33,0,0,0,54,3.893,3.886,0,0,0,0,1.686,91.94,6.000885690716,0,6,P-GPS,
2000,2022-08-11 20:31:09,-34.9287737321577,-56.1628085062943,0,0,6.000885690716,6.000885690716,0.656168,0,0.098977693456,0.37844161316,22,5,7.805,6.000885690716,0,0,0.204254271628,0,0,-1.11847,233.2, 0.5, 0.9,0,0,1684,1024,1024,1024,100,0,0,0,0,0,0,54,3.893,3.886,0,0,0,0,1.686,91.94,6.000885690716,0,6,P-GPS,
2100,2022-08-11 20:31:09,-34.9287737996933,-56.1628085190611,0.328084,0.328084,6.000885690716,6.328969690716,0.656168,0,0.074139766152,0.40337599716,22,5,7.805,6.328969690716,0.328084,0,0.204254271628,0,0,-1.342164,233.8, 0.2, -0.5,0,0,1684,1024,1024,1024,100,0,0,0,0,0,0,54,3.893,3.886,0,0,0,0,1.686,91.94,6.328969690716,0.328084,6,P-GPS,
2200,2022-08-11 20:31:10,-34.9287738544221,-56.1628085281168,0.328084,0.328084,6.000885690716,6.328969690716,0.984252,0,0.054190290448,0.42352691644,22,5,7.805,6.328969690716,0.328084,0,0.204254271628,0,0,-1.565858,233.9, -11.9, -0.7,0,0,1684,1024,1024,1024,100,0,0,0,0,0,0,54,3.893,3.886,0,0,0,0,1.686,91.94,6.328969690716,0.328084,6,P-GPS,
2300,2022-08-11 20:31:10,-34.928774057932,-56.1628086523301,0.656168,0.656168,6.000885690716,6.657053690716,0.984252,0.6263432,0.03084973852,0.50655513432,22,5,7.805,6.657053690716,0.656168,0.6263432,0.204254271628,-0.447388,-0.447388,-1.565858,233.7, -20, 0.2,0,0,1684,1024,1024,1024,100,0,0,0,0,0,0,54,3.893,3.886,0,0,0,0,1.686,91.94,6.657053690716,0.656168,6,P-GPS,"Baja velocidad de la tarjeta SD. Puede afectar a su uso normal. Sustituye la tarjeta SD (Code: 10028). Estabilizador atascado. Comprueba que la cubierta del estabilizador se haya retirado y asegúrate de que los tres ejes del estabilizador puedan gira"
2400,2022-08-11 20:31:10,-34.9287744277549,-56.1628090223991,0.984252,0.984252,6.000885690716,6.985137690716,1.312336,1.2750558,0.205318904208,0.68108269896,22,5,7.805,6.985137690716,0.984252,1.2750558,0.205318904208,-0.894776,-0.894776,-1.565858,233.6, -22.6, 1.6,0,0,1684,1024,1024,1024,100,0,0,0,0,0,0,54,3.893,3.886,0,0,0,0,1.686,91.94,6.985137690716,0.984252,6,P-GPS,
2500,2022-08-11 20:31:10,-34.9287751139942,-56.1628098269558,1.312336,1.3451444,5.968077290716,7.313221690716,1.312336,2.2145706,0.55229988644,1.02836617464,22,5,7.805,7.313221690716,1.312336,2.2145706,0.55229988644,-1.565858,-1.565858,-1.11847,233.5, -22.3, 2.3,0,0,1467,1024,1065,1024,67,0,6,0,0,0,0,54,3.893,3.886,0,0,0,0,1.686,91.94,7.313221690716,1.312336,6,P-GPS,
2600,2022-08-11 20:31:10,-34.9287758065885,-56.162810787669,1.312336,1.3779528,5.935268890716,7.313221690716,1.64042,2.684328,0.93362207712,1.4110400714,22,5,7.805,7.313221690716,1.312336,2.684328,0.93362207712,-1.789552,-2.013246,-0.894776,233.6, -20.2, 2.3,0,0,1306,1024,1613,1029,43,0,89,1,0,0,0,54,3.893,3.886,0,0,0,0,1.686,91.94,7.313221690716,1.312336,6,P-GPS,
2700,2022-08-11 20:31:10,-34.9287766317056,-56.1628120490842,1.312336,1.4107612,5.902460490716,7.313221690716,1.64042,3.6462122,1.41431106888,1.89374021808,21,5,7.805,7.313221690716,1.312336,3.6462122,1.41431106888,-2.460634,-2.684328,-0.671082,234.2, -12.2, 2.8,0,0,1309,1024,1684,1028,43,0,100,1,0,0,0,54,3.893,3.886,0,0,0,0,1.686,91.94,7.313221690716,1.312336,6,P-GPS,
2800,2022-08-11 20:31:10,-34.9287775704995,-56.162813411983,1.64042,1.7716536,5.869652090716,7.641305690716,1.968504,4.1159696,1.94631895992,2.42620742672,21,5,7.805,7.641305690716,1.64042,4.1159696,1.94631895992,-2.684328,-3.131716,-0.671082,234.4, -5.7, 2.7,0,0,1654,1024,1684,1024,95,0,100,0,0,0,0,54,3.893,3.886,0,0,0,0,1.686,91.94,7.641305690716,1.64042,6,P-GPS,
2900,2022-08-11 20:31:10,-34.9287786966394,-56.1628149236971,1.64042,1.804462,5.836843690716,7.641305690716,1.968504,4.1159696,2.55729338892,3.03718513656,21,5,7.805,7.641305690716,1.64042,4.1159696,2.55729338892,-2.684328,-3.131716,-1.11847,234.2, -5.3, 2.9,0,0,1684,1024,1684,1027,100,0,100,0,0,0,0,54,3.893,3.886,0,0,0,0,1.686,91.94,7.641305690716,1.64042,6,P-GPS,
3000,2022-08-11 20:31:10,-34.9287799160382,-56.1628165710707,1.968504,2.1653544,5.804035290716,7.969389690716,2.296588,4.4291412,3.22119104796,3.7010827956,22,5,7.711,7.969389690716,1.968504,4.4291412,3.22119104796,-2.908022,-3.35541,-1.789552,233.8, -13.5, 3.3,0,0,1684,1024,1684,1027,100,0,100,0,0,0,0,54,3.862,3.855,0,0,0,0,4.486,91.94,7.969389690716,1.968504,6,P-GPS,
3100,2022-08-11 20:31:10,-34.9287813661318,-56.1628185391183,2.296588,2.5262468,5.771226890716,8.297473690716,2.624672,4.921268,4.0126969788,4.4925854456,22,5,7.711,8.297473690716,2.296588,4.921268,4.0126969788,-3.131716,-3.802798,-2.460634,233.6, -18.1, 3.5,0,0,1684,1024,1684,1024,100,0,100,0,0,0,0,54,3.862,3.855,0,0,0,0,4.486,91.94,8.297473690716,2.296588,6,P-GPS,
3200,2022-08-11 20:31:11,-34.9287828621682,-56.1628206390842,2.952756,3.28084,5.672801690716,8.953641690716,2.952756,5.7265664,4.8447508112,5.3247705116,22,5,7.711,8.953641690716,2.952756,5.7265664,4.8447508112,-3.579104,-4.47388,-3.131716,233.7, -18.1, 3.1,0,0,1684,1024,1684,1024,100,0,100,0,0,0,0,54,3.862,3.855,0,0,0,0,4.486,91.94,8.953641690716,2.952756,6,P-GPS,
3300,2022-08-11 20:31:11,-34.928784574723,-56.1628231170777,3.608924,4.0026248,5.607184890716,9.609809690716,3.608924,6.3976484,5.813812522,6.2941931148,22,5,7.711,9.609809690716,3.608924,6.3976484,5.813812522,-3.802798,-5.144962,-3.802798,233.8, -16.7, 3.2,0,0,1684,1024,1684,1024,100,0,100,0,0,0,0,54,3.862,3.855,0,0,0,0,4.486,91.94,9.609809690716,3.608924,6,P-GPS,
3400,2022-08-11 20:31:11,-34.9287867130226,-56.1628261095167,4.265092,4.7244096,5.541568090716,10.265977690716,4.265092,7.0239916,7.001148518,7.4815947276,22,5,7.711,10.265977690716,4.265092,7.0239916,7.001148518,-4.250186,-5.59235,-4.47388,233.7, -15.7, 3.1,0,0,1684,1024,1684,1024,100,0,100,0,0,0,0,54,3.862,3.855,0,0,0,0,4.486,91.94,10.265977690716,4.265092,6,P-GPS,
3500,2022-08-11 20:31:11,-34.9287885538077,-56.162829095387,4.92126,5.4461944,5.475951290716,10.922145690716,4.92126,7.6503348,8.1155842492,8.59908164,21,5,7.711,10.922145690716,4.92126,7.6503348,8.1155842492,-4.697574,-6.039738,-5.144962,233.8, -15, 3,0,0,1684,1024,1684,1024,100,0,100,0,0,0,0,54,3.862,3.855,0,0,0,0,4.486,91.94,10.922145690716,4.92126,6,P-GPS,
3600,2022-08-11 20:31:11,-34.9287905209349,-56.1628321437845,5.905512,6.4960632,5.410334490716,11.906397690716,5.905512,8.276678,9.2749018716,9.759514748,21,5,7.711,11.906397690716,5.905512,8.276678,9.2749018716,-5.144962,-6.487126,-5.816044,233.8, -15.5, 3.3,0,0,1684,1024,1684,1024,100,0,100,0,0,0,0,54,3.862,3.855,0,0,0,0,4.486,91.94,11.906397690716,5.905512,6,P-GPS,
3700,2022-08-11 20:31:11,-34.9287928220712,-56.1628355530009,6.889764,7.545932,5.344717690716,12.890649690716,6.56168,8.7688048,10.595636822,11.0804465488,21,5,7.711,12.890649690716,6.889764,8.7688048,10.595636822,-5.368656,-6.934514,-6.039738,233.5, -16.3, 3.1,0,0,1684,1024,1684,988,100,0,100,-5,0,0,0,54,3.862,3.855,0,0,0,0,4.486,91.94,12.890649690716,6.889764,6,P-GPS,
3800,2022-08-11 20:31:11,-34.9287957450435,-56.1628391105422,7.874016,8.6614176,5.213484090716,13.874901690716,7.545932,9.2161928,12.0978350328,12.5870082768,23,5,7.711,13.874901690716,7.874016,9.2161928,12.0978350328,-5.816044,-7.158208,-6.263432,233.5, -16.5, 3,0,0,1488,1024,1684,614,70,0,100,-62,0,0,0,54,3.862,3.855,0,0,0,0,4.486,91.94,13.874901690716,7.874016,6,P-GPS,
3900,2022-08-11 20:31:11,-34.9287984764131,-56.1628430350545,8.858268,9.7112864,5.147867290716,14.859153690716,8.530184,9.7083196,13.63763167,14.1268705308,23,5,7.711,14.859153690716,8.858268,9.7083196,13.63763167,-6.039738,-7.605596,-6.487126,227.3, -15.7, 3.3,0,0,1262,1024,1684,364,36,0,100,-100,0,0,0,54,3.862,3.855,0,0,0,0,4.486,91.94,14.859153690716,8.858268,6,P-GPS,
4000,2022-08-11 20:31:11,-34.9288011236515,-56.1628468163985,9.84252,10.7939636,5.049442090716,15.843405690716,9.514436,10.1333382,15.1249348672,15.6142393448,23,5,7.622,15.843405690716,9.84252,10.1333382,15.1249348672,-6.934514,-7.381902,-6.71082,224.5, -10.8, 3.2,0,0,1227,1024,1684,364,31,0,100,-100,0,0,0,54,3.806,3.796,0,0,0,0,6.16,91.94,15.843405690716,9.84252,6,P-GPS,
4100,2022-08-11 20:31:12,-34.9288039027264,-56.162850730519,10.826772,11.8766408,4.951016890716,16.827657690716,10.498688,10.1333382,16.6737866228,17.163058292,23,5,7.622,16.827657690716,10.826772,10.1333382,16.6737866228,-6.934514,-7.381902,-6.71082,218.4, -3.4, 1.9,0,0,1177,1024,1684,364,23,0,100,-100,0,0,0,54,3.806,3.796,0,0,0,0,6.16,91.94,16.827657690716,10.826772,6,P-GPS,
4200,2022-08-11 20:31:12,-34.9288069072235,-56.1628537059936,11.811024,12.9921264,4.819783290716,17.811909690716,11.154856,9.8201666,18.0658142264,18.5750990196,23,5,7.622,17.811909690716,11.811024,10.1333382,18.0658142264,-6.71082,-7.158208,-6.71082,212.2, -1.3, 1.6,0,0,1177,1024,1684,364,23,0,100,-100,0,0,0,54,3.806,3.796,0,0,0,0,6.16,91.94,17.811909690716,11.811024,6,P-GPS,
4300,2022-08-11 20:31:12,-34.9288096459471,-56.1628573939106,12.795276,14.0748036,4.721358090716,18.796161690716,12.139108,9.4846256,19.5541672924,20.0635177024,23,5,7.622,18.796161690716,12.795276,10.1333382,19.5541672924,-6.487126,-6.934514,-6.71082,206.2, 0, 1.7,0,0,1173,1024,1684,458,23,0,100,-86,0,0,0,54,3.806,3.796,0,0,0,0,6.16,91.94,18.796161690716,12.795276,6,P-GPS,
4400,2022-08-11 20:31:12,-34.9288121941558,-56.1628607990178,14.107612,15.4527564,4.655741290716,20.108497690716,13.12336,9.171454,20.9331699612,21.442585988,24,5,7.622,20.108497690716,14.107612,10.1333382,20.9331699612,-6.263432,-6.71082,-6.71082,200.4, 0.9, 1.4,0,0,1148,1024,1495,1024,19,0,71,0,0,0,0,54,3.806,3.796,0,0,0,0,6.16,91.94,20.108497690716,14.107612,6,P-GPS,
4500,2022-08-11 20:31:12,-34.9288148005749,-56.1628642732784,15.091864,16.5354336,4.557316090716,21.092749690716,14.107612,9.0148682,22.3417329984,22.8512474504,24,5,7.622,21.092749690716,15.091864,10.1333382,22.3417329984,-6.263432,-6.487126,-6.487126,199.4, 0.8, 0.9,0,0,1479,1024,1583,1024,69,0,85,0,0,0,0,54,3.806,3.796,0,0,0,0,6.16,91.94,21.092749690716,15.091864,6,P-GPS,
4600,2022-08-11 20:31:12,-34.928817164574,-56.1628674946872,15.748032,17.2572184,4.491699290716,21.748917690716,14.76378,8.7016966,23.6349417012,24.1444889616,24,5,7.622,21.748917690716,15.748032,10.1333382,23.6349417012,-6.039738,-6.263432,-6.039738,199.4, 1.5, 1.4,0,0,1684,1024,1684,1024,100,0,100,0,0,0,0,54,3.806,3.796,0,0,0,0,6.16,91.94,21.748917690716,15.748032,6,P-GPS,
4700,2022-08-11 20:31:12,-34.928819170589,-56.1628707350302,16.732284,18.3398956,4.393274090716,22.733169690716,15.748032,8.5451108,24.8455716612,25.3590231212,24,5,7.622,22.733169690716,16.732284,10.1333382,24.8455716612,-6.039738,-6.039738,-5.816044,199.4, -6.7, 1.1,0,0,1684,1024,1684,1024,100,0,100,0,0,0,0,54,3.806,3.796,0,0,0,0,6.16,91.94,22.733169690716,16.732284,6,P-GPS,
4800,2022-08-11 20:31:12,-34.9288214427993,-56.1628737529289,17.388452,19.0616804,4.327657290716,23.389337690716,16.4042,8.5451108,26.071031018,26.5846793284,25,5,7.622,23.389337690716,17.388452,10.1333382,26.071031018,-6.263432,-5.816044,-6.039738,199.1, -17, 1.6,0,0,1684,1024,1684,1024,100,0,100,0,0,0,0,54,3.806,3.796,0,0,0,0,6.16,91.94,23.389337690716,17.388452,6,P-GPS,
4900,2022-08-11 20:31:12,-34.9288240544945,-56.1628768237845,18.372704,20.1443576,4.229232090716,24.373589690716,17.060368,9.1938234,27.3907817164,27.9082029928,25,5,7.622,24.373589690716,18.372704,10.1333382,27.3907817164,-6.934514,-6.039738,-6.039738,199.2, -18.8, 2,0,0,1531,1024,1684,1024,77,0,100,0,0,0,0,54,3.806,3.796,0,0,0,0,6.16,91.94,24.373589690716,18.372704,6,P-GPS,
5000,2022-08-11 20:31:12,-34.9288267858022,-56.1628797605915,19.356956,21.2270348,4.130806890716,25.357841690716,18.04462,9.7083196,28.7103683728,29.2366479172,25,5,7.653,25.357841690716,19.356956,10.1333382,28.7103683728,-7.605596,-6.039738,-6.263432,199.2, -17.8, 2.2,0,0,1024,1024,1684,1024,0,0,100,0,0,0,0,54,3.834,3.837,0,0,0,0,6.436,91.76,25.357841690716,19.356956,6,P-GPS,
5100,2022-08-11 20:31:13,-34.9288297171121,-56.1628824041708,20.341208,22.309712,4.032381690716,26.342093690716,19.028872,10.3794016,30.0153880996,30.5667332616,25,5,7.653,26.342093690716,20.341208,10.3794016,30.0153880996,-8.276678,-6.263432,-6.487126,199.1, -14.4, 2.4,0,0,1024,1024,1684,1024,0,0,100,0,0,0,0,54,3.834,3.837,0,0,0,0,6.436,91.76,26.342093690716,20.341208,6,P-GPS,
5200,2022-08-11 20:31:13,-34.9288329036611,-56.1628853638043,21.32546,23.4251976,3.901148090716,27.326345690716,20.013124,10.3794016,31.455217542,32.028052206,24,5,7.653,27.326345690716,21.32546,10.3794016,31.455217542,-8.500372,-6.263432,-6.487126,199.4, 0.3, 1.9,0,0,1024,1024,1684,1024,0,0,100,0,0,0,0,54,3.834,3.837,0,0,0,0,6.436,91.76,27.326345690716,21.32546,6,P-GPS,
5300,2022-08-11 20:31:13,-34.9288362933878,-56.1628883869537,22.309712,24.5078748,3.802722890716,28.310597690716,20.997376,10.1109688,32.961615228,33.560040444,24,5,7.653,28.310597690716,22.309712,10.3794016,32.961615228,-8.276678,-5.816044,-6.71082,198.6, 17.8, -4.4,0,0,1024,1024,1684,1024,0,0,100,0,0,0,0,54,3.834,3.837,0,0,0,0,6.436,91.76,28.310597690716,22.309712,6,P-GPS,
5400,2022-08-11 20:31:13,-34.9288392909917,-56.1628910143575,23.293964,25.590552,3.704297690716,29.294849690716,21.981628,8.9924988,34.286090336,34.906825264,24,5,7.653,29.294849690716,23.293964,10.3794016,34.286090336,-7.381902,-5.144962,-6.71082,198.2, 20.1, -5.1,0,0,1024,1024,1684,1024,0,0,100,0,0,0,0,54,3.834,3.837,0,0,0,0,6.436,91.76,29.294849690716,23.293964,6,P-GPS,"Punto de origen actualizado. Altitud de RPO establecida en 40m (Code: 3000001)"
5600,2022-08-11 20:31:13,-34.9288449803092,-56.1628955000719,25.590552,28.1167988,3.474638890716,31.591437690716,23.950132,6.6437118,36.697507736,37.37861012,25,5,7.653,31.591437690716,25.590552,10.3794016,36.697507736,-5.59235,-3.579104,-6.71082,198.4, 19.3, -4.8,0,0,1024,1024,1684,1024,0,0,100,0,0,0,0,54,3.834,3.837,0,0,0,0,6.436,91.76,31.591437690716,25.590552,6,P-GPS,
5700,2022-08-11 20:31:13,-34.9288473291508,-56.1628973659322,26.574804,29.1666676,3.409022090716,32.575689690716,24.934384,5.5252418,37.69849202,38.401247948,25,5,7.653,32.575689690716,26.574804,10.3794016,37.69849202,-4.697574,-2.908022,-6.71082,198.7, 18.7, -3.9,0,0,1024,1024,1443,1024,0,0,63,0,0,0,0,54,3.834,3.837,0,0,0,0,6.436,91.76,32.575689690716,26.574804,6,P-GPS,
5800,2022-08-11 20:31:13,-34.9288491519333,-56.1628987828129,27.559056,30.2165364,3.343405290716,33.559941690716,25.918636,4.7199434,38.469161336,39.189961884,25,5,7.653,33.559941690716,27.559056,10.3794016,38.469161336,-4.026492,-2.460634,-6.487126,199, 18.7, -2.7,0,0,1024,1024,1024,1024,0,0,0,0,0,0,0,54,3.834,3.837,0,0,0,0,6.436,91.76,33.559941690716,27.559056,6,P-GPS,
5900,2022-08-11 20:31:13,-34.9288506104915,-56.1628998910532,28.543308,31.2664052,3.277788490716,34.544193690716,26.902888,4.1159696,39.08136608,39.816930408,25,5,7.653,34.544193690716,28.543308,10.3794016,39.08136608,-3.579104,-2.013246,-6.263432,199, 18.5, -1.8,0,0,1024,1024,1024,1024,0,0,0,0,0,0,0,54,3.834,3.837,0,0,0,0,6.436,91.76,34.544193690716,28.543308,6,P-GPS,
6000,2022-08-11 20:31:13,-34.9288516902215,-56.1629007111754,29.52756,32.2834656,3.244980090716,35.528445690716,27.88714,3.5119958,39.534778168,40.280841184,25,5,7.613,35.528445690716,29.52756,10.3794016,39.534778168,-3.131716,-1.565858,-5.368656,199.1, 18.6, -1.8,0,0,1024,1024,1024,1024,0,0,0,0,0,0,0,54,3.829,3.816,0,0,0,0,5.866,91.94,35.528445690716,29.52756,6,P-GPS,
6100,2022-08-11 20:31:13,-34.9288525286227,-56.1629013367112,30.183728,32.972442,3.212171690716,36.184613690716,28.543308,2.9974996,39.884515712,40.639436996,25,5,7.613,36.184613690716,30.183728,10.3794016,39.884515712,-2.684328,-1.342164,-4.697574,199, 18.5, -2.2,0,0,1024,1024,1024,1024,0,0,0,0,0,0,0,54,3.829,3.816,0,0,0,0,5.866,91.94,36.184613690716,30.183728,6,P-GPS,
6200,2022-08-11 20:31:14,-34.9288531348989,-56.1629017039825,30.839896,33.62861,3.212171690716,36.840781690716,29.199476,2.7066974,40.120080024,40.886484248,25,5,7.613,36.840781690716,30.839896,10.3794016,40.120080024,-2.460634,-1.11847,-3.802798,198.9, 18.9, -1.7,0,0,1024,1024,1024,1024,0,0,0,0,0,0,0,54,3.829,3.816,0,0,0,0,5.866,91.94,36.840781690716,30.839896,6,P-GPS,
6300,2022-08-11 20:31:14,-34.9288535826754,-56.1629018372736,31.496064,34.3175864,3.179363290716,37.496949690716,29.52756,2.125093,40.265421236,41.05479134,25,5,7.613,37.496949690716,31.496064,10.3794016,40.265421236,-2.013246,-0.671082,-2.908022,199, 18.4, -1.1,0,0,1024,1024,1024,1024,0,0,0,0,0,0,0,54,3.829,3.816,0,0,0,0,5.866,91.94,37.496949690716,31.496064,6,P-GPS,
6400,2022-08-11 20:31:14,-34.9288530073461,-56.1629010335567,31.824148,34.612862,3.212171690716,37.825033690716,29.855644,1.8342908,39.94750784,41.373688988,25,5,7.613,37.825033690716,31.824148,10.3794016,40.265421236,-1.789552,-0.447388,-2.23694,199.2, 15.9, -0.6,0,0,1024,1024,1024,1024,0,0,0,0,0,0,0,54,3.829,3.816,0,0,0,0,5.866,91.94,37.825033690716,31.824148,6,P-GPS,
6500,2022-08-11 20:31:14,-34.9288534092135,-56.1629011022189,32.152232,34.940946,3.212171690716,38.153117690716,30.183728,1.6329662,40.067586584,41.521982956,25,5,7.613,38.153117690716,32.152232,10.3794016,40.265421236,-1.565858,-0.447388,-1.342164,199.2, 13.6, 0.3,0,0,1024,1024,1024,1024,0,0,0,0,0,0,0,54,3.829,3.816,0,0,0,0,5.866,91.94,38.153117690716,32.152232,6,P-GPS,
6600,2022-08-11 20:31:14,-34.9288537887843,-56.1629010784154,32.152232,34.9737544,3.179363290716,38.153117690716,30.183728,1.3645334,40.162730944,41.660434404,25,5,7.613,38.153117690716,32.152232,10.3794016,40.265421236,-1.342164,-0.223694,-0.671082,199.2, 11.4, 0.9,0,0,1024,1024,1113,1024,0,0,13,0,0,0,0,54,3.829,3.816,0,0,0,0,5.866,91.94,38.153117690716,32.152232,6,P-GPS,
6700,2022-08-11 20:31:14,-34.9288542296041,-56.1629009719791,32.480316,35.3018384,3.179363290716,38.481201690716,30.183728,1.11847,40.257875304,41.824476404,25,5,7.613,38.481201690716,32.480316,10.3794016,40.265421236,-1.11847,0,-0.223694,199.2, 9.6, 1.2,0,0,1024,1024,1684,1024,0,0,100,0,0,0,0,54,3.829,3.816,0,0,0,0,5.866,91.94,38.481201690716,32.480316,6,P-GPS,
6800,2022-08-11 20:31:14,-34.9288549618828,-56.1629007587615,32.480316,35.3346468,3.146554890716,38.481201690716,30.183728,0.894776,40.408793944,42.099082712,25,5,7.613,38.481201690716,32.480316,10.3794016,40.408793944,-0.894776,0,-0.223694,199.2, 7.1, 1.6,0,0,1024,1024,1684,1024,0,0,100,0,0,0,0,54,3.829,3.816,0,0,0,0,5.866,91.94,38.481201690716,32.480316,6,P-GPS,
6900,2022-08-11 20:31:14,-34.9288551573742,-56.1629006597232,32.8084,35.6627308,3.146554890716,38.809285690716,30.183728,0.671082,40.440946176,42.176510536,25,5,7.613,38.809285690716,32.8084,10.3794016,40.440946176,-0.671082,0,-0.894776,199, 5.2, 1.9,0,0,1024,1024,1684,1024,0,0,100,0,0,0,0,54,3.829,3.816,0,0,0,0,5.866,91.94,38.809285690716,32.8084,6,P-GPS,
7000,2022-08-11 20:31:14,-34.92885536248,-56.1629005963797,33.136484,35.9908148,3.146554890716,39.137369690716,30.183728,0.671082,40.482940928,42.253610276,25,5,7.7,39.137369690716,33.136484,10.3794016,40.482940928,-0.671082,0,-1.565858,199.1, 5.1, 2.3,0,0,1024,1024,1684,1024,0,0,100,0,0,0,0,54,3.849,3.841,0,0,0,0,4.147,91.94,39.137369690716,33.136484,6,P-GPS,
7100,2022-08-11 20:31:14,-34.928855631069,-56.1629005954601,33.464568,36.3517072,3.113746490716,39.465453690716,30.183728,0.447388,40.55446324,42.351707392,25,5,7.7,39.465453690716,33.464568,10.3794016,40.55446324,-0.447388,0,-2.460634,199.3, 5.5, 2.7,0,0,1024,1024,1024,1024,0,0,0,0,0,0,0,54,3.849,3.841,0,0,0,0,4.147,91.94,39.465453690716,33.464568,6,P-GPS,
7200,2022-08-11 20:31:15,-34.9288566254556,-56.162901510023,34.120736,37.073492,3.048129690716,40.121621690716,30.183728,0.447388,41.006562992,42.806103732,25,5,7.7,40.121621690716,34.120736,10.3794016,41.006562992,-0.447388,0,-3.35541,199.4, 5.2, 3.2,0,0,1024,1024,1024,1024,0,0,0,0,0,0,0,54,3.849,3.841,0,0,0,0,4.147,91.94,40.121621690716,34.120736,6,P-GPS,
7300,2022-08-11 20:31:15,-34.9288568440514,-56.1629015320292,34.44882,37.401576,3.048129690716,40.449705690716,30.183728,0.447388,41.069883204,42.886156228,25,5,7.7,40.449705690716,34.44882,10.3794016,41.069883204,-0.447388,0,-3.802798,199.3, 4.4, 3.2,0,0,1060,1024,1024,1024,5,0,0,0,0,0,0,54,3.849,3.841,0,0,0,0,4.147,91.94,40.449705690716,34.44882,6,P-GPS,
7400,2022-08-11 20:31:15,-34.9288570099442,-56.1629014979332,35.104988,38.057744,3.048129690716,41.105873690716,30.183728,0.223694,41.107612864,42.947507936,25,5,7.7,41.105873690716,35.104988,10.3794016,41.107612864,-0.223694,0,-3.579104,199.5, 5, 3.7,0,0,1684,1024,1024,1024,100,0,0,0,0,0,0,54,3.849,3.841,0,0,0,0,4.147,91.94,41.105873690716,35.104988,6,P-GPS,
7500,2022-08-11 20:31:15,-34.9288571348068,-56.1629013729807,35.761156,38.713912,3.048129690716,41.762041690716,30.183728,0.223694,41.115814964,43.006234972,25,5,7.7,41.762041690716,35.761156,10.3794016,41.115814964,-0.223694,0,-2.908022,199.1, -3.6, 3.5,0,0,1684,1024,1024,1024,100,0,0,0,0,0,0,54,3.849,3.841,0,0,0,0,4.147,91.94,41.762041690716,35.761156,6,P-GPS,
7600,2022-08-11 20:31:15,-34.9288576989845,-56.1629014378916,36.08924,39.0748044,3.015321290716,42.090125690716,30.183728,0.671082,41.280841216,43.212927892,24,5,7.7,42.090125690716,36.08924,10.3794016,41.280841216,-0.671082,0,-2.23694,198.7, -16.5, 2.8,0,0,1684,1024,1024,1024,100,0,0,0,0,0,0,54,3.849,3.841,0,0,0,0,4.147,91.94,42.090125690716,36.08924,6,P-GPS,
7700,2022-08-11 20:31:15,-34.9288581650842,-56.1629014774839,36.08924,39.0748044,3.015321290716,42.090125690716,30.183728,1.11847,41.414699488,43.383531572,24,5,7.7,42.090125690716,36.08924,10.3794016,41.414699488,-1.11847,0,-1.342164,198.6, -20.9, 3.6,0,0,1684,1024,1024,1024,100,0,0,0,0,0,0,54,3.849,3.841,0,0,0,0,4.147,91.94,42.090125690716,36.08924,6,P-GPS,
7800,2022-08-11 20:31:15,-34.9288587983926,-56.1629015778702,36.417324,39.4356968,2.982512890716,42.418209690716,30.183728,1.8119214,41.606628628,43.616471212,25,5,7.7,42.418209690716,36.417324,10.3794016,41.606628628,-1.789552,-0.223694,-0.671082,198.8, -22.6, 2.6,0,0,1684,1024,1024,1024,100,0,0,0,0,0,0,54,3.849,3.841,0,0,0,0,4.147,91.94,42.418209690716,36.417324,6,P-GPS,
7900,2022-08-11 20:31:15,-34.9288596859467,-56.1629017361977,36.417324,39.4685052,2.949704490716,42.418209690716,30.183728,2.5053728,41.879266432,43.943899044,23,5,7.7,42.418209690716,36.417324,10.3794016,41.879266432,-2.460634,-0.447388,-0.223694,199.3, -21.2, 2.5,0,0,1684,1024,1024,1024,100,0,0,0,0,0,0,54,3.849,3.841,0,0,0,0,4.147,91.94,42.418209690716,36.417324,6,P-GPS,
8000,2022-08-11 20:31:15,-34.9288608137223,-56.1629019856743,36.745408,39.8293976,2.916896090716,42.746293690716,30.183728,3.1988242,42.236877992,44.36187806,23,5,7.602,42.746293690716,36.745408,10.3794016,42.236877992,-3.131716,-0.671082,0,199.1, -20.2, 2.6,0,0,1684,1024,1024,1024,100,0,0,0,0,0,0,53,3.857,3.844,0,0,0,0,5.057,91.94,42.746293690716,36.745408,6,P-GPS,
8100,2022-08-11 20:31:15,-34.9288624431825,-56.1629023043982,36.745408,39.862206,2.884087690716,42.746293690716,30.183728,4.1159696,42.747048612,44.964240284,23,5,7.602,42.746293690716,36.745408,10.3794016,42.747048612,-4.026492,-0.894776,0,198.8, -20.1, 3.2,0,0,1684,1024,1024,1024,100,0,0,0,0,0,0,53,3.857,3.844,0,0,0,0,5.057,91.94,42.746293690716,36.745408,6,P-GPS,
8200,2022-08-11 20:31:16,-34.9288642518496,-56.1629028010944,36.745408,39.9278228,2.818470890716,42.746293690716,30.183728,4.8317904,43.343833408,45.640421408,23,5,7.602,42.746293690716,36.745408,10.3794016,43.343833408,-4.697574,-1.11847,0,198.9, -19.5, 3.9,0,0,1684,1024,1024,1024,100,0,0,0,0,0,0,53,3.857,3.844,0,0,0,0,5.057,91.94,42.746293690716,36.745408,6,P-GPS,
8300,2022-08-11 20:31:16,-34.9288665536031,-56.1629034933174,36.745408,40.026248,2.720045690716,42.746293690716,30.183728,5.5252418,44.118111648,46.505578916,23,5,7.602,42.746293690716,36.745408,10.3794016,44.118111648,-5.368656,-1.342164,0,198.8, -18.8, 4.1,0,0,1684,1024,1024,1024,100,0,0,0,0,0,0,53,3.857,3.844,0,0,0,0,5.057,91.94,42.746293690716,36.745408,6,P-GPS,
8400,2022-08-11 20:31:16,-34.9288690010177,-56.1629043262505,36.745408,40.1246732,2.621620490716,42.746293690716,30.183728,6.3081708,44.963584116,47.432416216,24,5,7.602,42.746293690716,36.745408,10.3794016,44.963584116,-6.039738,-1.789552,0,198.9, -18.3, 4,0,0,1684,1024,1024,1024,100,0,0,0,0,0,0,53,3.857,3.844,0,0,0,0,5.057,91.94,42.746293690716,36.745408,6,P-GPS,
8500,2022-08-11 20:31:16,-34.9288725892679,-56.1629058577494,36.745408,40.2559068,2.490386890716,42.746293690716,30.183728,7.0016222,46.267061848,48.819555368,24,5,7.602,42.746293690716,36.745408,10.3794016,46.267061848,-6.71082,-2.013246,0,199, -17.3, 3.9,0,0,1684,1024,1024,1024,100,0,0,0,0,0,0,53,3.857,3.844,0,0,0,0,5.057,91.94,42.746293690716,36.745408,6,P-GPS,
8600,2022-08-11 20:31:16,-34.9288755043065,-56.1629069870032,36.745408,40.354332,2.391961690716,42.746293690716,30.183728,7.493749,47.30807238,49.935369052,24,5,7.602,42.746293690716,36.745408,10.3794016,47.30807238,-7.158208,-2.23694,0,199.1, -17.7, 4.1,0,0,1684,1024,1024,1024,100,0,0,0,0,0,0,53,3.857,3.844,0,0,0,0,5.057,91.94,42.746293690716,36.745408,6,P-GPS,
8700,2022-08-11 20:31:16,-34.9288787739354,-56.1629082614602,36.745408,40.4527572,2.293536490716,42.746293690716,30.183728,8.1424616,48.481300764,51.18766568,24,5,7.602,42.746293690716,36.745408,10.3794016,48.481300764,-7.82929,-2.23694,0,199.1, -17.6, 3.3,0,0,1684,1024,1024,1024,100,0,0,0,0,0,0,53,3.857,3.844,0,0,0,0,5.057,91.94,42.746293690716,36.745408,6,P-GPS,
8800,2022-08-11 20:31:16,-34.9288821078814,-56.16290958273,36.745408,40.5839908,2.162302890716,42.746293690716,30.183728,8.6345884,49.685369044,52.466865196,24,5,7.602,42.746293690716,36.745408,10.3794016,49.685369044,-8.276678,-2.460634,0,199, -17.1, 3.5,0,0,1684,1024,1024,1024,100,0,0,0,0,0,0,53,3.857,3.844,0,0,0,0,5.057,91.94,42.746293690716,36.745408,6,P-GPS,
8900,2022-08-11 20:31:16,-34.9288861607137,-56.1629114456906,36.745408,40.7152244,2.031069290716,42.746293690716,30.183728,9.1267152,51.200132872,54.04691774,24,5,7.602,42.746293690716,36.745408,10.3794016,51.200132872,-8.724066,-2.684328,0,199, -16.2, 4,0,0,1684,1024,1024,1024,100,0,0,0,0,0,0,53,3.857,3.844,0,0,0,0,5.057,91.94,42.746293690716,36.745408,6,P-GPS,
9000,2022-08-11 20:31:16,-34.9288898818971,-56.1629129259984,36.745408,40.8136496,1.932644090716,42.746293690716,30.183728,9.5517338,52.553479372,55.475067392,23,5,7.66,42.746293690716,36.745408,10.3794016,52.553479372,-9.171454,-2.684328,0,198.8, -15.7, 4.3,0,0,1684,1024,1024,1024,100,0,0,0,0,0,0,53,3.835,3.827,0,0,0,0,3.997,91.94,42.746293690716,36.745408,6,P-GPS,
9100,2022-08-11 20:31:16,-34.9288939387615,-56.1629145328784,36.745408,40.846458,1.899835690716,42.746293690716,30.183728,10.0438606,54.031825876,57.031169804,23,5,7.66,42.746293690716,36.745408,10.3794016,54.031825876,-9.618842,-2.908022,0,198.7, -16.3, 4,0,0,1684,1024,1024,1024,100,0,0,0,0,0,0,53,3.835,3.827,0,0,0,0,3.997,91.94,42.746293690716,36.745408,6,P-GPS,
9200,2022-08-11 20:31:17,-34.9288979937759,-56.1629161555786,36.417324,40.5511824,1.867027290716,42.418209690716,30.183728,10.5359874,55.517062144,58.588256468,23,5,7.66,42.746293690716,36.745408,10.5359874,55.517062144,-10.06623,-3.131716,0,198.8, -16.1, 5,0,0,1684,1024,1024,1024,100,0,0,0,0,0,0,53,3.835,3.827,0,0,0,0,3.997,91.94,42.418209690716,36.417324,6,P-GPS,
9300,2022-08-11 20:31:17,-34.9289025744586,-56.1629182267202,36.417324,40.5839908,1.834218890716,42.418209690716,30.183728,11.0281142,57.239831228,60.37073684,23,5,7.66,42.746293690716,36.745408,11.0281142,57.239831228,-10.513618,-3.35541,0,198.7, -16.4, 4.9,0,0,1684,1024,1024,1024,100,0,0,0,0,0,0,53,3.835,3.827,0,0,0,0,3.997,91.94,42.418209690716,36.417324,6,P-GPS,
9400,2022-08-11 20:31:17,-34.9289069859916,-56.1629200592942,36.417324,40.5839908,1.834218890716,42.418209690716,30.183728,11.520241,58.875001884,62.070868128,23,5,7.66,42.746293690716,36.745408,11.520241,58.875001884,-10.961006,-3.579104,0,198.6, -16.4, 4.3,0,0,1684,1024,1024,1024,100,0,0,0,0,0,0,53,3.835,3.827,0,0,0,0,3.997,91.94,42.418209690716,36.417324,6,P-GPS,
9500,2022-08-11 20:31:17,-34.9289117719624,-56.1629220486806,36.417324,40.6167992,1.801410490716,42.418209690716,30.183728,11.967629,60.653217164,63.91568446,23,5,7.66,42.746293690716,36.745408,11.967629,60.653217164,-11.408394,-3.579104,0,198.6, -16.8, 4.1,0,0,1684,1024,1024,1024,100,0,0,0,0,0,0,53,3.835,3.827,0,0,0,0,3.997,91.94,42.418209690716,36.417324,6,P-GPS,
9600,2022-08-11 20:31:17,-34.928916399375,-56.162923992017,36.417324,40.6496076,1.768602090716,42.418209690716,30.183728,12.2360618,62.379267088,65.701445672,23,5,7.66,42.746293690716,36.745408,12.2360618,62.379267088,-11.632088,-3.802798,0,198.7, -16.4, 3.2,0,0,1684,1024,1024,1024,100,0,0,0,0,0,0,53,3.835,3.827,0,0,0,0,3.997,91.94,42.418209690716,36.417324,6,P-GPS,
9700,2022-08-11 20:31:17,-34.9289213318667,-56.1629260687071,36.08924,40.354332,1.735793690716,42.090125690716,30.183728,12.6610804,64.223755336,67.605317124,23,5,7.66,42.746293690716,36.745408,12.6610804,64.223755336,-12.079476,-3.802798,0,198.5, -16.2, 4.1,0,0,1684,1024,1024,1024,100,0,0,0,0,0,0,53,3.835,3.827,0,0,0,0,3.997,91.94,42.090125690716,36.08924,6,P-GPS,
9800,2022-08-11 20:31:17,-34.9289260397113,-56.1629280812073,36.08924,40.3871404,1.702985290716,42.090125690716,30.183728,12.9518826,65.99245618,69.425199072,23,5,7.66,42.746293690716,36.745408,12.9518826,65.99245618,-12.30317,-4.026492,0,198.6, -15.6, 4.6,0,0,1684,1024,1024,1024,100,0,0,0,0,0,0,53,3.835,3.827,0,0,0,0,3.997,91.94,42.090125690716,36.08924,6,P-GPS,
9900,2022-08-11 20:31:17,-34.928931441234,-56.1629302716587,36.08924,40.4199488,1.670176890716,42.090125690716,30.183728,13.3769012,68.005907688,71.501970792,23,5,7.66,42.746293690716,36.745408,13.3769012,68.005907688,-12.750558,-4.026492,0,198.6, -15.2, 4.6,0,0,1684,1024,1024,1024,100,0,0,0,0,0,0,53,3.835,3.827,0,0,0,0,3.997,91.94,42.090125690716,36.08924,6,P-GPS,
10000,2022-08-11 20:31:17,-34.9289366989325,-56.1629324173559,36.08924,40.4855656,1.604560090716,42.090125690716,30.183728,13.645334,69.971458932,73.524936736,22,5,7.659,42.746293690716,36.745408,13.645334,69.971458932,-12.974252,-4.250186,0,198.7, -15.2, 4.5,0,0,1684,1024,1024,1024,100,0,0,0,0,0,0,53,3.836,3.826,0,0,0,0,4.46,91.94,42.090125690716,36.08924,6,P-GPS,
10100,2022-08-11 20:31:18,-34.9289423378302,-56.1629347415999,36.08924,40.518374,1.571751690716,42.090125690716,30.183728,14.0703526,72.08661648,75.696524732,22,5,7.659,42.746293690716,36.745408,14.0703526,72.08661648,-13.42164,-4.250186,0,198.7, -15.8, 4.2,0,0,1684,1024,1024,1024,100,0,0,0,0,0,0,53,3.836,3.826,0,0,0,0,4.46,91.94,42.090125690716,36.08924,6,P-GPS,
10200,2022-08-11 20:31:18,-34.928947884545,-56.1629370823643,36.08924,40.5511824,1.538943290716,42.090125690716,30.183728,14.3611548,74.178808148,77.837929,22,5,7.659,42.746293690716,36.745408,14.3611548,74.178808148,-13.645334,-4.47388,0,198.8, -15.3, 3.9,0,0,1684,1024,1024,1024,100,0,0,0,0,0,0,53,3.836,3.826,0,0,0,0,4.46,91.94,42.090125690716,36.08924,6,P-GPS,
10300,2022-08-11 20:31:18,-34.9289536698984,-56.1629395574228,35.761156,40.2887152,1.473326490716,41.762041690716,30.183728,14.651957,76.369096932,80.074805712,22,5,7.659,42.746293690716,36.745408,14.651957,76.369096932,-13.869028,-4.697574,0,198.8, -15.6, 3.8,0,0,1684,1024,1024,1024,100,0,0,0,0,0,0,53,3.836,3.826,0,0,0,0,4.46,91.94,41.762041690716,35.761156,6,P-GPS,
10400,2022-08-11 20:31:18,-34.9289592077153,-56.1629419004547,35.761156,40.3215236,1.440518090716,41.762041690716,30.183728,14.8532816,78.464241356,82.213257224,22,5,7.659,42.746293690716,36.745408,14.8532816,78.464241356,-14.092722,-4.697574,0,198.9, -15.7, 3.2,0,0,1684,1024,1024,1024,100,0,0,0,0,0,0,53,3.836,3.826,0,0,0,0,4.46,91.94,41.762041690716,35.761156,6,P-GPS,
10500,2022-08-11 20:31:18,-34.9289650556531,-56.1629443286586,35.761156,40.354332,1.407709690716,41.762041690716,30.183728,15.2783002,80.672246676,84.467194304,23,5,7.659,42.746293690716,36.745408,15.2783002,80.672246676,-14.54011,-4.697574,0,198.9, -14.7, 3.6,0,0,1684,1024,1024,1024,100,0,0,0,0,0,0,53,3.836,3.826,0,0,0,0,4.46,91.94,41.762041690716,35.761156,6,P-GPS,
10600,2022-08-11 20:31:18,-34.9289700648772,-56.162946434544,35.761156,40.4199488,1.342092890716,41.762041690716,30.183728,15.5691024,82.569228364,86.400265232,23,5,7.659,42.746293690716,36.745408,15.5691024,82.569228364,-14.763804,-4.921268,0,198.6, -15.6, 3.7,0,0,1684,1024,1024,1024,100,0,0,0,0,0,0,53,3.836,3.826,0,0,0,0,4.46,91.94,41.762041690716,35.761156,6,P-GPS,
10700,2022-08-11 20:31:18,-34.9289762088009,-56.1629489737925,35.761156,40.4527572,1.309284490716,41.762041690716,30.183728,15.994121,84.892063084,88.767063208,23,5,7.659,42.746293690716,36.745408,15.994121,84.892063084,-15.211192,-4.921268,0,198.7, -15, 4,0,0,1684,1024,1024,1024,100,0,0,0,0,0,0,53,3.836,3.826,0,0,0,0,4.46,91.94,41.762041690716,35.761156,6,P-GPS,
10800,2022-08-11 20:31:18,-34.9289822994551,-56.1629514706482,35.761156,40.518374,1.243667690716,41.762041690716,30.183728,16.1954456,87.193900428,91.111551472,23,5,7.659,42.746293690716,36.745408,16.1954456,87.193900428,-15.434886,-4.921268,0,198.7, -14.1, 4.2,0,0,1684,1024,1024,1024,100,0,0,0,0,0,0,53,3.836,3.826,0,0,0,0,4.46,91.94,41.762041690716,35.761156,6,P-GPS,
10900,2022-08-11 20:31:18,-34.9289889643246,-56.1629541927486,35.761156,40.5839908,1.178050890716,41.762041690716,30.183728,16.6875724,89.713585548,93.675856016,23,5,7.659,42.746293690716,36.745408,16.6875724,89.713585548,-15.882274,-5.144962,0,198.8, -12.8, 4.7,0,0,1684,1024,1024,1024,100,0,0,0,0,0,0,53,3.836,3.826,0,0,0,0,4.46,91.94,41.762041690716,35.761156,6,P-GPS,
11000,2022-08-11 20:31:18,-34.928995406905,-56.1629569466253,35.761156,40.6496076,1.112434090716,41.762041690716,30.183728,16.6875724,92.169622372,96.166669744,23,5,7.659,42.746293690716,36.745408,16.6875724,92.169622372,-16.105968,-5.144962,0,198.8, -12.1, 5.1,0,0,1684,1024,1024,1024,100,0,0,0,0,0,0,53,3.828,3.823,0,0,0,0,4.46,91.94,41.762041690716,35.761156,6,P-GPS,
11100,2022-08-11 20:31:18,-34.9290020441171,-56.1629597194256,35.761156,40.7152244,1.046817290716,41.762041690716,30.183728,17.1796992,94.692260248,98.726381112,23,5,7.659,42.746293690716,36.745408,17.1796992,94.692260248,-16.329662,-5.368656,0,198.9, -12, 4.9,0,0,1684,1024,1024,1024,100,0,0,0,0,0,0,53,3.828,3.823,0,0,0,0,4.46,91.94,41.762041690716,35.761156,6,P-GPS,
11200,2022-08-11 20:31:19,-34.9290084414398,-56.1629623775242,35.761156,40.7480328,1.014008890716,41.762041690716,30.183728,17.1796992,97.123690772,101.191932372,23,5,7.659,42.746293690716,36.745408,17.1796992,97.123690772,-16.329662,-5.368656,0,198.7, -12.5, 4.8,0,0,1684,1024,1024,1024,100,0,0,0,0,0,0,53,3.828,3.823,0,0,0,0,4.46,91.94,41.762041690716,35.761156,6,P-GPS,
11300,2022-08-11 20:31:19,-34.9290152629265,-56.1629651715157,35.761156,40.846458,0.915583690716,41.762041690716,30.183728,17.4033932,99.712601616,103.817588624,23,5,7.659,42.746293690716,36.745408,17.4033932,99.712601616,-16.553356,-5.368656,0,198.7, -12.7, 5.2,0,0,1684,1024,1024,1024,100,0,0,0,0,0,0,53,3.828,3.823,0,0,0,0,4.46,91.94,41.762041690716,35.761156,6,P-GPS,
11400,2022-08-11 20:31:19,-34.9290218402509,-56.162967861286,35.761156,40.9120748,0.849966890716,41.762041690716,30.183728,17.6941954,102.20964894,106.3484286,23,5,7.659,42.746293690716,36.745408,17.6941954,102.20964894,-16.77705,-5.59235,0,198.7, -13.2, 5,0,0,1562,1024,1024,1024,82,0,0,0,0,0,0,53,3.828,3.823,0,0,0,0,4.46,91.94,41.762041690716,35.761156,6,P-GPS,
11500,2022-08-11 20:31:19,-34.9290289719758,-56.1629706438146,35.761156,40.9776916,0.784350090716,41.762041690716,30.183728,17.89552,104.900921992,109.080384068,23,5,7.659,42.746293690716,36.745408,17.89552,104.900921992,-17.000744,-5.59235,0,198.8, -12.9, 4.9,0,0,1133,1024,1024,1024,17,0,0,0,0,0,0,53,3.828,3.823,0,0,0,0,4.46,91.94,41.762041690716,35.761156,6,P-GPS,
11600,2022-08-11 20:31:19,-34.9290357479964,-56.1629734185481,35.761156,41.0433084,0.718733290716,41.762041690716,30.183728,18.119214,107.477693728,111.688323784,23,5,7.659,42.746293690716,36.745408,18.119214,107.477693728,-17.224438,-5.59235,0,199.1, -9.9, 5.2,0,0,1133,1024,1024,1024,17,0,0,0,0,0,0,53,3.828,3.823,0,0,0,0,4.46,91.94,41.762041690716,35.761156,6,P-GPS,
11700,2022-08-11 20:31:19,-34.929042902728,-56.1629763733749,35.761156,41.1417336,0.620308090716,41.762041690716,30.183728,18.119214,110.2034156,114.444229384,23,5,7.659,42.746293690716,36.745408,18.119214,110.2034156,-17.224438,-5.59235,0,199.6, 1.1, 4.8,0,0,1024,1024,1024,1024,0,0,0,0,0,0,0,53,3.828,3.823,0,0,0,0,4.46,91.94,41.762041690716,35.761156,6,P-GPS,
11800,2022-08-11 20:31:19,-34.9290495577487,-56.162979120982,35.761156,41.2073504,0.554691290716,41.762041690716,30.183728,17.4033932,112.739833004,117.007549676,23,5,7.659,42.746293690716,36.745408,18.119214,112.739833004,-16.553356,-5.368656,0,200, 19.7, 3,0,0,1024,1024,1024,1024,0,0,0,0,0,0,0,53,3.828,3.823,0,0,0,0,4.46,91.94,41.762041690716,35.761156,6,P-GPS,
11900,2022-08-11 20:31:19,-34.9290560298365,-56.1629817690388,35.761156,41.2729672,0.489074490716,41.762041690716,30.183728,16.1954456,115.204728096,119.498363404,23,5,7.659,42.746293690716,36.745408,18.119214,115.204728096,-15.434886,-4.921268,-0.223694,199.9, 20.9, 1.4,0,0,1024,1024,1024,1024,0,0,0,0,0,0,0,53,3.828,3.823,0,0,0,0,4.46,91.94,41.762041690716,35.761156,6,P-GPS,
12000,2022-08-11 20:31:19,-34.9290618978107,-56.1629841075148,35.433072,41.0105,0.423457690716,41.433957690716,30.183728,15.211192,117.432090372,121.750660064,23,5,7.658,42.746293690716,36.745408,18.119214,117.432090372,-14.54011,-4.47388,-0.223694,199.7, 20.3, 0.7,0,0,1024,1024,1024,1024,0,0,0,0,0,0,0,53,3.814,3.809,0,0,0,0,4.467,91.94,41.433957690716,35.433072,6,P-GPS,
12100,2022-08-11 20:31:19,-34.9290677030963,-56.1629863407247,35.433072,41.0761168,0.357840890716,41.433957690716,30.183728,14.0032444,119.625659996,123.97146066,23,5,7.658,42.746293690716,36.745408,18.119214,119.625659996,-13.42164,-4.026492,-0.223694,199.7, 19.8, 0.4,0,0,1024,1024,1024,1024,0,0,0,0,0,0,0,53,3.814,3.809,0,0,0,0,4.467,91.94,41.433957690716,35.433072,6,P-GPS,
12200,2022-08-11 20:31:20,-34.9290728604435,-56.1629882577289,35.433072,41.1417336,0.292224090716,41.433957690716,30.183728,13.0189908,121.56660494,125.938652324,25,5,7.658,42.746293690716,36.745408,18.119214,121.56660494,-12.526864,-3.579104,0,199.8, 19.4, 0.8,0,0,1024,1024,1024,1024,0,0,0,0,0,0,0,53,3.814,3.809,0,0,0,0,4.467,91.94,41.433957690716,35.433072,6,P-GPS,
12300,2022-08-11 20:31:20,-34.9290778507255,-56.1629900115153,35.433072,41.2073504,0.226607290716,41.433957690716,30.183728,12.0571066,123.432090564,127.833337424,25,5,7.658,42.746293690716,36.745408,18.119214,123.432090564,-11.632088,-3.131716,0,199.8, 18.7, 1.1,0,0,1024,1024,1024,1024,0,0,0,0,0,0,0,53,3.814,3.809,0,0,0,0,4.467,91.94,41.433957690716,35.433072,6,P-GPS,
12400,2022-08-11 20:31:20,-34.9290821572433,-56.1629914595558,35.433072,41.2401588,0.193798890716,41.433957690716,30.183728,11.2741776,125.034124736,129.463258736,25,5,7.658,42.746293690716,36.745408,18.119214,125.034124736,-10.961006,-2.684328,0,199.9, 18.2, 1.5,0,0,1024,1024,1024,1024,0,0,0,0,0,0,0,53,3.814,3.809,0,0,0,0,4.467,91.94,41.433957690716,35.433072,6,P-GPS,
12500,2022-08-11 20:31:20,-34.9290860645188,-56.1629926539504,35.433072,41.3057756,0.128182090716,41.433957690716,30.183728,10.3122934,126.472773076,130.932746972,25,5,7.658,42.746293690716,36.745408,18.119214,126.472773076,-10.06623,-2.23694,0,199.9, 18.4, 2.1,0,0,1043,1024,1024,1024,3,0,0,0,0,0,0,53,3.814,3.809,0,0,0,0,4.467,91.94,41.433957690716,35.433072,6,P-GPS,
12600,2022-08-11 20:31:20,-34.9290895451941,-56.1629936179384,35.433072,41.338584,0.095373690715999,41.433957690716,30.183728,9.618842,127.741801988,132.234912368,25,5,7.658,42.746293690716,36.745408,18.119214,127.741801988,-9.395148,-2.013246,0,200, 18, 2.7,0,0,1446,1024,1024,1024,64,0,0,0,0,0,0,53,3.814,3.809,0,0,0,0,4.467,91.94,41.433957690716,35.433072,6,P-GPS,
12700,2022-08-11 20:31:20,-34.9290921675101,-56.1629938617828,35.433072,41.3713924,0.062565290715999,41.433957690716,30.183728,8.8582824,128.636158972,133.194558068,25,5,7.658,42.746293690716,36.745408,18.119214,128.636158972,-8.724066,-1.565858,0,200.1, 21.1, 3.4,0,0,1446,1024,1024,1024,64,0,0,0,0,0,0,53,3.814,3.809,0,0,0,0,4.467,91.94,41.433957690716,35.433072,6,P-GPS,
12800,2022-08-11 20:31:20,-34.9290951675208,-56.1629945276737,35.433072,41.4042008,0.029756890715999,41.433957690716,30.183728,7.941137,129.709977904,134.307090912,25,5,7.658,42.746293690716,36.745408,18.119214,129.709977904,-7.82929,-1.342164,0,200.1, 19.4, 3.9,0,0,1684,1024,1024,1024,100,0,0,0,0,0,0,53,3.814,3.809,0,0,0,0,4.467,91.94,41.433957690716,35.433072,6,P-GPS,
12900,2022-08-11 20:31:20,-34.929097959716,-56.1629950737113,35.104988,41.1089252,-0.0030515092840012,41.105873690716,30.183728,7.2476856,130.700791584,135.338915092,25,5,7.658,42.746293690716,36.745408,18.119214,130.700791584,-7.158208,-1.11847,0,199.8, 11.5, 4.7,0,0,1684,1024,1024,1024,100,0,0,0,0,0,0,53,3.814,3.809,0,0,0,0,4.467,91.94,41.105873690716,35.104988,6,P-GPS,
13000,2022-08-11 20:31:20,-34.9291004160349,-56.1629955383282,35.104988,41.1417336,-0.035859909284001,41.105873690716,30.183728,6.8002976,131.570542268,136.245739268,25,5,7.644,42.746293690716,36.745408,18.119214,131.570542268,-6.71082,-1.11847,0,199.5, 7, 5.5,0,0,1684,1024,1024,1024,100,0,0,0,0,0,0,53,3.817,3.801,0,0,0,0,4.803,91.94,41.105873690716,35.104988,6,P-GPS,
13100,2022-08-11 20:31:20,-34.9291028901233,-56.1629960357766,35.104988,41.174542,-0.068668309284001,41.105873690716,30.183728,6.5766036,132.451119724,137.16043746,25,5,7.644,42.746293690716,36.745408,18.119214,132.451119724,-6.487126,-1.11847,0,199.5, 6, 6.2,0,0,1684,1024,1024,1024,100,0,0,0,0,0,0,53,3.817,3.801,0,0,0,0,4.803,91.94,41.105873690716,35.104988,6,P-GPS,
13200,2022-08-11 20:31:21,-34.9291049749225,-56.1629962367372,35.104988,41.174542,-0.068668309284001,41.105873690716,30.183728,6.3529096,133.16601476,137.923560844,25,5,7.644,42.746293690716,36.745408,18.119214,133.16601476,-6.263432,-1.11847,0,199.8, 5.2, 6.4,0,0,1542,1024,1024,1024,78,0,0,0,0,0,0,53,3.817,3.801,0,0,0,0,4.803,91.94,41.105873690716,35.104988,6,P-GPS,
13300,2022-08-11 20:31:21,-34.9291073116484,-56.1629968181561,35.104988,41.2073504,-0.101476709284,41.105873690716,30.183728,6.151585,134.012799564,138.793639612,25,5,7.644,42.746293690716,36.745408,18.119214,134.012799564,-6.039738,-1.11847,0,199.4, 1.7, 6.4,0,0,1175,1024,1024,1024,23,0,0,0,0,0,0,53,3.817,3.801,0,0,0,0,4.803,91.94,41.105873690716,35.104988,6,P-GPS,
13400,2022-08-11 20:31:21,-34.9291095153109,-56.1629974051549,35.104988,41.2401588,-0.134285109284,41.105873690716,30.183728,6.1963238,134.81627728,139.616802368,25,5,7.644,42.746293690716,36.745408,18.119214,134.81627728,-6.039738,-1.342164,0,199.2, 1.2, 5.7,0,0,1024,1024,1024,1024,0,0,0,0,0,0,0,53,3.817,3.801,0,0,0,0,4.803,91.94,41.105873690716,35.104988,6,P-GPS,
13500,2022-08-11 20:31:21,-34.929111821839,-56.1629980516937,35.104988,41.2729672,-0.167093509284,41.105873690716,30.183728,6.1963238,135.661421664,140.479991372,25,5,7.644,42.746293690716,36.745408,18.119214,135.661421664,-6.039738,-1.342164,0,199.7, 7.4, 5.2,0,0,1024,1024,1024,1024,0,0,0,0,0,0,0,53,3.817,3.801,0,0,0,0,4.803,91.94,41.105873690716,35.104988,6,P-GPS,
13600,2022-08-11 20:31:21,-34.9291141442868,-56.1629986267595,35.104988,41.3057756,-0.199901909284,41.105873690716,30.183728,5.7489358,136.503285208,141.344820796,25,5,7.644,42.746293690716,36.745408,18.119214,136.503285208,-5.59235,-1.342164,0,200.2, 17.1, 4.6,0,0,1024,1024,1024,1024,0,0,0,0,0,0,0,53,3.817,3.801,0,0,0,0,4.803,91.94,41.105873690716,35.104988,6,P-GPS,
13700,2022-08-11 20:31:21,-34.9291161957354,-56.1629992808427,35.104988,41.3057756,-0.199901909284,41.105873690716,30.183728,5.256809,137.26542434,142.118442868,25,5,7.644,42.746293690716,36.745408,18.119214,137.26542434,-5.144962,-1.11847,0,200.1, 19.2, 3.8,0,0,1024,1024,1024,1024,0,0,0,0,0,0,0,53,3.817,3.801,0,0,0,0,4.803,91.94,41.105873690716,35.104988,6,P-GPS,
13800,2022-08-11 20:31:21,-34.9291179398901,-56.1629998121468,35.104988,41.338584,-0.232710309284,41.105873690716,30.183728,4.3396636,137.9101094,142.774282784,25,5,7.644,42.746293690716,36.745408,18.119214,137.9101094,-4.250186,-0.894776,0,200.1, 19.5, 3.2,0,0,1024,1024,1024,1024,0,0,0,0,0,0,0,53,3.817,3.801,0,0,0,0,4.803,91.94,41.105873690716,35.104988,6,P-GPS,
13900,2022-08-11 20:31:21,-34.9291195604654,-56.1630002447471,35.433072,41.6994764,-0.265518709284,41.433957690716,30.183728,3.6462122,138.501972936,143.379597764,25,5,7.644,42.746293690716,36.745408,18.119214,138.501972936,-3.579104,-0.671082,0,199.8, 19.2, 3.2,0,0,1024,1024,1024,1024,0,0,0,0,0,0,0,53,3.817,3.801,0,0,0,0,4.803,91.94,41.433957690716,35.433072,6,P-GPS,
14000,2022-08-11 20:31:21,-34.9291214390645,-56.1630009177226,35.433072,41.6994764,-0.265518709284,41.433957690716,30.183728,2.9527608,139.20932204,144.093836632,25,5,7.634,42.746293690716,36.745408,18.119214,139.20932204,-2.908022,-0.447388,0,199.6, 18.6, 3.6,0,0,1024,1024,1024,1024,0,0,0,0,0,0,0,53,3.807,3.795,0,0,0,0,5.4,91.94,41.433957690716,35.433072,6,P-GPS,
14100,2022-08-11 20:31:21,-34.9291225309818,-56.1630012152136,35.433072,41.7322848,-0.298327109284,41.433957690716,30.183728,2.23694,139.608928352,144.501973128,25,5,7.634,42.746293690716,36.745408,18.119214,139.608928352,-2.23694,-0.223694,0,199.5, 17.8, 3.8,0,0,1024,1024,1024,1024,0,0,0,0,0,0,0,53,3.807,3.795,0,0,0,0,5.4,91.94,41.433957690716,35.433072,6,P-GPS,
14200,2022-08-11 20:31:22,-34.929123337726,-56.1630013681075,35.761156,42.0603688,-0.298327109284,41.762041690716,30.183728,1.789552,139.895673768,144.7998734,25,5,7.634,42.746293690716,36.745408,18.119214,139.895673768,-1.789552,0,0,199.5, 15.4, 3.9,0,0,1024,1024,1024,1024,0,0,0,0,0,0,0,53,3.807,3.795,0,0,0,0,5.4,91.94,41.762041690716,35.761156,6,P-GPS,
14300,2022-08-11 20:31:22,-34.9291239374102,-56.1630013700719,35.761156,42.0603688,-0.298327109284,41.762041690716,30.183728,1.342164,140.095476924,145.018705428,25,5,7.634,42.746293690716,36.745408,18.119214,140.095476924,-1.342164,0,0,199.5, 13.1, 4.1,0,0,1024,1024,1024,1024,0,0,0,0,0,0,0,53,3.807,3.795,0,0,0,0,5.4,91.94,41.762041690716,35.761156,6,P-GPS,
14400,2022-08-11 20:31:22,-34.92912409903,-56.1630010597492,35.761156,42.0603688,-0.298327109284,41.762041690716,30.183728,1.11847,140.110896872,145.128613568,25,5,7.634,42.746293690716,36.745408,18.119214,140.110896872,-1.11847,0,0,199.4, 11, 4.1,0,0,1024,1024,1024,1024,0,0,0,0,0,0,0,53,3.807,3.795,0,0,0,0,5.4,91.94,41.762041690716,35.761156,6,P-GPS,
14500,2022-08-11 20:31:22,-34.9291243710453,-56.1630009624455,36.08924,42.3884528,-0.298327109284,42.090125690716,30.183728,0.9171454,140.189637032,145.232288112,25,5,7.634,42.746293690716,36.745408,18.119214,140.189637032,-0.894776,0.223694,0,199.4, 9.6, 4.1,0,0,1024,1024,1024,1024,0,0,0,0,0,0,0,53,3.807,3.795,0,0,0,0,5.4,91.94,42.090125690716,36.08924,6,P-GPS,
14600,2022-08-11 20:31:22,-34.9291245917321,-56.163000823888,36.08924,42.3884528,-0.298327109284,42.090125690716,30.183728,0.9171454,140.24606748,145.322839296,25,5,7.634,42.746293690716,36.745408,18.119214,140.24606748,-0.894776,0.223694,0,199.4, 8.8, 4,0,0,1024,1024,1024,1024,0,0,0,0,0,0,0,53,3.807,3.795,0,0,0,0,5.4,91.94,42.090125690716,36.08924,6,P-GPS,
14700,2022-08-11 20:31:22,-34.9291248307876,-56.1630006359263,36.417324,42.7165368,-0.298327109284,42.418209690716,30.183728,0.7158208,140.302497928,145.42651384,25,5,7.634,42.746293690716,36.745408,18.119214,140.302497928,-0.671082,0.223694,0,199.4, 8, 4.5,0,0,1024,1024,1024,1024,0,0,0,0,0,0,0,53,3.807,3.795,0,0,0,0,5.4,91.94,42.418209690716,36.417324,6,P-GPS,
14800,2022-08-11 20:31:22,-34.929124992668,-56.1630004770555,36.417324,42.7165368,-0.298327109284,42.418209690716,30.183728,0.7158208,140.336946748,145.502301244,25,5,7.634,42.746293690716,36.745408,18.119214,140.336946748,-0.671082,0.223694,0,199.5, 7.4, 4.5,0,0,1024,1024,1024,1024,0,0,0,0,0,0,0,53,3.807,3.795,0,0,0,0,5.4,91.94,42.418209690716,36.417324,6,P-GPS,
14900,2022-08-11 20:31:22,-34.9291250171337,-56.1630001632845,36.745408,43.0446208,-0.298327109284,42.746293690716,30.183728,0.447388,140.30676302,145.596461352,25,5,7.634,42.746293690716,36.745408,18.119214,140.336946748,-0.447388,0,0,199.4, 7.2, 3.6,0,0,1024,1024,1024,1024,0,0,0,0,0,0,0,53,3.807,3.795,0,0,0,0,5.4,91.94,42.746293690716,36.745408,6,P-GPS,
15000,2022-08-11 20:31:22,-34.9291251159086,-56.1630000560121,36.745408,43.0446208,-0.298327109284,42.746293690716,30.183728,0.447388,140.32644806,145.6446897,25,5,7.624,42.746293690716,36.745408,18.119214,140.336946748,-0.447388,0,0,199.4, 6.6, 3.1,0,0,1024,1024,1024,1024,0,0,0,0,0,0,0,53,3.812,3.798,0,0,0,0,5.154,91.94,42.746293690716,36.745408,6,P-GPS,
15100,2022-08-11 20:31:22,-34.9291252755743,-56.162999943766,36.745408,43.0446208,-0.298327109284,42.746293690716,30.183728,0.447388,140.36581814,145.71194692,25,5,7.624,42.746293690716,36.745408,18.119214,140.36581814,-0.447388,0,0,199.4, 6.8, 3.3,0,0,1024,1024,1024,1024,0,0,0,0,0,0,0,53,3.812,3.798,0,0,0,0,5.154,91.94,42.746293690716,36.745408,6,P-GPS,
15200,2022-08-11 20:31:23,-34.9291254833377,-56.1629998301405,37.073492,43.3727048,-0.298327109284,43.074377690716,30.183728,0.447388,140.421264336,145.795280256,25,5,7.624,43.074377690716,37.073492,18.119214,140.421264336,-0.447388,0,0,199.6, 7.2, 3.9,0,0,1024,1024,1024,1024,0,0,0,0,0,0,0,53,3.812,3.798,0,0,0,0,5.154,91.94,43.074377690716,37.073492,6,P-GPS,
15300,2022-08-11 20:31:23,-34.9291260917244,-56.1629996760763,37.073492,43.3727048,-0.298327109284,43.074377690716,30.183728,0.447388,140.60531946,146.0219863,25,5,7.624,43.074377690716,37.073492,18.119214,140.60531946,-0.447388,0,0,199.5, 6.3, 3,0,0,1024,1024,1024,1024,0,0,0,0,0,0,0,53,3.812,3.798,0,0,0,0,5.154,91.94,43.074377690716,37.073492,6,P-GPS,
15400,2022-08-11 20:31:23,-34.9291263745526,-56.1629995961602,37.401576,43.7007888,-0.298327109284,43.402461690716,30.183728,0.671082,140.689965132,146.127629348,25,5,7.624,43.402461690716,37.401576,18.119214,140.689965132,-0.671082,0,-0.223694,199.5, 7.1, 3.4,0,0,1024,1024,1024,1024,0,0,0,0,0,0,0,53,3.812,3.798,0,0,0,0,5.154,91.94,43.402461690716,37.401576,6,P-GPS,
15500,2022-08-11 20:31:23,-34.9291266876828,-56.1629995729419,37.401576,43.7335972,-0.331135509284,43.402461690716,30.183728,0.671082,140.791343088,146.242130664,25,5,7.624,43.402461690716,37.401576,18.119214,140.791343088,-0.671082,0,0,199.5, 7.8, 3.8,0,0,1024,1024,1024,1024,0,0,0,0,0,0,0,53,3.812,3.798,0,0,0,0,5.154,91.94,43.402461690716,37.401576,6,P-GPS,
15600,2022-08-11 20:31:23,-34.9291270099844,-56.1629995597758,37.72966,44.0616812,-0.331135509284,43.730545690716,30.183728,0.671082,140.89731422,146.35991282,25,5,7.624,43.730545690716,37.72966,18.119214,140.89731422,-0.671082,0,0,199.6, 8.9, 3.7,0,0,1024,1024,1024,1024,0,0,0,0,0,0,0,53,3.812,3.798,0,0,0,0,5.154,91.94,43.730545690716,37.72966,6,P-GPS,
15700,2022-08-11 20:31:23,-34.9291276148016,-56.1629996683229,37.72966,44.0616812,-0.331135509284,43.730545690716,30.183728,0.671082,141.11220924,146.58300994,25,5,7.624,43.730545690716,37.72966,18.119214,141.11220924,-0.671082,0,0,199.6, 9.5, 3.2,0,0,1024,1024,1024,1024,0,0,0,0,0,0,0,53,3.812,3.798,0,0,0,0,5.154,91.94,43.730545690716,37.72966,6,P-GPS,
15800,2022-08-11 20:31:23,-34.929127921887,-56.1629996781661,38.057744,44.3897652,-0.331135509284,44.058629690716,30.183728,0.447388,141.215883784,146.694886584,25,5,7.624,44.058629690716,38.057744,18.119214,141.215883784,-0.447388,0,0,199.7, 9.5, 2.4,0,0,1024,1024,1024,1024,0,0,0,0,0,0,0,53,3.812,3.798,0,0,0,0,5.154,91.94,44.058629690716,38.057744,6,P-GPS,
15900,2022-08-11 20:31:23,-34.9291282088058,-56.1629996914158,38.057744,44.3897652,-0.331135509284,44.058629690716,30.183728,0.447388,141.313324732,146.799873464,25,5,7.624,44.058629690716,38.057744,18.119214,141.313324732,-0.447388,0,0,199.5, 8, 2.2,0,0,1024,1024,1024,1024,0,0,0,0,0,0,0,53,3.812,3.798,0,0,0,0,5.154,91.94,44.058629690716,38.057744,6,P-GPS,
16000,2022-08-11 20:31:23,-34.9291284841301,-56.1629996828265,38.057744,44.3897652,-0.331135509284,44.058629690716,30.183728,0.447388,141.404204,146.900267168,25,5,7.615,44.058629690716,38.057744,18.119214,141.404204,-0.447388,0,0,199.6, 7.7, 2.9,0,0,1024,1024,1024,1024,0,0,0,0,0,0,0,53,3.809,3.798,0,0,0,0,5.354,91.94,44.058629690716,38.057744,6,P-GPS,
16100,2022-08-11 20:31:24,-34.929128894524,-56.1629997329413,38.385828,44.7178492,-0.331135509284,44.386713690716,30.183728,0.447388,141.547248624,147.050857724,25,5,7.615,44.386713690716,38.385828,18.119214,141.547248624,-0.447388,0,0,199.6, 8.5, 3.3,0,0,1024,1024,1024,1024,0,0,0,0,0,0,0,53,3.809,3.798,0,0,0,0,5.354,91.94,44.386713690716,38.385828,6,P-GPS,
