time(millisecond),datetime(utc),latitude,longitude,height_above_takeoff(feet),height_above_ground_at_drone_location(feet),ground_elevation_at_drone_location(feet),altitude_above_seaLevel(feet),height_sonar(feet),speed(mph),distance(feet),mileage(feet),satellites,gpslevel,voltage(v),max_altitude(feet),max_ascent(feet),max_speed(mph),max_distance(feet), xSpeed(mph), ySpeed(mph), zSpeed(mph), compass_heading(degrees), pitch(degrees), roll(degrees),isPhoto,isVideo,rc_elevator,rc_aileron,rc_throttle,rc_rudder,rc_elevator(percent),rc_aileron(percent),rc_throttle(percent),rc_rudder(percent),gimbal_heading(degrees),gimbal_pitch(degrees),gimbal_roll(degrees),battery_percent,voltageCell1,voltageCell2,voltageCell3,voltageCell4,voltageCell5,voltageCell6,current(A),battery_temperature(f),altitude(feet),ascent(feet),flycStateRaw,flycState,message
0,2025-05-02 17:01:21,-23.0602476809043,-44.3512910118876,0,0,4.681679283672,4.681679283672,0.328084,0,0,0,14,4,0,4.681679283672,0,0,0,0,0,0,321.2, -2.1, 3,0,0,364,364,364,1684,-100,-100,-100,100,343.5,0,0,100,4.319,4.317,0,0,0,0,0,78.98,4.681679283672,0,41,Motors_Started,"Error de calibración del estabilizador. Reinicia la aeronave o contacta con la Asistencia DJI (Code: 40011)"
100,2025-05-02 17:01:21,-23.0602476800086,-44.3512909806538,0,0,4.681679283672,4.681679283672,0.328084,0,0.0104901250076,0.0104901250076,14,4,0,4.681679283672,0,0,0.0104901250076,0,0,0,321.2, -2, 3.1,0,0,364,364,364,1684,-100,-100,-100,100,343.5,0,0,100,4.319,4.317,0,0,0,0,0,78.98,4.681679283672,0,41,Motors_Started,
200,2025-05-02 17:01:21,-23.0602476496186,-44.3512908845515,0,0,4.681679283672,4.681679283672,0.328084,0,0.04424376782,0.044603347884,14,4,0,4.681679283672,0,0,0.04424376782,0,0,0,321.2, -2.2, 2.9,0,0,364,364,364,1684,-100,-100,-100,100,343.5,0,0,100,4.319,4.317,0,0,0,0,0,78.98,4.681679283672,0,41,Motors_Started,
300,2025-05-02 17:01:22,-23.0602476819953,-44.3512906640566,0,0,4.681679283672,4.681679283672,0.328084,0,0.116766079852,0.119559387028,14,4,0,4.681679283672,0,0,0.116766079852,0,0,0,321.2, -2.1, 3,0,0,1024,1024,1024,1024,0,0,0,0,343.5,0,0,100,4.319,4.317,0,0,0,0,0,78.98,4.681679283672,0,41,Motors_Started,
400,2025-05-02 17:01:22,-23.0602476347965,-44.3512906440892,0,0,4.681679283672,4.681679283672,0.328084,0,0.124608927872,0.138038390244,14,4,0,4.681679283672,0,0,0.124608927872,0,0,0,321.2, -2.1, 3,0,0,1024,1024,1024,1024,0,0,0,0,343.5,0,0,100,4.319,4.317,0,0,0,0,0,78.98,4.681679283672,0,41,Motors_Started,"Setting new Return-To-Home altitude to 100m (328 ft). Data Recorder File Index is 57. Setting new Maximum Flight Altitude to 500m (1640 ft)"
500,2025-05-02 17:01:22,-23.0602475860311,-44.3512906251972,0,0,4.681679283672,4.681679283672,0.328084,0,0.134346132908,0.156926842292,14,4,0,4.681679283672,0,0,0.134346132908,0,0,0,321.2, -2.1, 2.9,0,0,1024,1024,1024,1024,0,0,0,0,343.5,0,0,100,4.319,4.317,0,0,0,0,0,78.98,4.681679283672,0,41,Motors_Started,
600,2025-05-02 17:01:22,-23.0602475824778,-44.3512905917463,0,0,4.681679283672,4.681679283672,0.328084,0,0.145539374736,0.168230648428,14,4,0,4.681679283672,0,0,0.145539374736,0,0,0,321.2, -2.2, 3,0,0,1024,1024,1024,1024,0,0,0,0,343.5,0,0,100,4.319,4.317,0,0,0,0,0,78.98,4.681679283672,0,41,Motors_Started,
700,2025-05-02 17:01:22,-23.0602475907227,-44.3512906063901,0,0,4.681679283672,4.681679283672,0.328084,0,0.140043639652,0.173993771972,14,4,0,4.681679283672,0,0,0.145539374736,0,0,0,321.2, -2.1, 3,0,0,1024,1024,1024,1024,0,0,0,0,343.5,0,0,100,4.319,4.317,0,0,0,0,0,78.98,4.681679283672,0,41,Motors_Started,
800,2025-05-02 17:01:22,-23.0602475535176,-44.351290561155,0,0,4.681679283672,4.681679283672,0.328084,0,0.158286094304,0.19436188286,14,4,0,4.681679283672,0,0,0.158286094304,0,0,0,321.2, -2.1, 3,0,0,1024,1024,1024,1024,0,0,0,0,343.5,0,0,100,4.319,4.317,0,0,0,0,0,78.98,4.681679283672,0,41,Motors_Started,
900,2025-05-02 17:01:22,-23.0602475136468,-44.3512905144126,0,0,4.681679283672,4.681679283672,0.328084,0,0.17780020254,0.215758537088,14,4,0,4.681679283672,0,0,0.17780020254,0,0,0,321.2, -2.2, 3,0,0,1024,1024,1255,1024,0,0,35,0,343.5,0,0,100,4.319,4.317,0,0,0,0,0,78.98,4.681679283672,0,41,Motors_Started,
1000,2025-05-02 17:01:22,-23.0602474604536,-44.3512905151237,0,0.032808400000005,4.648870883672,4.681679283672,0.328084,0,0.185144690964,0.235167658444,14,4,0,4.681679283672,0,0,0.185144690964,0,0,0,321.2, -2.1, 3,0,0,1024,1024,1475,1024,0,0,68,0,343.5,0,0,100,4.319,4.317,0,0,0,0,0,78.98,4.681679283672,0,41,Motors_Started,
1100,2025-05-02 17:01:22,-23.060247405181,-44.351290516319,0,0.032808400000005,4.648870883672,4.681679283672,0.328084,0,0.194410767376,0.25533793468,14,4,8.654,4.681679283672,0,0,0.194410767376,0,0,0,321.2, -2.1, 3,0,0,1024,1024,1578,1024,0,0,84,0,343.5,0,0,100,4.319,4.317,0,0,0,0,0.941,78.98,4.681679283672,0,10,Assisted_Takeoff,
1200,2025-05-02 17:01:23,-23.0602473926224,-44.3512904961945,0,0.164042,4.517637283672,4.681679283672,0.328084,0,0.202562998608,0.2635006646,14,4,8.654,4.681679283672,0,0,0.202562998608,0,0,0,321.1, -2.1, 2.9,0,0,1024,1024,1522,1024,0,0,75,0,343.5,0,0,100,4.319,4.317,0,0,0,0,0.941,78.98,4.681679283672,0,10,Assisted_Takeoff,
1300,2025-05-02 17:01:23,-23.0602473806746,-44.3512904748397,0,0.164042,4.517637283672,4.681679283672,0.328084,0,0.21095309074,0.271890756732,14,4,8.654,4.681679283672,0,0,0.21095309074,0,0,0,321.1, -2.1, 2.9,0,0,1024,1024,1449,1024,0,0,64,0,343.5,0,0,100,4.319,4.317,0,0,0,0,0.941,78.98,4.681679283672,0,10,Assisted_Takeoff,
1400,2025-05-02 17:01:23,-23.0602473430559,-44.3512904742485,0,0.164042,4.517637283672,4.681679283672,0.328084,0,0.218559062112,0.285617463208,14,4,8.654,4.681679283672,0,0,0.218559062112,0,0,0,321.1, -2.3, 2.7,0,0,1024,1024,1449,1024,0,0,64,0,343.5,0,0,100,4.319,4.317,0,0,0,0,0.941,78.98,4.681679283672,0,10,Assisted_Takeoff,
1500,2025-05-02 17:01:23,-23.0602472984984,-44.3512904746209,0,0.164042,4.517637283672,4.681679283672,0.328084,0,0.228024285512,0.301874681576,14,4,8.654,4.681679283672,0,0,0.228024285512,0,0,0,320.6, -2.4, 2.2,0,0,1024,1024,1396,1024,0,0,56,0,343.4,0,0,100,4.319,4.317,0,0,0,0,0.941,78.98,4.681679283672,0,10,Assisted_Takeoff,
1600,2025-05-02 17:01:23,-23.060247303216,-44.3512904597896,0,0.164042,4.517637283672,4.681679283672,0.328084,0,0.230951122876,0.307142726364,14,4,8.654,4.681679283672,0,0,0.230951122876,0,0,0,319.3, -3, 0.9,0,0,1024,1024,1570,1024,0,0,83,0,342.5,0,0,100,4.319,4.317,0,0,0,0,0.941,78.98,4.681679283672,0,10,Assisted_Takeoff,
1700,2025-05-02 17:01:23,-23.060247238671,-44.351290445552,0,0.164042,4.517637283672,4.681679283672,0.328084,0.223694,0.249354338688,0.33117127044,14,4,8.654,4.681679283672,0,0.223694,0.249354338688,0.223694,0,-0.223694,317.8, -3.4, 0.7,0,0,1024,1024,1645,1024,0,0,94,0,341,0,0,100,4.319,4.317,0,0,0,0,0.941,78.98,4.681679283672,0,10,Assisted_Takeoff,
1800,2025-05-02 17:01:23,-23.0602470884926,-44.3512905040762,0,0.032808400000005,4.648870883672,4.681679283672,0.328084,0.223694,0.275276255528,0.38937993372,14,4,8.654,4.681679283672,0,0.223694,0.275276255528,0.223694,0,-0.447388,317.5, -1.6, 0.1,0,0,1024,1024,1656,1024,0,0,96,0,340.3,0,0,100,4.319,4.317,0,0,0,0,0.941,78.98,4.681679283672,0,6,P-GPS,
1900,2025-05-02 17:01:23,-23.0602469075155,-44.3512905964937,0,0.032808400000005,4.648870883672,4.681679283672,0.328084,0.3131716,0.314746401148,0.4623359728,14,4,8.654,4.681679283672,0,0.3131716,0.314746401148,0.223694,-0.223694,-0.894776,317.6, 1.2, 0,0,0,1024,1024,1272,1024,0,0,38,0,340.3,0,0,100,4.319,4.317,0,0,0,0,0.941,78.98,4.681679283672,0,6,P-GPS,
2000,2025-05-02 17:01:23,-23.060246782394,-44.3512906477624,0.328084,0.36089240000001,4.648870883672,5.009763283672,0.656168,0.3131716,0.3498687776,0.5111220636,14,4,8.654,5.009763283672,0.328084,0.3131716,0.3498687776,0.223694,-0.223694,-1.342164,317.7, 1.7, -0.3,0,0,1024,1024,1024,1024,0,0,0,0,340.3,0,0,100,4.319,4.317,0,0,0,0,0.941,78.98,5.009763283672,0.328084,6,P-GPS,
2100,2025-05-02 17:01:23,-23.0602466788624,-44.3512906955592,0.328084,0.36089240000001,4.648870883672,5.009763283672,0.656168,0.223694,0.38070539276,0.55216209116,14,4,8.607,5.009763283672,0.328084,0.3131716,0.38070539276,0.223694,0,-1.565858,317.9, 1.6, 0,0,0,1024,1024,1056,1024,0,0,5,0,340.3,0,0,100,4.241,4.23,0,0,0,0,1.766,78.98,5.009763283672,0.328084,6,P-GPS,
2200,2025-05-02 17:01:23,-23.0602465502935,-44.3512907961006,0.656168,0.68897640000001,4.648870883672,5.337847283672,0.984252,0,0.4188156302,0.60995080692,14,4,8.607,5.337847283672,0.656168,0.3131716,0.4188156302,0,0,-1.565858,318, 1.5, -0.1,0,0,1024,1024,1552,1024,0,0,80,0,340.3,0,0,100,4.241,4.23,0,0,0,0,1.766,78.98,5.337847283672,0.656168,6,P-GPS,
2300,2025-05-02 17:01:24,-23.0602464339216,-44.3512908968304,0.984252,1.0826772,4.583254083672,5.665931283672,0.984252,0,0.45659778364,0.66422902388,14,4,8.607,5.665931283672,0.984252,0.3131716,0.45659778364,0,0,-1.565858,318.1, 1.6, 0.1,0,0,1024,1024,1552,1024,0,0,80,0,340.3,0,0,100,4.241,4.23,0,0,0,0,1.766,78.98,5.665931283672,0.984252,6,P-GPS,
2400,2025-05-02 17:01:24,-23.0602463953015,-44.3512911622718,0.984252,1.0826772,4.583254083672,5.665931283672,1.312336,0,0.47176182612,0.75444228136,14,4,8.607,5.665931283672,0.984252,0.3131716,0.47176182612,0,0,-1.342164,318, 1.6, -0.2,0,0,1024,1024,1451,1024,0,0,65,0,340.3,0,0,100,4.241,4.23,0,0,0,0,1.766,78.98,5.665931283672,0.984252,6,P-GPS,
2500,2025-05-02 17:01:24,-23.0602463900644,-44.351291273096,1.312336,1.4107612,4.583254083672,5.994015283672,1.64042,0,0.47905513344,0.79169621956,14,4,8.607,5.994015283672,1.312336,0.3131716,0.47905513344,0,0,-1.565858,318.1, 1.4, 0,0,0,1024,1024,1024,1024,0,0,0,0,340.3,0,0,100,4.241,4.23,0,0,0,0,1.766,78.98,5.994015283672,1.312336,6,P-GPS,"Punto de origen actualizado. Altitud de RPO establecida en 100m (Code: 30213)"
2600,2025-05-02 17:01:24,-23.0602464844816,-44.3512914562759,1.64042,1.7388452,4.583254083672,6.322099283672,1.968504,0,0.4613025082,0.86217850528,14,4,8.607,6.322099283672,1.64042,0.3131716,0.47905513344,0,0,-1.789552,318.1, 1.4, 0,0,0,1024,1024,1024,1024,0,0,0,0,340.3,0,0,100,4.241,4.23,0,0,0,0,1.766,78.98,6.322099283672,1.64042,6,P-GPS,
2700,2025-05-02 17:01:24,-23.0602466037113,-44.3512916452845,1.968504,1.8700788,4.780104483672,6.650183283672,2.296588,0,0.44684384632,0.93911092244,14,4,8.607,6.650183283672,1.968504,0.3131716,0.47905513344,0,0,-1.565858,318.2, 1.2, 0.9,0,0,1024,1024,1024,1024,0,0,0,0,340.3,0,0,100,4.241,4.23,0,0,0,0,1.766,78.98,6.650183283672,1.968504,6,P-GPS,
2800,2025-05-02 17:01:24,-23.0602468017481,-44.3512918088706,1.968504,1.8700788,4.780104483672,6.650183283672,2.296588,0,0.41769030208,1.02986223768,14,4,8.607,6.650183283672,1.968504,0.3131716,0.47905513344,0,0,-1.11847,318.2, 0.8, 1.1,0,0,1024,1024,1024,1024,0,0,0,0,340.3,0,0,100,4.241,4.23,0,0,0,0,1.766,78.98,6.650183283672,1.968504,6,P-GPS,
2900,2025-05-02 17:01:24,-23.0602473750662,-44.351292229815,2.296588,2.1981628,4.780104483672,6.978267283672,2.624672,0,0.42380578784,1.28229662896,14,4,8.607,6.978267283672,2.296588,0.3131716,0.47905513344,0,0,-0.894776,318.2, 0.5, 1.4,0,0,1024,1024,1024,1677,0,0,0,99,340.3,0,0,100,4.241,4.23,0,0,0,0,1.766,78.98,6.978267283672,2.296588,6,P-GPS,
3000,2025-05-02 17:01:24,-23.060247403323,-44.3512922706082,2.296588,2.1981628,4.780104483672,6.978267283672,2.624672,0,0.4345144496,1.29943573712,14,4,8.607,6.978267283672,2.296588,0.3131716,0.47905513344,0,0,-0.447388,318.2, 0.3, 1.3,0,0,1024,1024,1024,1684,0,0,0,100,340.6,0,0,100,4.241,4.23,0,0,0,0,1.766,78.98,6.978267283672,2.296588,6,P-GPS,
3100,2025-05-02 17:01:24,-23.0602474277594,-44.3512923043728,2.296588,2.1981628,4.780104483672,6.978267283672,2.624672,0,0.4436023764,1.31385830976,14,4,8.607,6.978267283672,2.296588,0.3131716,0.47905513344,0,0,0,319.2, 0.1, 1.2,0,0,1024,1024,1024,1684,0,0,0,100,343.3,0,0,100,4.241,4.23,0,0,0,0,1.766,78.98,6.978267283672,2.296588,6,P-GPS,
3200,2025-05-02 17:01:25,-23.0602475263242,-44.351292294087,2.296588,2.132546,4.845721283672,6.978267283672,2.624672,0,0.43410762544,1.349983639,14,4,8.463,6.978267283672,2.296588,0.3131716,0.47905513344,0,0,0,322.8, 0, 1.1,0,0,1024,1024,1024,1684,0,0,0,100,347.8,0,0,100,4.247,4.248,0,0,0,0,4.444,79.16,6.978267283672,2.296588,6,P-GPS,
3300,2025-05-02 17:01:25,-23.0602475059279,-44.3512920465408,2.296588,2.132546,4.845721283672,6.978267283672,2.624672,0,0.35314633676,1.43341868104,14,4,8.463,6.978267283672,2.296588,0.3131716,0.47905513344,0,0,0,327.1, 0.1, 0.9,0,0,1024,1024,1024,1684,0,0,0,100,352.6,0,0,100,4.247,4.248,0,0,0,0,4.444,79.16,6.978267283672,2.296588,6,P-GPS,
3400,2025-05-02 17:01:25,-23.0602473202511,-44.3512919392653,2.296588,2.1981628,4.780104483672,6.978267283672,2.624672,0,0.33798229428,1.5101378436,14,4,8.463,6.978267283672,2.296588,0.3131716,0.47905513344,0,0,0,331.7, 0, 0.8,0,0,1024,1024,1024,1684,0,0,0,100,357.4,0,0,100,4.247,4.248,0,0,0,0,4.444,79.16,6.978267283672,2.296588,6,P-GPS,
3500,2025-05-02 17:01:25,-23.0602471244943,-44.351291827524,1.968504,1.8700788,4.780104483672,6.650183283672,2.624672,0,0.34085302928,1.59081041836,14,4,8.463,6.978267283672,2.296588,0.3131716,0.47905513344,0,0,0,336.2, 0, 0.8,0,0,1024,1024,1067,1684,0,0,7,100,2.1,0,0,100,4.247,4.248,0,0,0,0,4.444,79.16,6.650183283672,1.968504,6,P-GPS,
3600,2025-05-02 17:01:25,-23.060247122646,-44.3512917100762,1.968504,1.8700788,4.780104483672,6.650183283672,2.624672,0,0.310514117548,1.63024283432,14,4,8.463,6.978267283672,2.296588,0.3131716,0.47905513344,0,0,0,340.8, -0.1, 0.8,0,0,1024,1024,1180,1684,0,0,24,100,6.9,0,0,100,4.247,4.248,0,0,0,0,4.444,79.16,6.650183283672,1.968504,6,P-GPS,
3700,2025-05-02 17:01:25,-23.0602467202558,-44.3512912093645,1.968504,2.0013124,4.648870883672,6.650183283672,2.624672,0,0.35670604816,1.85341869448,14,4,8.463,6.978267283672,2.296588,0.3131716,0.47905513344,0,0,0,345.3, 0, 0.8,0,0,1024,1024,1192,1684,0,0,25,100,11.7,0,0,100,4.247,4.248,0,0,0,0,4.444,79.16,6.650183283672,1.968504,6,P-GPS,
3800,2025-05-02 17:01:25,-23.0602466336991,-44.3512911256668,2.296588,2.3293964,4.648870883672,6.978267283672,2.624672,0,0.38397639024,1.89568903704,14,4,8.463,6.978267283672,2.296588,0.3131716,0.47905513344,0,0,-0.223694,349.9, -0.1, 0.8,0,0,1024,1024,1192,1684,0,0,25,100,16.5,0,0,100,4.247,4.248,0,0,0,0,4.444,79.16,6.978267283672,2.296588,6,P-GPS,
3900,2025-05-02 17:01:25,-23.0602465414006,-44.3512910383844,2.296588,2.3293964,4.648870883672,6.978267283672,2.624672,0,0.41584318916,1.94032486524,14,4,8.463,6.978267283672,2.296588,0.3131716,0.47905513344,0,0,-0.447388,354.4, 0, 0.6,0,0,1024,1024,1099,1684,0,0,11,100,21.3,0,0,100,4.247,4.248,0,0,0,0,4.444,79.16,6.978267283672,2.296588,6,P-GPS,
4000,2025-05-02 17:01:25,-23.0602465192456,-44.3512910346902,2.296588,2.3293964,4.648870883672,6.978267283672,2.624672,0,0.4239009322,1.94850399936,14,4,8.463,6.978267283672,2.296588,0.3131716,0.47905513344,0,0,-0.671082,359, -0.1, 0.4,0,0,1024,1024,1024,1684,0,0,0,100,26.1,0,0,100,4.247,4.248,0,0,0,0,4.444,79.16,6.978267283672,2.296588,6,P-GPS,
4100,2025-05-02 17:01:25,-23.0602463966205,-44.3512910893621,2.296588,2.3950132,4.583254083672,6.978267283672,2.952756,0,0.4692913536,1.99686030012,14,4,8.463,6.978267283672,2.296588,0.3131716,0.47905513344,0,0,-0.447388,3.6, 0, 0.3,0,0,1024,1024,1265,1684,0,0,37,100,30.9,0,0,100,4.247,4.248,0,0,0,0,4.444,79.16,6.978267283672,2.296588,6,P-GPS,
4200,2025-05-02 17:01:26,-23.0602464124408,-44.351291082032,2.296588,2.3950132,4.583254083672,6.978267283672,2.952756,0,0.46339568412,2.00313654704,14,4,8.463,6.978267283672,2.296588,0.3131716,0.47905513344,0,0,-0.223694,8.2, -0.1, 0.1,0,0,1024,1024,1265,1684,0,0,37,100,35.7,0,0,100,4.247,4.248,0,0,0,0,4.444,79.16,6.978267283672,2.296588,6,P-GPS,
4300,2025-05-02 17:01:26,-23.0602464304579,-44.3512910781947,2.296588,2.3950132,4.583254083672,6.978267283672,2.952756,0,0.45676838732,2.00983602232,14,4,8.463,6.978267283672,2.296588,0.3131716,0.47905513344,0,0,-0.223694,12.8, -0.1, 0.1,0,0,1024,1024,1454,1684,0,0,65,100,40.5,0,0,100,4.247,4.248,0,0,0,0,4.444,79.16,6.978267283672,2.296588,6,P-GPS,
4400,2025-05-02 17:01:26,-23.0602465041499,-44.3512910253455,2.624672,2.6574804,4.648870883672,7.306351283672,2.952756,0,0.4293635308,2.04204730944,14,4,8.468,7.306351283672,2.624672,0.3131716,0.47905513344,0,0,-0.671082,17.5, -0.3, 0.2,0,0,1024,1024,1283,1684,0,0,39,100,45.3,0,0,100,4.215,4.227,0,0,0,0,3.728,79.16,7.306351283672,2.624672,6,P-GPS,
4500,2025-05-02 17:01:26,-23.0602465763486,-44.3512909731783,2.624672,2.6574804,4.648870883672,7.306351283672,3.28084,0,0.40320539348,2.07367788788,14,4,8.468,7.306351283672,2.624672,0.3131716,0.47905513344,0,0,-1.11847,22.2, -0.4, 0,0,0,1024,1024,1114,1684,0,0,14,100,50.1,0,0,100,4.215,4.227,0,0,0,0,3.728,79.16,7.306351283672,2.624672,6,P-GPS,
4600,2025-05-02 17:01:26,-23.0602467884697,-44.3512909509192,2.952756,2.9855644,4.648870883672,7.634435283672,3.28084,0,0.3262467296,2.15143051504,14,4,8.468,7.634435283672,2.952756,0.3131716,0.47905513344,0,0,-1.11847,27, -0.1, 0.1,0,0,1024,1024,1024,1684,0,0,0,100,54.9,0,0,100,4.215,4.227,0,0,0,0,3.728,79.16,7.634435283672,2.952756,6,P-GPS,
4700,2025-05-02 17:01:26,-23.060247009715,-44.3512909329536,2.952756,2.9855644,4.648870883672,7.634435283672,3.608924,0,0.24631234384,2.23237868036,14,4,8.468,7.634435283672,2.952756,0.3131716,0.47905513344,0,0,-0.671082,31.7, -0.1, 0.2,0,0,1222,1024,1024,1610,30,0,0,89,59.7,0,0,100,4.215,4.227,0,0,0,0,3.728,79.16,7.634435283672,2.952756,6,P-GPS,
4800,2025-05-02 17:01:26,-23.060247081518,-44.3512909783866,2.952756,2.9855644,4.648870883672,7.634435283672,3.608924,0,0.21897474454,2.26269036112,14,4,8.468,7.634435283672,2.952756,0.3131716,0.47905513344,0,0,-0.447388,36.4, -0.3, 0.2,0,0,1684,1024,1024,1358,100,0,0,51,64.5,0,0,100,4.215,4.227,0,0,0,0,3.728,79.16,7.634435283672,2.952756,6,P-GPS,
4900,2025-05-02 17:01:26,-23.0602471459669,-44.3512910257319,2.952756,2.9855644,4.648870883672,7.634435283672,3.608924,0,0.195227040368,2.29107290796,14,4,8.468,7.634435283672,2.952756,0.3131716,0.47905513344,0,0,-0.223694,40.9, -3.8, 0,0,0,1684,1024,1024,1127,100,0,0,16,68.4,0,0,100,4.215,4.227,0,0,0,0,3.728,79.16,7.634435283672,2.952756,6,P-GPS,
5000,2025-05-02 17:01:26,-23.0602470695978,-44.3512909427767,2.952756,2.9855644,4.648870883672,7.634435283672,3.937008,0,0.224238196152,2.33046595384,14,4,8.468,7.634435283672,2.952756,0.3131716,0.47905513344,0,0,0,44, -13.3, -0.6,0,0,1684,1024,1024,1024,100,0,0,0,70.4,0,0,100,4.215,4.227,0,0,0,0,3.728,79.16,7.634435283672,2.952756,6,P-GPS,
5100,2025-05-02 17:01:26,-23.0602469023468,-44.351290737205,2.952756,2.9855644,4.648870883672,7.634435283672,3.937008,0.6263432,0.298647975436,2.42258537936,14,4,8.468,7.634435283672,2.952756,0.6263432,0.47905513344,0.447388,0.447388,0,45.5, -17.4, -0.5,0,0,1684,1024,1024,1024,100,0,0,0,71.1,0,0,100,4.215,4.227,0,0,0,0,3.728,79.16,7.634435283672,2.952756,6,P-GPS,
5200,2025-05-02 17:01:27,-23.0602466882927,-44.3512904072419,2.952756,3.116798,4.517637283672,7.634435283672,3.937008,1.2750558,0.4151574936,2.55811687976,14,4,8.468,7.634435283672,2.952756,1.2750558,0.47905513344,0.894776,0.894776,0,45.9, -17.8, -0.1,0,0,1684,1024,1024,1024,100,0,0,0,71.4,0,0,100,4.215,4.227,0,0,0,0,3.728,79.16,7.634435283672,2.952756,6,P-GPS,
5300,2025-05-02 17:01:27,-23.0602462805287,-44.3512898608551,2.952756,3.1824148,4.452020483672,7.634435283672,4.265092,1.901399,0.64058401,2.79428486632,14,4,8.468,7.634435283672,2.952756,1.901399,0.64058401,1.342164,1.342164,0,46, -17.1, 0,0,0,1684,1024,1024,1024,100,0,0,0,71.5,0,0,100,4.215,4.227,0,0,0,0,3.728,79.16,7.634435283672,2.952756,6,P-GPS,
5400,2025-05-02 17:01:27,-23.0602460769569,-44.3512892139758,3.28084,3.6417324,4.320786883672,7.962519283672,3.937008,2.684328,0.84067259908,3.02378946684,14,4,8.439,7.962519283672,3.28084,2.684328,0.84067259908,1.789552,2.013246,0,46.1, -16.5, 0,0,0,1684,1024,1024,1024,100,0,0,0,71.5,0,0,100,4.227,4.216,0,0,0,0,4.343,79.34,7.962519283672,3.28084,6,P-GPS,
5500,2025-05-02 17:01:27,-23.0602453725637,-44.3512882926828,3.28084,3.8385828,4.123936483672,7.962519283672,3.937008,3.3330406,1.24199150956,3.4259187448,14,4,8.439,7.962519283672,3.28084,3.3330406,1.24199150956,2.23694,2.460634,0,46.1, -16.2, -0.2,0,0,1684,1024,1024,1024,100,0,0,0,71.5,0,0,100,4.227,4.216,0,0,0,0,4.343,79.34,7.962519283672,3.28084,6,P-GPS,
5600,2025-05-02 17:01:27,-23.0602443933983,-44.3512871705435,3.28084,4.0354332,3.927086083672,7.962519283672,3.937008,3.9593838,1.76111882276,3.9450788664,14,4,8.439,7.962519283672,3.28084,3.9593838,1.76111882276,2.684328,2.908022,0,46.2, -15.8, -0.2,0,0,1684,1024,1024,1024,100,0,0,0,71.5,0,0,100,4.227,4.216,0,0,0,0,4.343,79.34,7.962519283672,3.28084,6,P-GPS,
5700,2025-05-02 17:01:27,-23.0602432162971,-44.3512858288764,3.28084,4.2322836,3.730235683672,7.962519283672,3.937008,4.4291412,2.38340886892,4.5673885976,14,4,8.439,7.962519283672,3.28084,4.4291412,2.38340886892,3.131716,3.131716,0,46.3, -15.5, -0.2,0,0,1684,1024,1024,1024,100,0,0,0,71.5,0,0,100,4.227,4.216,0,0,0,0,4.343,79.34,7.962519283672,3.28084,6,P-GPS,
5800,2025-05-02 17:01:27,-23.0602415740585,-44.351284069582,2.952756,4.265092,3.369343283672,7.634435283672,3.937008,4.8988986,3.22421598244,5.4086943988,14,4,8.439,7.962519283672,3.28084,4.8988986,3.22421598244,3.35541,3.579104,0,46.3, -15.4, -0.2,0,0,1684,1024,1284,1207,100,0,39,28,71.5,0,0,100,4.227,4.216,0,0,0,0,4.343,79.34,7.634435283672,2.952756,6,P-GPS,
5900,2025-05-02 17:01:27,-23.0602400757679,-44.3512823540272,2.952756,4.6259844,3.008450883672,7.634435283672,3.608924,5.368656,4.0182415984,6.2027232956,14,4,8.439,7.962519283672,3.28084,5.368656,4.0182415984,3.802798,3.802798,0,46.3, -15.5, -0.3,0,0,1684,1024,1684,1106,100,0,100,12,71.5,0,0,100,4.227,4.216,0,0,0,0,4.343,79.34,7.634435283672,2.952756,6,P-GPS,
6000,2025-05-02 17:01:27,-23.0602384251184,-44.3512805546897,2.952756,4.8884516,2.745983683672,7.634435283672,3.608924,5.704197,4.8710303396,7.0557088872,14,4,8.439,7.962519283672,3.28084,5.704197,4.8710303396,4.026492,4.026492,0,46.3, -15.3, -0.1,0,0,1684,1024,1684,1090,100,0,100,10,71.8,0,0,100,4.227,4.216,0,0,0,0,4.343,79.34,7.634435283672,2.952756,6,P-GPS,
6100,2025-05-02 17:01:27,-23.0602365484116,-44.3512784987818,3.28084,5.7086616,2.253857683672,7.962519283672,3.937008,6.3305402,5.8431432316,8.027887396,14,4,8.439,7.962519283672,3.28084,6.3305402,5.8431432316,4.47388,4.47388,-0.671082,46.7, -14.8, -0.2,0,0,1684,1024,1684,1090,100,0,100,10,72,0,0,100,4.227,4.216,0,0,0,0,4.343,79.34,7.962519283672,3.28084,6,P-GPS,
6200,2025-05-02 17:01:28,-23.0602346337491,-44.3512764523665,3.28084,6.1023624,1.860156883672,7.962519283672,3.937008,6.8002976,6.8226380136,9.0076446452,14,4,8.439,7.962519283672,3.28084,6.8002976,6.8226380136,4.697574,4.921268,-1.342164,46.8, -14.3, -0.2,0,0,1684,1024,1684,1109,100,0,100,13,72.2,0,0,100,4.227,4.216,0,0,0,0,4.343,79.34,7.962519283672,3.28084,6,P-GPS,
6300,2025-05-02 17:01:28,-23.0602320960243,-44.3512740792375,3.608924,6.8569556,1.433647683672,8.290603283672,3.937008,7.270055,8.0400593124,10.2291013772,14,4,8.439,8.290603283672,3.608924,7.270055,8.0400593124,5.144962,5.144962,-2.23694,47, -13.8, 0,0,0,1684,1024,1684,1119,100,0,100,14,72.3,0,0,100,4.227,4.216,0,0,0,0,4.343,79.34,8.290603283672,3.608924,6,P-GPS,
6400,2025-05-02 17:01:28,-23.0602299988522,-44.3512717109806,4.265092,7.9068244,1.039946883672,8.946771283672,4.265092,7.7621818,9.1432745708,11.3324806776,14,4,8.427,8.946771283672,4.265092,7.7621818,9.1432745708,5.368656,5.59235,-3.131716,47.1, -13.2, -0.2,0,0,1684,1024,1684,1121,100,0,100,15,72.4,0,0,99,4.161,4.155,0,0,0,0,4.232,79.34,8.946771283672,4.265092,6,P-GPS,
6500,2025-05-02 17:01:28,-23.0602276825144,-44.3512690911871,4.593176,8.7598428,0.51501248367199,9.274855283672,4.92126,8.0753534,10.3627956072,12.5521985644,14,4,8.427,9.274855283672,4.593176,8.0753534,10.3627956072,5.59235,5.816044,-4.026492,47.3, -13.2, 0.1,0,0,1684,1024,1684,1120,100,0,100,15,72.5,0,0,99,4.161,4.155,0,0,0,0,4.232,79.34,9.274855283672,4.593176,6,P-GPS,
6600,2025-05-02 17:01:28,-23.0602251035932,-44.3512664400457,5.249344,10.006562,-0.075538716328006,9.931023283672,5.905512,8.5451108,11.6573494544,13.8473101544,14,4,8.427,9.931023283672,5.249344,8.5451108,11.6573494544,6.039738,6.039738,-4.921268,47.5, -13.3, 0.3,0,0,1684,1024,1684,1120,100,0,100,15,72.7,0,0,99,4.161,4.155,0,0,0,0,4.232,79.34,9.931023283672,5.249344,6,P-GPS,
6700,2025-05-02 17:01:28,-23.0602219617385,-44.3512634828286,6.233596,11.5813652,-0.66608991632801,10.915275283672,6.56168,8.8582824,13.1702432036,15.3637472108,14,4,8.427,10.915275283672,6.233596,8.8582824,13.1702432036,6.263432,6.263432,-5.59235,47.7, -13.5, 0,0,0,1684,1024,1684,1119,100,0,100,14,72.9,0,0,99,4.161,4.155,0,0,0,0,4.232,79.34,10.915275283672,6.233596,6,P-GPS,
6800,2025-05-02 17:01:28,-23.0602192835702,-44.3512606598179,7.217848,13.0249348,-1.125407516328,11.899527283672,7.545932,9.3280398,14.5313981028,16.7249349184,14,4,8.427,11.899527283672,7.217848,9.3280398,14.5313981028,6.487126,6.71082,-6.039738,47.8, -13.4, 0.1,0,0,1684,1024,1684,1119,100,0,100,14,73,0,0,99,4.161,4.155,0,0,0,0,4.232,79.34,11.899527283672,7.217848,6,P-GPS,
6900,2025-05-02 17:01:28,-23.060216395261,-44.3512575782826,7.874016,14.271654,-1.715958716328,12.555695283672,7.874016,9.4846256,16.0081041868,18.201608194,14,4,8.427,12.555695283672,7.874016,9.4846256,16.0081041868,6.934514,6.487126,-6.263432,45.3, -12.9, 0,0,0,1684,1024,1684,1120,100,0,100,15,73.2,0,0,99,4.161,4.155,0,0,0,0,4.232,79.34,12.555695283672,7.874016,6,P-GPS,
7000,2025-05-02 17:01:28,-23.0602135051377,-44.3512544963517,8.858268,15.9448824,-2.404935116328,13.539947283672,13.451444,9.4846256,17.4853352052,19.6788720208,14,4,8.427,13.539947283672,8.858268,9.4846256,17.4853352052,7.158208,6.71082,-6.487126,45.6, -13.5, 0,0,0,1684,1024,1684,1120,100,0,100,15,73.3,0,0,99,4.161,4.155,0,0,0,0,4.232,79.34,13.539947283672,8.858268,6,P-GPS,
7100,2025-05-02 17:01:28,-23.060210065408,-44.3512513590715,10.170604,17.880578,-3.028294716328,14.852283283672,14.435696,9.8201666,19.1190622916,21.3172250916,14,4,8.427,14.852283283672,10.170604,9.8201666,19.1190622916,7.158208,6.71082,-6.487126,45.7, -14.1, 0,0,0,1684,1024,1684,1120,100,0,100,15,73.5,0,0,99,4.161,4.155,0,0,0,0,4.232,79.34,14.852283283672,10.170604,6,P-GPS,
7200,2025-05-02 17:01:28,-23.0602070444945,-44.3512482327038,11.154856,19.4553812,-3.618845916328,15.836535283672,15.419948,9.9767524,20.640912734,22.8391411508,14,4,8.427,15.836535283672,11.154856,9.9767524,20.640912734,7.158208,6.934514,-6.487126,45.9, -15.2, 0,0,0,1684,1024,1684,1120,100,0,100,15,73.6,0,0,99,4.161,4.155,0,0,0,0,4.232,79.34,15.836535283672,11.154856,6,P-GPS,
7300,2025-05-02 17:01:29,-23.060203799657,-44.3512448598461,12.139108,21.0629928,-4.242205516328,16.820787283672,16.4042,10.1333382,22.279036146,24.4772973712,14,4,8.427,16.820787283672,12.139108,10.1333382,22.279036146,7.381902,6.934514,-6.487126,46, -15.6, 0.4,0,0,1684,1024,1684,1120,100,0,100,15,73.8,0,0,99,4.161,4.155,0,0,0,0,4.232,79.34,16.820787283672,12.139108,6,P-GPS,
7400,2025-05-02 17:01:29,-23.0602002653408,-44.351241417775,13.12336,22.8346464,-5.029607116328,17.805039283672,17.388452,10.6030956,24.0093183536,26.2087606812,14,4,8.256,17.805039283672,13.12336,10.6030956,24.0093183536,7.605596,7.381902,-6.487126,46.1, -15.6, 0.7,0,0,1684,1024,1684,1120,100,0,100,15,73.9,0,0,99,4.163,4.154,0,0,0,0,6.252,79.34,17.805039283672,13.12336,6,P-GPS,
7500,2025-05-02 17:01:29,-23.0601957522581,-44.351237622333,14.107612,24.4750664,-5.685775116328,18.789291283672,18.372704,10.9162672,26.08021737,28.2907489368,14,4,8.256,18.789291283672,14.107612,10.9162672,26.08021737,7.82929,7.605596,-6.487126,46.1, -15.2, 0,0,0,1684,1024,1684,1121,100,0,100,15,74.1,0,0,99,4.163,4.154,0,0,0,0,6.252,79.34,18.789291283672,14.107612,6,P-GPS,
7600,2025-05-02 17:01:29,-23.0601923379191,-44.3512340145262,15.419948,26.574804,-6.473176716328,20.101627283672,19.356956,11.2294388,27.8174877668,30.0281505672,14,4,8.256,20.101627283672,15.419948,11.2294388,27.8174877668,8.052984,7.82929,-6.487126,46.2, -14.9, 0.3,0,0,1684,1024,1684,1122,100,0,100,15,74.2,0,0,99,4.163,4.154,0,0,0,0,6.252,79.34,20.101627283672,15.419948,6,P-GPS,
7700,2025-05-02 17:01:29,-23.0601886963796,-44.3512301463001,16.4042,28.3136492,-7.227769916328,21.085879283672,20.341208,11.2294388,29.6750665664,31.8859590256,14,4,8.256,21.085879283672,16.4042,11.2294388,29.6750665664,8.052984,7.82929,-6.487126,46.3, -15.4, 0.5,0,0,1684,1024,1684,1122,100,0,100,15,74.4,0,0,99,4.163,4.154,0,0,0,0,6.252,79.34,21.085879283672,16.4042,6,P-GPS,
7800,2025-05-02 17:01:29,-23.0601851924306,-44.351226414238,17.388452,30.0853028,-8.015171516328,22.070131283672,21.32546,11.5426104,31.4648304032,33.675854096,14,4,8.256,22.070131283672,17.388452,11.5426104,31.4648304032,8.276678,8.052984,-6.487126,46.5, -15.5, 0.6,0,0,1684,1024,1684,1123,100,0,100,15,74.5,0,0,99,4.163,4.154,0,0,0,0,6.252,79.34,22.070131283672,17.388452,6,P-GPS,
7900,2025-05-02 17:01:29,-23.0601814415378,-44.3512224035304,18.372704,31.8569564,-8.802573116328,23.054383283672,21.981628,11.855782,33.38418742,35.595801664,14,4,8.256,23.054383283672,18.372704,11.855782,33.38418742,8.500372,8.276678,-6.487126,46.6, -15.4, 0.6,0,0,1684,1024,1684,1122,100,0,100,15,74.7,0,0,99,4.163,4.154,0,0,0,0,6.252,79.34,23.054383283672,18.372704,6,P-GPS,
8000,2025-05-02 17:01:29,-23.0601780380573,-44.3512184248386,19.356956,33.5958016,-9.557166316328,24.038635283672,22.96588,12.0123678,35.204725536,37.419292536,14,4,8.256,24.038635283672,19.356956,12.0123678,35.204725536,8.500372,8.500372,-6.487126,46.8, -15.3, 0.6,0,0,1684,1024,1684,1122,100,0,100,15,74.9,0,0,99,4.163,4.154,0,0,0,0,6.252,79.34,24.038635283672,19.356956,6,P-GPS,
8100,2025-05-02 17:01:29,-23.0601744002307,-44.35121416218,20.341208,35.3674552,-10.344567916328,25.022887283672,23.622048,12.5044946,37.153544496,39.371064252,14,4,8.256,25.022887283672,20.341208,12.5044946,37.153544496,8.94776,8.724066,-6.487126,47, -15.2, 0.5,0,0,1684,1024,1684,1122,100,0,100,15,75,0,0,99,4.163,4.154,0,0,0,0,6.252,79.34,25.022887283672,20.341208,6,P-GPS,
8200,2025-05-02 17:01:30,-23.0601704472024,-44.3512100842237,21.32546,37.1719172,-11.164777916328,26.007139283672,24.6063,12.6610804,39.141733536,41.359581376,14,4,8.256,26.007139283672,21.32546,12.6610804,39.141733536,8.94776,8.94776,-6.487126,47.4, -14.9, 0.8,0,0,1684,1024,1684,1122,100,0,100,15,75.2,0,0,99,4.163,4.154,0,0,0,0,6.252,79.34,26.007139283672,21.32546,6,P-GPS,
8300,2025-05-02 17:01:30,-23.0601662341963,-44.3512057237438,22.309712,38.9763792,-11.984987916328,26.991391283672,25.590552,12.8176662,41.264437016,43.482284856,14,4,8.256,26.991391283672,22.309712,12.8176662,41.264437016,9.171454,8.94776,-6.487126,47.4, -14.8, 0.6,0,0,1684,1024,1684,1122,100,0,100,15,75.3,0,0,99,4.163,4.154,0,0,0,0,6.252,79.34,26.991391283672,22.309712,6,P-GPS,
8400,2025-05-02 17:01:30,-23.0601622451925,-44.3512014900145,23.293964,40.9120748,-12.936431516328,27.975643283672,26.24672,12.974252,43.298557816,45.516405656,14,4,8.3,27.975643283672,23.293964,12.974252,43.298557816,9.171454,9.171454,-6.487126,47.4, -14.7, 0.5,0,0,1684,1024,1684,1122,100,0,100,15,75.5,0,0,99,4.155,4.144,0,0,0,0,5.998,79.34,27.975643283672,23.293964,6,P-GPS,
8500,2025-05-02 17:01:30,-23.0601581942296,-44.3511969973742,24.278216,42.6837284,-13.723833116328,28.959895283672,27.230972,13.1308378,45.409450272,47.62795428,14,4,8.3,28.959895283672,24.278216,13.1308378,45.409450272,9.171454,9.395148,-6.487126,47.7, -14.7, 0.6,0,0,1684,1024,1684,1122,100,0,100,15,75.6,0,0,99,4.155,4.144,0,0,0,0,5.998,79.34,28.959895283672,24.278216,6,P-GPS,
8600,2025-05-02 17:01:30,-23.0601544130282,-44.3511927504512,25.262468,44.4881904,-14.544043116328,29.944147283672,28.215224,13.4440094,47.392389968,49.611878228,14,4,8.3,29.944147283672,25.262468,13.4440094,47.392389968,9.395148,9.618842,-6.487126,47.9, -14.7, 0.5,0,0,1684,1024,1684,1122,100,0,100,15,75.8,0,0,99,4.155,4.144,0,0,0,0,5.998,79.34,29.944147283672,25.262468,6,P-GPS,
8700,2025-05-02 17:01:30,-23.0601504020665,-44.3511882260512,26.24672,46.423886,-15.495486716328,30.928399283672,29.199476,13.4440094,49.500329668,51.721130264,14,4,8.3,30.928399283672,26.24672,13.4440094,49.500329668,9.395148,9.618842,-6.487126,48, -14.9, 0.2,0,0,1684,1024,1684,1122,100,0,100,15,76,0,0,99,4.155,4.144,0,0,0,0,5.998,79.34,30.928399283672,26.24672,6,P-GPS,
8800,2025-05-02 17:01:30,-23.060147089655,-44.3511840953388,27.230972,48.1627312,-16.250079916328,31.912651283672,30.183728,13.6005952,51.33366306,53.560369168,14,4,8.3,31.912651283672,27.230972,13.6005952,51.33366306,9.395148,9.842536,-6.487126,48.2, -14.9, 0.1,0,0,1684,1024,1684,1122,100,0,100,15,76.1,0,0,99,4.155,4.144,0,0,0,0,5.998,79.34,31.912651283672,27.230972,6,P-GPS,
8900,2025-05-02 17:01:30,-23.0601430848553,-44.3511794472887,28.215224,50.0984268,-17.201523516328,32.896903283672,30.839896,13.9137668,53.469161816,55.698164512,14,4,8.3,32.896903283672,28.215224,13.9137668,53.469161816,9.618842,10.06623,-6.487126,48.3, -14.9, 0.1,0,0,1684,1024,1684,1122,100,0,100,15,76.3,0,0,99,4.155,4.144,0,0,0,0,5.998,79.34,32.896903283672,28.215224,6,P-GPS,
9000,2025-05-02 17:01:30,-23.0601392421443,-44.3511749643039,29.199476,51.9028888,-18.021733516328,33.881155283672,31.824148,13.9137668,55.523951908,57.754923108,14,4,8.3,33.881155283672,29.199476,13.9137668,55.523951908,9.618842,10.06623,-6.487126,48.4, -14.9, 0.1,0,0,1684,1024,1684,1122,100,0,100,15,76.4,0,0,99,4.155,4.144,0,0,0,0,5.998,79.34,33.881155283672,29.199476,6,P-GPS,
9100,2025-05-02 17:01:30,-23.0601351628139,-44.3511702057323,30.183728,53.8713928,-19.005985516328,34.865407283672,32.8084,14.2493078,57.705382424,59.938322128,14,4,8.3,34.865407283672,30.183728,14.2493078,57.705382424,9.842536,10.289924,-6.487126,48.7, -15.3, 0.3,0,0,1684,1024,1684,1122,100,0,100,15,76.6,0,0,99,4.155,4.144,0,0,0,0,5.998,79.34,34.865407283672,30.183728,6,P-GPS,
9200,2025-05-02 17:01:31,-23.0601315813315,-44.3511659590234,31.16798,55.610238,-19.760578716328,35.849659283672,33.792652,14.2493078,59.637141016,61.872049224,14,4,8.3,35.849659283672,31.16798,14.2493078,59.637141016,9.842536,10.289924,-6.487126,48.9, -15.3, 0.4,0,0,1684,1024,1684,1122,100,0,100,15,76.7,0,0,99,4.155,4.144,0,0,0,0,5.998,79.34,35.849659283672,31.16798,6,P-GPS,
9300,2025-05-02 17:01:31,-23.0601274742264,-44.3511612095207,32.152232,57.6115504,-20.777639116328,36.833911283672,34.776904,14.5624794,61.823820876,64.06004142,14,4,8.3,36.833911283672,32.152232,14.5624794,61.823820876,10.06623,10.513618,-6.487126,48.9, -15, 0.2,0,0,1684,1024,1684,1130,100,0,100,16,76.9,0,0,99,4.155,4.144,0,0,0,0,5.998,79.34,36.833911283672,32.152232,6,P-GPS,
9400,2025-05-02 17:01:31,-23.0601233278692,-44.3511563330532,33.136484,59.5800544,-21.761891116328,37.818163283672,35.761156,14.7190652,64.050855068,66.289044116,14,4,8.3,37.818163283672,33.136484,14.7190652,64.050855068,10.06623,10.737312,-6.487126,49, -14.7, 0.2,0,0,1684,1024,1684,1129,100,0,100,16,77,0,0,99,4.155,4.144,0,0,0,0,5.998,79.34,37.818163283672,33.136484,6,P-GPS,
9500,2025-05-02 17:01:31,-23.0601189395904,-44.351151161753,34.120736,61.51575,-22.713334716328,38.802415283672,36.745408,14.7190652,66.410107112,68.650592748,14,4,8.291,38.802415283672,34.120736,14.7190652,66.410107112,10.06623,10.737312,-6.71082,49.3, -14.4, 0.1,0,0,1684,1024,1684,1127,100,0,100,16,77.2,0,0,99,4.145,4.139,0,0,0,0,6.023,79.34,38.802415283672,34.120736,6,P-GPS,
9600,2025-05-02 17:01:31,-23.060114779359,-44.3511462926971,35.104988,63.484254,-23.697586716328,39.786667283672,37.72966,14.875651,68.639437892,70.881235864,14,4,8.291,39.786667283672,35.104988,14.875651,68.639437892,10.289924,10.737312,-6.71082,49.6, -14.8, 0.3,0,0,1684,1024,1684,1127,100,0,100,16,77.4,0,0,99,4.145,4.139,0,0,0,0,6.023,79.34,39.786667283672,35.104988,6,P-GPS,
9700,2025-05-02 17:01:31,-23.0601100983251,-44.3511408098881,36.08924,65.4855664,-24.714647116328,40.770919283672,38.713912,14.875651,71.148624324,73.392062716,14,4,8.291,40.770919283672,36.08924,14.875651,71.148624324,10.289924,10.737312,-6.487126,49.7, -14.9, 0.5,0,0,1684,1024,1684,1127,100,0,100,16,77.6,0,0,99,4.145,4.139,0,0,0,0,6.023,79.34,40.770919283672,36.08924,6,P-GPS,
9800,2025-05-02 17:01:31,-23.060105900483,-44.351135997592,37.073492,67.4540704,-25.698899116328,41.755171283672,39.698164,15.0322368,73.374018096,75.618112656,14,4,8.291,41.755171283672,37.073492,15.0322368,73.374018096,10.289924,10.961006,-6.487126,49.8, -15, 0.8,0,0,1684,1024,1684,1127,100,0,100,16,77.7,0,0,99,4.145,4.139,0,0,0,0,6.023,79.34,41.755171283672,37.073492,6,P-GPS,
9900,2025-05-02 17:01:31,-23.0601014694348,-44.3511308925209,38.057744,69.4881912,-26.748767916328,42.739423283672,40.682416,15.0322368,75.729333132,77.97408386,14,4,8.291,42.739423283672,38.057744,15.0322368,75.729333132,10.289924,10.961006,-6.487126,49.9, -14.8, 0.7,0,0,1684,1024,1684,1127,100,0,100,16,77.9,0,0,99,4.145,4.139,0,0,0,0,6.023,79.34,42.739423283672,38.057744,6,P-GPS,
10000,2025-05-02 17:01:31,-23.0600972454856,-44.3511260167051,39.041996,71.4566952,-27.733019916328,43.723675283672,41.0105,15.3454084,77.976708532,80.222443512,14,4,8.291,43.723675283672,39.041996,15.3454084,77.976708532,10.513618,11.1847,-6.487126,50.1, -14.6, 0.9,0,0,1684,1024,1684,1129,100,0,100,16,78.1,0,0,99,4.145,4.139,0,0,0,0,6.023,79.34,43.723675283672,39.041996,6,P-GPS,
10100,2025-05-02 17:01:31,-23.0600927568556,-44.351121077407,40.026248,73.4251992,-28.717271916328,44.707927283672,41.0105,15.3454084,80.307089184,82.552824164,14,4,8.291,44.707927283672,40.026248,15.3454084,80.307089184,10.513618,11.1847,-6.487126,50.2, -14.7, 0.9,0,0,1684,1024,1684,1129,100,0,100,16,78.2,0,0,99,4.145,4.139,0,0,0,0,6.023,79.34,44.707927283672,40.026248,6,P-GPS,
10200,2025-05-02 17:01:32,-23.0600885625831,-44.3511161911816,41.0105,75.3608948,-29.668715516328,45.692179283672,41.0105,15.3454084,82.549543324,84.796262556,14,4,8.291,45.692179283672,41.0105,15.3454084,82.549543324,10.513618,11.1847,-6.487126,50.4, -14.7, 0.8,0,0,1684,1024,1684,1132,100,0,100,16,78.4,0,0,99,4.145,4.139,0,0,0,0,6.023,79.34,45.692179283672,41.0105,6,P-GPS,
10300,2025-05-02 17:01:32,-23.0600841423608,-44.3511110102259,41.994752,77.3950156,-30.718584316328,46.676431283672,41.0105,15.3454084,84.919950224,87.167981792,14,4,8.291,46.676431283672,41.994752,15.3454084,84.919950224,10.513618,11.408394,-6.71082,50.6, -14.5, 0.9,0,0,1684,1024,1684,1130,100,0,100,16,78.6,0,0,99,4.145,4.139,0,0,0,0,6.023,79.34,46.676431283672,41.994752,6,P-GPS,
10400,2025-05-02 17:01:32,-23.0600799429945,-44.3511060877993,42.979004,78.74016,-31.079476716328,47.660683283672,41.0105,15.5243636,87.172574968,89.421590788,14,4,8.291,47.660683283672,42.979004,15.5243636,87.172574968,10.513618,11.408394,-6.71082,50.7, -14.6, 0.6,0,0,1684,1024,1684,1133,100,0,100,17,78.7,0,0,99,4.145,4.139,0,0,0,0,6.023,79.34,47.660683283672,42.979004,6,P-GPS,
10500,2025-05-02 17:01:32,-23.0600756264585,-44.3511011854659,43.963256,80.1181128,-31.473177516328,48.644935283672,41.0105,15.5243636,89.450134096,91.699149916,14,4,8.284,48.644935283672,43.963256,15.5243636,89.450134096,10.513618,11.408394,-6.71082,50.8, -14.8, 0.8,0,0,1684,1024,1684,1132,100,0,100,16,78.9,0,0,99,4.142,4.137,0,0,0,0,6.104,79.52,48.644935283672,43.963256,6,P-GPS,
10600,2025-05-02 17:01:32,-23.0600713931164,-44.3510961316611,44.947508,81.528874,-31.899686716328,49.629187283672,41.0105,15.6809494,91.742457004,93.993769412,14,4,8.284,49.629187283672,44.947508,15.6809494,91.742457004,10.513618,11.632088,-6.71082,51, -15.1, 0.8,0,0,1684,1024,1684,1131,100,0,100,16,79.1,0,0,99,4.142,4.137,0,0,0,0,6.104,79.52,49.629187283672,44.947508,6,P-GPS,
10700,2025-05-02 17:01:32,-23.0600669357525,-44.3510907846158,45.93176,82.84121,-32.227770716328,50.613439283672,41.0105,15.6809494,94.162732672,96.4156855,14,4,8.284,50.613439283672,45.93176,15.6809494,94.162732672,10.513618,11.632088,-6.487126,51.2, -15.5, 1,0,0,1684,1024,1684,1131,100,0,100,16,79.3,0,0,99,4.142,4.137,0,0,0,0,6.104,79.52,50.613439283672,45.93176,6,P-GPS,
10800,2025-05-02 17:01:32,-23.0600626575565,-44.3510856665838,46.587928,83.8582704,-32.588663116328,51.269607283672,41.0105,15.6809494,96.482286552,98.7368798,14,4,8.284,51.269607283672,46.587928,15.6809494,96.482286552,10.513618,11.632088,-6.487126,51.3, -15.6, 1.2,0,0,1684,1024,1684,1134,100,0,100,17,79.4,0,0,99,4.142,4.137,0,0,0,0,6.104,79.52,51.269607283672,46.587928,6,P-GPS,
10900,2025-05-02 17:01:32,-23.0600581383769,-44.3510802384769,47.57218,85.2362232,-32.982363916328,52.253859283672,41.0105,16.0164904,98.937995292,101.194557044,14,4,8.284,52.253859283672,47.57218,16.0164904,98.937995292,10.513618,12.079476,-6.487126,51.5, -15.3, 0.9,0,0,1684,1024,1684,1134,100,0,100,17,79.6,0,0,99,4.142,4.137,0,0,0,0,6.104,79.52,52.253859283672,47.57218,6,P-GPS,
11000,2025-05-02 17:01:32,-23.0600539447689,-44.3510749482845,48.556432,86.5485592,-33.310447916328,53.238111283672,41.0105,16.0164904,101.277562296,103.53838914,14,4,8.284,53.238111283672,48.556432,16.0164904,101.277562296,10.513618,12.079476,-6.487126,51.8, -14.8, 0.6,0,0,1684,1024,1684,1142,100,0,100,18,79.8,0,0,99,4.142,4.137,0,0,0,0,6.104,79.52,53.238111283672,48.556432,6,P-GPS,
11100,2025-05-02 17:01:32,-23.0600495266179,-44.3510693535108,49.540684,87.8937036,-33.671340316328,54.222363283672,41.0105,16.1507068,103.747706732,106.013454836,14,4,8.284,54.222363283672,49.540684,16.1507068,103.747706732,10.737312,12.079476,-6.487126,52, -14.7, 0.7,0,0,1684,1024,1684,1141,100,0,100,18,80,0,0,99,4.142,4.137,0,0,0,0,6.104,79.52,54.222363283672,49.540684,6,P-GPS,
11200,2025-05-02 17:01:33,-23.0600452696829,-44.351064095609,50.524936,89.238848,-34.032232716328,55.206615283672,41.0105,16.1507068,106.096132004,108.364832864,14,4,8.284,55.206615283672,50.524936,16.1507068,106.096132004,10.737312,12.079476,-6.487126,52.2, -14.7, 0.8,0,0,1684,1024,1684,1141,100,0,100,18,80.2,0,0,99,4.142,4.137,0,0,0,0,6.104,79.52,55.206615283672,50.524936,6,P-GPS,
11300,2025-05-02 17:01:33,-23.0600407854953,-44.3510585392524,51.509188,90.5183756,-34.327508316328,56.190867283672,41.0105,16.329662,108.574150456,110.845804072,14,4,8.284,56.190867283672,51.509188,16.329662,108.574150456,10.737312,12.30317,-6.487126,52.4, -14.6, 0.8,0,0,1684,1024,1684,1143,100,0,100,18,80.4,0,0,99,4.142,4.137,0,0,0,0,6.104,79.52,56.190867283672,51.509188,6,P-GPS,
11400,2025-05-02 17:01:33,-23.0600364616508,-44.3510532635107,52.49344,91.86352,-34.688400716328,57.175119283672,41.0105,16.329662,110.943901188,113.217523308,14,4,8.284,57.175119283672,52.49344,16.329662,110.943901188,10.737312,12.30317,-6.487126,52.5, -14.5, 0.8,0,0,1684,1024,1684,1142,100,0,100,18,80.6,0,0,99,4.142,4.137,0,0,0,0,6.104,79.52,57.175119283672,52.49344,6,P-GPS,
11500,2025-05-02 17:01:33,-23.0600319177189,-44.3510476838022,53.149608,92.7821552,-34.950867916328,57.831287283672,41.0105,16.329662,113.442917016,115.718835724,14,4,8.269,57.831287283672,53.149608,16.329662,113.442917016,10.737312,12.30317,-6.487126,52.8, -14.7, 0.7,0,0,1684,1024,1684,1142,100,0,100,18,80.8,0,0,99,4.137,4.132,0,0,0,0,6.112,79.52,57.831287283672,53.149608,6,P-GPS,
11600,2025-05-02 17:01:33,-23.0600275842079,-44.3510423438891,54.13386,94.0616828,-35.246143516328,58.815539283672,41.0105,16.329662,115.831040452,118.109255748,14,4,8.269,58.815539283672,54.13386,16.329662,115.831040452,10.737312,12.30317,-6.487126,53, -14.8, 0.6,0,0,1684,1024,1684,1144,100,0,100,18,81,0,0,99,4.137,4.132,0,0,0,0,6.112,79.52,58.815539283672,54.13386,6,P-GPS,
11700,2025-05-02 17:01:33,-23.06002302988,-44.3510366960613,55.118112,95.3412104,-35.541419116328,59.799791283672,41.0105,16.5086172,118.349413236,120.630253204,14,4,8.269,59.799791283672,55.118112,16.5086172,118.349413236,10.737312,12.526864,-6.487126,53.2, -14.7, 0.9,0,0,1684,1024,1684,1144,100,0,100,18,81.2,0,0,99,4.137,4.132,0,0,0,0,6.112,79.52,59.799791283672,55.118112,6,P-GPS,
11800,2025-05-02 17:01:33,-23.0600186640086,-44.3510313956827,56.102364,96.620738,-35.836694716328,60.784043283672,41.0105,16.5086172,120.736224336,123.01837664,14,4,8.269,60.784043283672,56.102364,16.5086172,120.736224336,10.737312,12.526864,-6.487126,53.4, -14.8, 0.7,0,0,1684,1024,1684,1144,100,0,100,18,81.4,0,0,99,4.137,4.132,0,0,0,0,6.112,79.52,60.784043283672,56.102364,6,P-GPS,
11900,2025-05-02 17:01:33,-23.0600141373511,-44.3510256619144,57.086616,97.8674572,-36.099161916328,61.768295283672,41.0105,16.5086172,123.268704732,125.55446596,14,4,8.269,61.768295283672,57.086616,16.5086172,123.268704732,10.737312,12.526864,-6.487126,53.5, -14.8, 0.7,0,0,1684,1024,1684,1144,100,0,100,18,81.6,0,0,99,4.137,4.132,0,0,0,0,6.112,79.52,61.768295283672,57.086616,6,P-GPS,
12000,2025-05-02 17:01:33,-23.0600098525893,-44.3510201754462,58.070868,99.1141764,-36.361629116328,62.752547283672,41.0105,16.665203,125.680122132,127.970476536,14,4,8.269,62.752547283672,58.070868,16.665203,125.680122132,10.737312,12.750558,-6.487126,53.6, -14.6, 0.8,0,0,1684,1024,1684,1144,100,0,100,18,81.7,0,0,99,4.137,4.132,0,0,0,0,6.112,79.52,62.752547283672,58.070868,6,P-GPS,
12100,2025-05-02 17:01:33,-23.0600053497462,-44.3510143792942,59.05512,100.3608956,-36.624096316328,63.736799283672,41.0105,16.665203,128.222116964,130.517064544,14,4,8.269,63.736799283672,59.05512,16.665203,128.222116964,10.737312,12.750558,-6.487126,53.9, -14.7, 0.8,0,0,1684,1024,1684,1145,100,0,100,18,81.9,0,0,99,4.137,4.132,0,0,0,0,6.112,79.52,63.736799283672,59.05512,6,P-GPS,
12200,2025-05-02 17:01:34,-23.0600011913777,-44.3510086167735,60.039372,101.5748064,-36.853755116328,64.721051283672,41.0105,16.8441582,130.669623604,132.975397956,14,4,8.269,64.721051283672,60.039372,16.8441582,130.669623604,10.737312,12.974252,-6.487126,54.3, -14.4, 0.6,0,0,1684,1024,1684,1146,100,0,100,18,82.2,0,0,99,4.137,4.132,0,0,0,0,6.112,79.52,64.721051283672,60.039372,6,P-GPS,
12300,2025-05-02 17:01:34,-23.0599967151108,-44.35100269064,60.69554,102.2965912,-36.919371916328,65.377219283672,41.0105,16.9783746,133.236880904,135.549216936,14,4,8.269,65.377219283672,60.69554,16.9783746,133.236880904,10.961006,12.974252,-6.71082,54.4, -14.3, 1,0,0,1684,1024,1684,1146,100,0,100,18,82.4,0,0,99,4.137,4.132,0,0,0,0,6.112,79.52,65.377219283672,60.69554,6,P-GPS,
12400,2025-05-02 17:01:34,-23.0599920848844,-44.3509970667043,61.679792,103.3136516,-36.952180316328,66.361471283672,41.0105,16.9783746,135.7693613,138.082681584,14,4,8.269,66.361471283672,61.679792,16.9783746,135.7693613,10.961006,12.974252,-6.71082,54.5, -13.9, 1.4,0,0,1684,1024,1684,1149,100,0,100,19,82.6,0,0,99,4.137,4.132,0,0,0,0,6.112,79.52,66.361471283672,61.679792,6,P-GPS,
12500,2025-05-02 17:01:34,-23.0599872261807,-44.3509911320419,62.664044,104.3635204,-37.017797116328,67.345723283672,41.0105,16.9783746,138.4350438,140.749348336,14,4,8.263,67.345723283672,62.664044,16.9783746,138.4350438,10.961006,12.974252,-6.487126,54.6, -14, 1.5,0,0,1684,1024,1684,1150,100,0,100,19,82.8,0,0,99,4.134,4.126,0,0,0,0,6.141,79.52,67.345723283672,62.664044,6,P-GPS,
12600,2025-05-02 17:01:34,-23.0599819164632,-44.3509856139535,63.648296,105.3477724,-37.017797116328,68.329975283672,41.0105,17.0231134,141.111881156,143.429794616,14,4,8.263,68.329975283672,63.648296,17.0231134,141.111881156,10.737312,13.197946,-6.487126,54.8, -13.8, 1.6,0,0,1684,1024,1684,1147,100,0,100,19,83,0,0,99,4.134,4.126,0,0,0,0,6.141,79.52,68.329975283672,63.648296,6,P-GPS,
12700,2025-05-02 17:01:34,-23.0599771413443,-44.3509797075779,64.632548,106.3976412,-37.083413916328,69.314227283672,41.0105,17.0231134,143.749348432,146.069230396,14,4,8.263,69.314227283672,64.632548,17.0231134,143.749348432,10.737312,13.197946,-6.487126,55, -13.8, 1.5,0,0,1684,1024,1684,1147,100,0,100,19,83.2,0,0,99,4.134,4.126,0,0,0,0,6.141,79.52,69.314227283672,64.632548,6,P-GPS,
12800,2025-05-02 17:01:34,-23.059972806244,-44.3509740871617,65.288716,107.0866176,-37.116222316328,69.970395283672,41.0105,17.0231134,146.20735376,148.531172732,14,4,8.263,69.970395283672,65.288716,17.0231134,146.20735376,10.737312,13.197946,-6.487126,55.5, -14.1, 1,0,0,1684,1024,1684,1118,100,0,100,14,83.4,0,0,99,4.134,4.126,0,0,0,0,6.141,79.52,69.970395283672,65.288716,6,P-GPS,
12900,2025-05-02 17:01:34,-23.0599682652041,-44.3509681561306,66.272968,108.1364864,-37.181839116328,70.954647283672,41.0105,17.2915462,148.79265568,151.121395912,14,4,8.263,70.954647283672,66.272968,17.2915462,148.79265568,11.1847,13.197946,-6.487126,55.6, -13.8, 1.6,0,0,1684,1024,1684,1120,100,0,100,15,83.6,0,0,99,4.134,4.126,0,0,0,0,6.141,79.52,70.954647283672,66.272968,6,P-GPS,
13000,2025-05-02 17:01:34,-23.0599634022795,-44.3509624909099,67.25722,109.1863552,-37.247455916328,71.938899283672,41.0105,17.1573298,151.393377548,153.722445864,14,4,8.263,71.938899283672,67.25722,17.2915462,151.393377548,10.961006,13.197946,-6.487126,55.4, -13.6, 2.5,0,0,1684,1024,1684,1120,100,0,100,15,83.7,0,0,99,4.134,4.126,0,0,0,0,6.141,79.52,71.938899283672,67.25722,6,P-GPS,
13100,2025-05-02 17:01:34,-23.0599573223731,-44.3509566804004,68.241472,110.2034156,-37.280264316328,72.923151283672,41.0105,17.336285,154.334322524,156.676186116,14,4,8.263,72.923151283672,68.241472,17.336285,154.334322524,10.961006,13.42164,-6.487126,55.7, -13.8, 2.1,0,0,1684,1024,1684,1120,100,0,100,15,83.9,0,0,99,4.134,4.126,0,0,0,0,6.141,79.52,72.923151283672,68.241472,6,P-GPS,
13200,2025-05-02 17:01:35,-23.0599527998585,-44.3509508941366,69.225724,111.220476,-37.313072716328,73.907403283672,41.0105,17.336285,156.879598196,159.224742628,14,4,8.263,73.907403283672,69.225724,17.336285,156.879598196,10.961006,13.42164,-6.487126,55.7, -13.6, 2.5,0,0,1684,1024,1684,1120,100,0,100,15,84,0,0,99,4.134,4.126,0,0,0,0,6.141,79.52,73.907403283672,69.225724,6,P-GPS,
13300,2025-05-02 17:01:35,-23.0599481153853,-44.3509447766994,69.881892,111.9422608,-37.378689516328,74.563571283672,41.0105,17.3586544,159.546264948,161.896658724,14,4,8.263,74.563571283672,69.881892,17.3586544,159.546264948,10.737312,13.645334,-6.487126,55.9, -13.1, 1.9,0,0,1684,1024,1684,1121,100,0,100,15,84.2,0,0,99,4.134,4.126,0,0,0,0,6.141,79.52,74.563571283672,69.881892,6,P-GPS,
13400,2025-05-02 17:01:35,-23.0599442097252,-44.3509387857054,70.866144,112.9921296,-37.444306316328,75.547823283672,41.0105,17.4033932,161.987866076,164.361553816,14,4,8.263,75.547823283672,70.866144,17.4033932,161.987866076,10.513618,13.869028,-6.71082,56.2, -12.8, 1.1,0,0,1684,1024,1684,1126,100,0,100,15,84.3,0,0,99,4.134,4.126,0,0,0,0,6.141,79.52,75.547823283672,70.866144,6,P-GPS,
13500,2025-05-02 17:01:35,-23.0599412466085,-44.3509319388073,71.850396,114.0748068,-37.542731516328,76.532075283672,41.0105,17.4033932,164.406501324,166.901580144,14,4,8.263,76.532075283672,71.850396,17.4033932,164.406501324,10.289924,13.869028,-6.71082,56.4, -13.8, 0.8,0,0,1684,1024,1684,1126,100,0,100,15,84.5,0,0,99,4.134,4.126,0,0,0,0,6.141,79.52,76.532075283672,71.850396,6,P-GPS,
13600,2025-05-02 17:01:35,-23.0599375058772,-44.3509258833441,72.834648,115.1246756,-37.608348316328,77.516327283672,41.0105,17.2691768,166.825464656,169.350071036,14,4,8.266,77.516327283672,72.834648,17.4033932,166.825464656,10.289924,13.869028,-6.487126,56.8, -13.8, 0.7,0,0,1684,1024,1684,1125,100,0,100,15,84.7,0,0,99,4.135,4.127,0,0,0,0,5.979,79.7,77.516327283672,72.834648,6,P-GPS,
13700,2025-05-02 17:01:35,-23.0599335650948,-44.3509195200592,73.8189,116.1745444,-37.673965116328,78.500579283672,41.0105,16.9112664,169.370740328,171.924874268,14,4,8.266,78.500579283672,73.8189,17.4033932,169.370740328,10.289924,13.42164,-6.487126,56.9, -14.1, 0.8,0,0,1684,1024,1684,1125,100,0,100,15,84.8,0,0,99,4.135,4.127,0,0,0,0,5.979,79.7,78.500579283672,73.8189,6,P-GPS,
13800,2025-05-02 17:01:35,-23.0599297279857,-44.3509136634788,74.803152,117.2572216,-37.772390316328,79.484831283672,41.0105,16.9112664,171.766081612,174.338260172,14,4,8.266,79.484831283672,74.803152,17.4033932,171.766081612,10.289924,13.42164,-6.487126,57.1, -14.8, 1.1,0,0,1684,1024,1684,1115,100,0,100,14,85,0,0,99,4.135,4.127,0,0,0,0,5.979,79.7,79.484831283672,74.803152,6,P-GPS,
13900,2025-05-02 17:01:35,-23.0599265348285,-44.3509077181833,75.787404,118.3070904,-37.838007116328,80.469083283672,41.0105,16.77705,174.025268036,176.649283868,14,4,8.266,80.469083283672,75.787404,17.4033932,174.025268036,10.06623,13.42164,-6.487126,57.1, -15.2, 1,0,0,1684,1024,1684,1120,100,0,100,15,85.2,0,0,99,4.135,4.127,0,0,0,0,5.979,79.7,80.469083283672,75.787404,6,P-GPS,
14000,2025-05-02 17:01:35,-23.0599225555888,-44.3509020102437,76.771656,119.3569592,-37.903623916328,81.453335283672,41.0105,16.77705,176.419625068,179.05348342,14,4,8.266,81.453335283672,76.771656,17.4033932,176.419625068,10.06623,13.42164,-6.487126,57.2, -15.5, 1.3,0,0,1684,1024,1684,1120,100,0,100,15,85.3,0,0,99,4.135,4.127,0,0,0,0,5.979,79.7,81.453335283672,76.771656,6,P-GPS,
14100,2025-05-02 17:01:35,-23.0599183630099,-44.3508959748922,77.427824,120.1115524,-38.002049116328,82.109503283672,41.0105,17.3139156,178.948168456,181.591869328,14,4,8.266,82.109503283672,77.427824,17.4033932,178.948168456,10.06623,14.092722,-6.487126,57.4, -15.4, 0.9,0,0,1684,1024,1684,1119,100,0,100,14,85.5,0,0,99,4.135,4.127,0,0,0,0,5.979,79.7,82.109503283672,77.427824,6,P-GPS,
14200,2025-05-02 17:01:36,-23.0599143321551,-44.350889808628,78.412076,121.1614212,-38.067665916328,83.093755283672,41.0105,17.3139156,181.46982208,184.131239488,14,4,8.266,83.093755283672,78.412076,17.4033932,181.46982208,10.06623,14.092722,-6.487126,57.5, -15.1, 0.4,0,0,1684,1024,1684,1119,100,0,100,14,85.6,0,0,99,4.135,4.127,0,0,0,0,5.979,79.7,83.093755283672,78.412076,6,P-GPS,
14300,2025-05-02 17:01:36,-23.059909977305,-44.3508827908918,79.396328,122.2440984,-38.166091116328,84.078007283672,41.0105,17.9402588,184.283470464,186.972775012,14,4,8.266,84.078007283672,79.396328,17.9402588,184.283470464,9.842536,14.987498,-6.71082,57.7, -14.6, 0.1,0,0,1684,1024,1684,1119,100,0,100,14,85.8,0,0,99,4.135,4.127,0,0,0,0,5.979,79.7,84.078007283672,79.396328,6,P-GPS,
14400,2025-05-02 17:01:36,-23.0599057707085,-44.3508757486862,80.38058,123.3267756,-38.264516316328,85.062259283672,41.0105,17.7389342,187.068247456,189.791344656,14,4,8.266,85.062259283672,80.38058,17.9402588,187.068247456,9.842536,14.763804,-6.71082,58.1, -13.2, -1.2,0,0,1684,1024,1684,1118,100,0,100,14,85.9,0,0,99,4.135,4.127,0,0,0,0,5.979,79.7,85.062259283672,80.38058,6,P-GPS,
14500,2025-05-02 17:01:36,-23.0599013277401,-44.3508683295714,81.364832,124.4422612,-38.395749916328,86.046511283672,41.0105,17.7613036,190.005583508,192.763129528,14,4,8.266,86.046511283672,81.364832,17.9402588,190.005583508,10.513618,14.316416,-6.71082,58.3, -13.1, -0.6,0,0,1684,1024,1684,1116,100,0,100,14,86.1,0,0,99,4.135,4.127,0,0,0,0,5.979,79.7,86.046511283672,81.364832,6,P-GPS,
14600,2025-05-02 17:01:36,-23.0598967210935,-44.3508617689679,82.349084,125.5249384,-38.494175116328,87.030763283672,41.0105,17.7613036,192.768050788,195.533470824,14,4,8.267,87.030763283672,82.349084,17.9402588,192.768050788,10.513618,14.316416,-6.71082,58.3, -12.8, 1,0,0,1684,1024,1684,1116,100,0,100,14,86.2,0,0,99,4.125,4.123,0,0,0,0,5.827,79.7,87.030763283672,82.349084,6,P-GPS,
14700,2025-05-02 17:01:36,-23.0598919136402,-44.3508549596117,83.333336,126.6076156,-38.592600316328,88.015015283672,41.0105,17.2691768,195.642066628,198.414704512,14,4,8.267,88.015015283672,83.333336,17.9402588,195.642066628,10.289924,13.869028,-6.71082,58.3, -13.3, 1.6,0,0,1684,1024,1684,1113,100,0,100,13,86.4,0,0,99,4.125,4.123,0,0,0,0,5.827,79.7,88.015015283672,83.333336,6,P-GPS,
14800,2025-05-02 17:01:36,-23.0598864537931,-44.3508482300322,84.317588,127.7231012,-38.723833916328,88.999267283672,41.0105,17.0902216,198.653877748,201.426515632,14,4,8.267,88.999267283672,84.317588,17.9402588,198.653877748,10.289924,13.645334,-6.487126,58.4, -14.3, 2,0,0,1684,1024,1684,1024,100,0,100,0,86.5,0,0,99,4.125,4.123,0,0,0,0,5.827,79.7,88.999267283672,84.317588,6,P-GPS,
14900,2025-05-02 17:01:36,-23.0598821746592,-44.3508422976603,85.30184,128.8057784,-38.822259116328,89.983519283672,41.0105,17.0902216,201.179796464,203.957027524,14,4,8.267,89.983519283672,85.30184,17.9402588,201.179796464,10.289924,13.645334,-6.487126,58.5, -15, 2.6,0,0,1334,1024,1024,1024,47,0,0,0,86.6,0,0,99,4.125,4.123,0,0,0,0,5.827,79.7,89.983519283672,85.30184,6,P-GPS,
15000,2025-05-02 17:01:36,-23.0598780700684,-44.350836719665,86.286092,129.8556472,-38.887875916328,90.967771283672,41.0105,17.0902216,203.574809664,206.354665396,14,4,8.267,90.967771283672,86.286092,17.9402588,203.574809664,10.289924,13.645334,-6.263432,58.4, -16, 3.2,0,0,1024,1024,1024,1024,0,0,0,0,86.6,0,0,99,4.125,4.123,0,0,0,0,5.827,79.7,90.967771283672,86.286092,6,P-GPS,
15100,2025-05-02 17:01:36,-23.0598737819454,-44.3508308373118,87.270344,130.905516,-38.953492716328,91.952023283672,41.0105,16.9560052,206.090229692,208.874022432,14,4,8.267,91.952023283672,87.270344,17.9402588,206.090229692,10.06623,13.645334,-5.59235,58.8, -5.8, 3.3,0,0,1024,1024,1024,1024,0,0,0,0,86.6,0,0,99,4.125,4.123,0,0,0,0,5.827,79.7,91.952023283672,87.270344,6,P-GPS,
15200,2025-05-02 17:01:37,-23.0598704475175,-44.3508275970474,87.926512,131.561684,-38.953492716328,92.608191283672,41.0105,16.329662,207.710964652,210.506240332,14,4,8.267,92.608191283672,87.926512,17.9402588,207.710964652,9.618842,13.197946,-5.144962,59.6, 20.8, 2.9,0,0,1024,1024,1024,1024,0,0,0,0,86.7,0,0,99,4.125,4.123,0,0,0,0,5.827,79.7,92.608191283672,87.926512,6,P-GPS,
15300,2025-05-02 17:01:37,-23.0598666214557,-44.3508220618826,88.58268,132.217852,-38.953492716328,93.264359283672,41.0105,15.0322368,210.02789386,212.830059304,14,4,8.267,93.264359283672,88.58268,17.9402588,210.02789386,8.94776,12.079476,-4.921268,59.4, 21.5, 2.1,0,0,1024,1024,1024,1024,0,0,0,0,86.7,0,0,99,4.125,4.123,0,0,0,0,5.827,79.7,93.264359283672,88.58268,6,P-GPS,
15400,2025-05-02 17:01:37,-23.0598633031558,-44.3508171279104,89.238848,132.87402,-38.953492716328,93.920527283672,41.0105,14.2269384,212.070872928,214.88189664,14,4,8.267,93.920527283672,89.238848,17.9402588,212.070872928,8.500372,11.408394,-4.250186,59.5, 20.2, 2.5,0,0,1024,1024,1024,1024,0,0,0,0,86.7,0,0,99,4.125,4.123,0,0,0,0,5.827,79.7,93.920527283672,89.238848,6,P-GPS,
15500,2025-05-02 17:01:37,-23.0598599861848,-44.3508122018712,89.566932,133.202104,-38.953492716328,94.248611283672,41.0105,13.42164,214.111555408,216.931109304,14,4,8.267,94.248611283672,89.566932,17.9402588,214.111555408,8.052984,10.737312,-3.35541,59.4, 19.7, 2,0,0,1024,1024,1024,364,0,0,0,-100,86.5,0,0,99,4.125,4.123,0,0,0,0,5.827,79.7,94.248611283672,89.566932,6,P-GPS,
15600,2025-05-02 17:01:37,-23.0598575890892,-44.350807861233,89.895016,133.530188,-38.953492716328,94.576695283672,41.0105,12.7952968,215.783471472,218.630584424,14,4,8.259,94.576695283672,89.895016,17.9402588,215.783471472,7.605596,10.289924,-2.460634,58.3, 19.5, 1.7,0,0,1024,1024,1024,364,0,0,0,-100,84.1,0,0,99,4.18,4.213,0,0,0,0,5.799,79.7,94.576695283672,89.895016,6,P-GPS,
15700,2025-05-02 17:01:37,-23.0598546440287,-44.3508033633134,90.2231,133.858272,-38.953492716328,94.904779283672,41.0105,12.1689536,217.627303552,220.483602856,14,4,8.259,94.904779283672,90.2231,17.9402588,217.627303552,7.158208,9.842536,-1.342164,54.7, 20, 0.1,0,0,1024,1024,1024,364,0,0,0,-100,79.6,0,0,99,4.18,4.213,0,0,0,0,5.799,79.7,94.904779283672,90.2231,6,P-GPS,
15800,2025-05-02 17:01:37,-23.0598522638167,-44.3507987997699,90.2231,133.858272,-38.953492716328,94.904779283672,41.0105,12.1689536,219.35204114,222.244757768,14,4,8.259,94.904779283672,90.2231,17.9402588,219.35204114,6.71082,9.395148,-0.671082,49.9, 20.9, -2.5,0,0,1024,1024,1024,364,0,0,0,-100,74.9,0,0,99,4.18,4.213,0,0,0,0,5.799,79.7,94.904779283672,90.2231,6,P-GPS,
15900,2025-05-02 17:01:37,-23.0598499540839,-44.3507942816641,90.2231,133.858272,-38.953492716328,94.904779283672,41.0105,10.737312,221.049219672,223.97966596,14,4,8.259,94.904779283672,90.2231,17.9402588,221.049219672,6.263432,8.724066,-0.223694,44.8, 20.5, -4,0,0,1024,1024,1024,364,0,0,0,-100,70.1,0,0,99,4.18,4.213,0,0,0,0,5.799,79.7,94.904779283672,90.2231,6,P-GPS,
