time(millisecond),datetime(utc),latitude,longitude,height_above_takeoff(feet),height_above_ground_at_drone_location(feet),ground_elevation_at_drone_location(feet),altitude_above_seaLevel(feet),height_sonar(feet),speed(mph),distance(feet),mileage(feet),satellites,gpslevel,voltage(v),max_altitude(feet),max_ascent(feet),max_speed(mph),max_distance(feet), xSpeed(mph), ySpeed(mph), zSpeed(mph), compass_heading(degrees), pitch(degrees), roll(degrees),isPhoto,isVideo,rc_elevator,rc_aileron,rc_throttle,rc_rudder,rc_elevator(percent),rc_aileron(percent),rc_throttle(percent),rc_rudder(percent),gimbal_heading(degrees),gimbal_pitch(degrees),gimbal_roll(degrees),battery_percent,voltageCell1,voltageCell2,voltageCell3,voltageCell4,voltageCell5,voltageCell6,current(A),battery_temperature(f),altitude(feet),ascent(feet),flycStateRaw,flycState,message
0,2022-08-28 20:41:10,0,0,0,,,79.12936440878,0,0,0,0,0,0,0,79.12936440878,0,0,0,0,0,0,282.5, 1.4, -1.1,0,0,364,364,364,1684,-100,-100,-100,100,283.1,0,0,96,4.273,4.273,0,0,0,0,0,62.96,79.12936440878,0,41,Motors_Started,"Sin señal GPS. No se puede hacer vuelo estacionario. Vuela con cuidado (Code: 30007). Aeronave en modo Atti. No se puede hacer vuelo estacionario. Vuela con cuidado (Code: 30004). Señal débil del GPS. Vuelo estacionario inestable. Vuela con cuidado ("
100,2022-08-28 20:41:10,0,0,0,,,79.12936440878,0,0,0,0,0,0,0,79.12936440878,0,0,0,0,0,0,282.1, 0.8, -1.4,0,0,364,364,364,1684,-100,-100,-100,100,282.6,0,0,96,4.273,4.273,0,0,0,0,0,62.96,79.12936440878,0,41,Motors_Started,
200,2022-08-28 20:41:11,0,0,0,,,79.12936440878,0.328084,0,0,0,5,0,0,79.12936440878,0,0,0,0,0,0,281.8, 0.9, -1.9,0,0,364,364,364,1684,-100,-100,-100,100,282.2,0,0,96,4.273,4.273,0,0,0,0,0,62.96,79.12936440878,0,41,Motors_Started,
300,2022-08-28 20:41:11,0,0,0,,,79.12936440878,0.328084,0,0,0,5,0,0,79.12936440878,0,0,0,0,0,0,282.3, 0.9, -1.7,0,0,1024,1024,564,1311,0,0,-70,43,282,0,0,96,4.273,4.273,0,0,0,0,0,62.96,79.12936440878,0,41,Motors_Started,
400,2022-08-28 20:41:11,0,0,0,,,79.12936440878,0.328084,0,0,0,5,0,0,79.12936440878,0,0,0,0,0,0,282.1, 1.2, -0.7,0,0,1024,1024,1024,1024,0,0,0,0,282.1,0,0,96,4.273,4.273,0,0,0,0,0,62.96,79.12936440878,0,41,Motors_Started,
500,2022-08-28 20:41:11,0,0,0,,,79.12936440878,0.328084,0,0,0,5,0,0,79.12936440878,0,0,0,0,0,0,282.2, 1.3, -0.2,0,0,1024,1024,1024,1024,0,0,0,0,282.1,0,0,96,4.273,4.273,0,0,0,0,0,62.96,79.12936440878,0,41,Motors_Started,"Vuela con cuidado (sin GPS)"
600,2022-08-28 20:41:11,0,0,0,,,79.12936440878,0.328084,0,0,0,5,0,0,79.12936440878,0,0,0,0,0,0,282.6, 1.7, 0.2,0,0,1024,1024,1024,1024,0,0,0,0,282.2,0,0,96,4.273,4.273,0,0,0,0,0,62.96,79.12936440878,0,41,Motors_Started,
700,2022-08-28 20:41:11,0,0,0,,,79.12936440878,0.328084,0,0,0,5,0,0,79.12936440878,0,0,0,0,0,0,283.3, 1.1, 0.7,0,0,1024,1024,1026,1024,0,0,0,0,282.6,0,0,96,4.273,4.273,0,0,0,0,0,62.96,79.12936440878,0,41,Motors_Started,"Setting new Return-To-Home altitude to 100m (328 ft). Data Recorder File Index is 22. Setting new Maximum Flight Altitude to 30m (98 ft)"
800,2022-08-28 20:41:11,0,0,-0.328084,,,78.80128040878,0.328084,0,0,0,5,0,0,79.12936440878,0,0,0,0,0,0,283.8, 1.3, 1,0,0,1024,1024,1026,1024,0,0,0,0,283.3,0,0,96,4.273,4.273,0,0,0,0,0,62.96,78.80128040878,-0.328084,41,Motors_Started,
900,2022-08-28 20:41:11,0,0,-0.328084,,,78.80128040878,0.328084,0,0,0,5,0,0,79.12936440878,0,0,0,0,0,0,283.9, 1.3, 1.2,0,0,1024,1024,1228,1024,0,0,31,0,283.5,0,0,96,4.273,4.273,0,0,0,0,0,62.96,78.80128040878,-0.328084,41,Motors_Started,
1000,2022-08-28 20:41:11,0,0,-0.328084,,,78.80128040878,0.328084,0,0,0,5,0,0,79.12936440878,0,0,0,0,0,0,284.8, 1.2, 0.5,0,0,1024,1024,1684,1024,0,0,100,0,284.1,0,0,96,4.273,4.273,0,0,0,0,0,62.96,78.80128040878,-0.328084,41,Motors_Started,
1100,2022-08-28 20:41:12,0,0,-0.328084,,,78.80128040878,0.328084,0,0,0,5,0,8.595,79.12936440878,0,0,0,0,0,0,285.1, 1.3, 0.8,0,0,1024,1024,1684,1023,0,0,100,-0,284.7,0,0,96,4.273,4.273,0,0,0,0,0.571,62.96,78.80128040878,-0.328084,10,Assisted_Takeoff,
1200,2022-08-28 20:41:12,0,0,-0.328084,,,78.80128040878,0.328084,0,0,0,5,0,8.595,79.12936440878,0,0,0,0,0,0,285.1, 1.3, 0.9,0,0,1024,1024,1684,1024,0,0,100,0,284.9,0,0,96,4.273,4.273,0,0,0,0,0.571,62.96,78.80128040878,-0.328084,10,Assisted_Takeoff,"Aeronave en Zona de altitud restringida (límite: 150m). Vuela con precaución (Code: 190012)"
1300,2022-08-28 20:41:12,0,0,-0.328084,,,78.80128040878,0.328084,0,0,0,5,0,8.595,79.12936440878,0,0,0,0,0,0,284.9, 2.2, 1.1,0,0,1024,1024,1469,1024,0,0,67,0,284.9,0,0,96,4.273,4.273,0,0,0,0,0.571,62.96,78.80128040878,-0.328084,10,Assisted_Takeoff,
1400,2022-08-28 20:41:12,0,0,-0.328084,,,78.80128040878,0.328084,0,0,0,5,0,8.595,79.12936440878,0,0,0,0,0,0,284.4, 3.1, 1.5,0,0,1024,1024,1123,1024,0,0,15,0,284.8,0,0,96,4.273,4.273,0,0,0,0,0.571,62.96,78.80128040878,-0.328084,10,Assisted_Takeoff,
1500,2022-08-28 20:41:12,0,0,-0.328084,,,78.80128040878,0.328084,0,0,0,5,0,8.595,79.12936440878,0,0,0,0,0,0,283.6, 3.7, 2.2,0,0,1024,1024,1024,1024,0,0,0,0,284.1,0,0,96,4.273,4.273,0,0,0,0,0.571,62.96,78.80128040878,-0.328084,10,Assisted_Takeoff,
1600,2022-08-28 20:41:12,0,0,-0.328084,,,78.80128040878,0.328084,0,0,0,5,0,8.595,79.12936440878,0,0,0,0,0,-0.223694,283.2, 3.3, 5.7,0,0,1024,1024,1024,1024,0,0,0,0,283,0,0,96,4.273,4.273,0,0,0,0,0.571,62.96,78.80128040878,-0.328084,10,Assisted_Takeoff,
1700,2022-08-28 20:41:12,0,0,-0.328084,,,78.80128040878,0.328084,0,0,0,5,0,8.595,79.12936440878,0,0,0,0,0,-0.223694,285.4, 0.2, 6.9,0,0,1024,1024,1024,1024,0,0,0,0,284.1,0,0,96,4.273,4.273,0,0,0,0,0.571,62.96,78.80128040878,-0.328084,10,Assisted_Takeoff,
1800,2022-08-28 20:41:12,0,0,-0.328084,,,78.80128040878,0.328084,0,0,0,5,0,8.595,79.12936440878,0,0,0,0,0,-0.223694,286.5, -1.3, 7.5,0,0,1024,1024,1024,1024,0,0,0,0,286.1,0,0,96,4.273,4.273,0,0,0,0,0.571,62.96,78.80128040878,-0.328084,10,Assisted_Takeoff,
1900,2022-08-28 20:41:12,0,0,-0.328084,,,78.80128040878,0.328084,0,0,0,5,0,8.595,79.12936440878,0,0,0,0,0,-0.223694,286.9, -1.5, 5.6,0,0,1024,1024,1031,1024,0,0,1,0,286.6,0,0,96,4.273,4.273,0,0,0,0,0.571,62.96,78.80128040878,-0.328084,10,Assisted_Takeoff,
2000,2022-08-28 20:41:12,0,0,-0.328084,,,78.80128040878,0.328084,0,0,0,5,0,8.595,79.12936440878,0,0,0,0,0,0,285.6, 0.6, 7.6,0,0,1024,1024,1446,1024,0,0,64,0,286.2,0,0,96,4.273,4.273,0,0,0,0,0.571,62.96,78.80128040878,-0.328084,10,Assisted_Takeoff,
2100,2022-08-28 20:41:13,0,0,-0.328084,,,78.80128040878,0.328084,0,0,0,5,0,8.522,79.12936440878,0,0,0,0,0,0,281.4, 1.1, 7.2,0,0,1024,1024,1684,1024,0,0,100,0,282.9,0,0,96,4.255,4.248,0,0,0,0,1.298,62.96,78.80128040878,-0.328084,6,P-GPS,"Señal débil del GPS. Vuelo estacionario inestable. Vuela con cuidado (Code: 30002)"
2200,2022-08-28 20:41:13,0,0,-0.328084,,,78.80128040878,0.328084,0,0,0,5,0,8.522,79.12936440878,0,0,0,0,0,0,283.4, 1.1, 3.9,0,0,1024,1024,1684,1024,0,0,100,0,281.6,0,0,96,4.255,4.248,0,0,0,0,1.298,62.96,78.80128040878,-0.328084,6,P-GPS,
2300,2022-08-28 20:41:13,0,0,-0.328084,,,78.80128040878,0.328084,0,0,0,5,0,8.522,79.12936440878,0,0,0,0,0,0,283.6, 0.6, 3.5,0,0,1024,1024,1684,1024,0,0,100,0,281.6,0,0,96,4.255,4.248,0,0,0,0,1.298,62.96,78.80128040878,-0.328084,6,P-GPS,
2400,2022-08-28 20:41:13,0,0,-0.328084,,,78.80128040878,0.328084,0,0,0,5,0,8.522,79.12936440878,0,0,0,0,0,0,282.8, 0.4, 2.6,0,0,1024,1024,1678,1024,0,0,99,0,281.6,0,0,96,4.255,4.248,0,0,0,0,1.298,62.96,78.80128040878,-0.328084,6,P-GPS,
2500,2022-08-28 20:41:13,0,0,-0.656168,,,78.47319640878,0.328084,0,0,0,5,0,8.522,79.12936440878,0,0,0,0,0,0,282.6, 0.1, 1.8,0,0,1024,1024,1684,1024,0,0,100,0,281.6,0,0,96,4.255,4.248,0,0,0,0,1.298,62.96,78.47319640878,-0.656168,6,P-GPS,
2600,2022-08-28 20:41:13,0,0,-0.656168,,,78.47319640878,0.328084,0,0,0,5,0,8.522,79.12936440878,0,0,0,0,0,0,282.5, -0.8, 1.6,0,0,1024,1024,1684,1024,0,0,100,0,281.6,0,0,96,4.255,4.248,0,0,0,0,1.298,62.96,78.47319640878,-0.656168,6,P-GPS,
2700,2022-08-28 20:41:13,0,0,-0.328084,,,78.80128040878,0.328084,0,0,0,5,0,8.522,79.12936440878,0,0,0,0,0,-0.447388,282.3, -1.3, 0.2,0,0,1024,1024,1684,1024,0,0,100,0,281.6,0,0,96,4.255,4.248,0,0,0,0,1.298,62.96,78.80128040878,-0.328084,6,P-GPS,
2800,2022-08-28 20:41:13,0,0,-0.328084,,,78.80128040878,0.656168,0,0,0,5,0,8.522,79.12936440878,0,0,0,0,0,-0.894776,282.1, -2, -0.8,0,0,1024,1024,1684,1024,0,0,100,0,281.6,0,0,96,4.255,4.248,0,0,0,0,1.298,62.96,78.80128040878,-0.328084,6,P-GPS,
2900,2022-08-28 20:41:13,0,0,0,,,79.12936440878,0.656168,0,0,0,5,0,8.522,79.12936440878,0,0,0,0,0,-1.565858,282.1, -2.1, -1.7,0,0,1024,1024,1646,1024,0,0,94,0,281.6,0,0,96,4.255,4.248,0,0,0,0,1.298,62.96,79.12936440878,0,6,P-GPS,
3000,2022-08-28 20:41:13,0,0,0,,,79.12936440878,1.312336,0,0,0,5,0,8.522,79.12936440878,0,0,0,0,0,-2.23694,281.9, -1.4, -1.9,0,0,1024,1024,1024,1024,0,0,0,0,281.6,0,0,96,4.255,4.248,0,0,0,0,1.298,62.96,79.12936440878,0,6,P-GPS,
3100,2022-08-28 20:41:13,0,0,0.328084,,,79.45744840878,1.968504,0,0,0,5,0,8.469,79.45744840878,0.328084,0,0,0,0,-2.908022,281.9, -2, -2.8,0,0,1024,1024,1024,1024,0,0,0,0,281.6,0,0,96,4.197,4.2,0,0,0,0,2.479,62.96,79.45744840878,0.328084,6,P-GPS,
3200,2022-08-28 20:41:14,0,0,0.656168,,,79.78553240878,2.624672,0,0,0,5,0,8.469,79.78553240878,0.656168,0,0,0,0,-2.908022,281.9, -2.3, -2.6,0,0,1024,1024,1024,1024,0,0,0,0,281.6,0,0,96,4.197,4.2,0,0,0,0,2.479,62.96,79.78553240878,0.656168,6,P-GPS,
3300,2022-08-28 20:41:14,0,0,0.984252,,,80.11361640878,2.952756,0,0,0,5,0,8.469,80.11361640878,0.984252,0,0,0,0,-2.460634,282, -3, -2,0,0,1024,1024,1024,1024,0,0,0,0,281.6,0,0,96,4.197,4.2,0,0,0,0,2.479,62.96,80.11361640878,0.984252,6,P-GPS,
3400,2022-08-28 20:41:14,0,0,1.312336,,,80.44170040878,3.28084,0,0,0,5,0,8.469,80.44170040878,1.312336,0,0,0,0,-2.013246,281.9, -3.8, -1.1,0,0,1024,1024,1024,1024,0,0,0,0,281.6,0,0,96,4.197,4.2,0,0,0,0,2.479,62.96,80.44170040878,1.312336,6,P-GPS,
3500,2022-08-28 20:41:14,0,0,1.64042,,,80.76978440878,3.608924,0.4921268,0,0,5,0,8.469,80.76978440878,1.64042,0.4921268,0,0.447388,0.223694,-1.342164,281.7, 0.4, -1.1,0,0,1024,1024,1024,1024,0,0,0,0,281.6,0,0,96,4.197,4.2,0,0,0,0,2.479,62.96,80.76978440878,1.64042,1,Atti,"Vuela con cuidado (modo Atti) Señal débil del GPS. Vuelo estacionario inestable. Vuela con cuidado (Code: 30002). Aeronave en modo Atti. No se puede hacer vuelo estacionario. Vuela con cuidado (Code: 30004). Señal del GPS demasiado débil. Se ha pasado al modo Atti. La aeronave no"
3600,2022-08-28 20:41:14,0,0,1.64042,,,80.76978440878,3.937008,0.6263432,0,0,5,0,8.469,80.76978440878,1.64042,0.6263432,0,0.447388,0.447388,-0.671082,281.9, -0.4, -0.8,0,0,1024,1024,1024,1024,0,0,0,0,281.6,0,0,96,4.197,4.2,0,0,0,0,2.479,62.96,80.76978440878,1.64042,6,P-GPS,"La brújula no funciona bien el GPS no tiene buena señal. Cambia a modo Atti (Code: 30020). Aeronave en modo Atti. No se puede hacer vuelo estacionario. Vuela con cuidado (Code: 30004)"
3700,2022-08-28 20:41:14,0,0,1.968504,,,81.09786840878,3.937008,0.8052984,0,0,5,0,8.469,81.09786840878,1.968504,0.8052984,0,0.671082,0.447388,-0.223694,281.7, -1.6, -2.9,0,0,1024,1024,1024,1024,0,0,0,0,281.6,0,0,96,4.197,4.2,0,0,0,0,2.479,62.96,81.09786840878,1.968504,6,P-GPS,
3800,2022-08-28 20:41:14,0,0,1.968504,,,81.09786840878,3.937008,0.8052984,0,0,5,0,8.469,81.09786840878,1.968504,0.8052984,0,0.671082,0.447388,0,281.6, -2.6, -3.6,0,0,1024,1024,1024,1024,0,0,0,0,281.6,0,0,96,4.197,4.2,0,0,0,0,2.479,62.96,81.09786840878,1.968504,6,P-GPS,
3900,2022-08-28 20:41:14,0,0,1.968504,,,81.09786840878,3.937008,0.8052984,0,0,5,0,8.469,81.09786840878,1.968504,0.8052984,0,0.671082,0.447388,0,281.4, -3.1, -4.3,0,0,1024,1024,1024,1024,0,0,0,0,281.6,0,0,96,4.197,4.2,0,0,0,0,2.479,62.96,81.09786840878,1.968504,6,P-GPS,
4000,2022-08-28 20:41:14,0,0,1.968504,,,81.09786840878,3.937008,0.8052984,0,0,5,0,8.469,81.09786840878,1.968504,0.8052984,0,0.671082,0.447388,0,281.2, -3.8, -4.6,0,0,1024,1024,1024,1024,0,0,0,0,281.6,0,0,96,4.197,4.2,0,0,0,0,2.479,62.96,81.09786840878,1.968504,6,P-GPS,
4100,2022-08-28 20:41:15,0,0,1.968504,,,81.09786840878,3.937008,0.6263432,0,0,5,0,8.198,81.09786840878,1.968504,0.8052984,0,0.447388,0.447388,0,281, -4.6, -6.1,0,0,1024,1024,1024,1024,0,0,0,0,281.6,0,0,96,4.188,4.185,0,0,0,0,4.61,62.96,81.09786840878,1.968504,6,P-GPS,
4200,2022-08-28 20:41:15,0,0,1.968504,,,81.09786840878,3.937008,0.6263432,0,0,5,0,8.198,81.09786840878,1.968504,0.8052984,0,0.447388,0.447388,0,280.6, -3.3, -6.2,0,0,1024,1024,1024,1024,0,0,0,0,281.6,0,0,96,4.188,4.185,0,0,0,0,4.61,62.96,81.09786840878,1.968504,6,P-GPS,
4300,2022-08-28 20:41:15,0,0,1.968504,,,81.09786840878,3.937008,0.4921268,0,0,5,0,8.198,81.09786840878,1.968504,0.8052984,0,0.223694,0.447388,0,280.3, -4.3, -6,0,0,1024,1024,1024,1024,0,0,0,0,281.6,0,0,96,4.188,4.185,0,0,0,0,4.61,62.96,81.09786840878,1.968504,6,P-GPS,
4400,2022-08-28 20:41:15,0,0,1.968504,,,81.09786840878,3.937008,0.4921268,0,0,5,0,8.198,81.09786840878,1.968504,0.8052984,0,0.223694,0.447388,0,280.7, -6.1, -5,0,0,1024,1024,1024,1024,0,0,0,0,281.6,0,0,96,4.188,4.185,0,0,0,0,4.61,62.96,81.09786840878,1.968504,6,P-GPS,
4500,2022-08-28 20:41:15,0,0,1.968504,,,81.09786840878,3.937008,0.223694,0,0,5,0,8.198,81.09786840878,1.968504,0.8052984,0,0,0.223694,0,280.5, -7.1, -4,0,0,1024,1024,1024,1024,0,0,0,0,281.6,0,0,96,4.188,4.185,0,0,0,0,4.61,62.96,81.09786840878,1.968504,6,P-GPS,
4600,2022-08-28 20:41:15,0,0,1.968504,,,81.09786840878,3.937008,0.223694,0,0,5,0,8.198,81.09786840878,1.968504,0.8052984,0,0,0.223694,0,280, -6.2, -3.6,0,0,1024,1024,1024,1024,0,0,0,0,281.6,0,0,96,4.188,4.185,0,0,0,0,4.61,62.96,81.09786840878,1.968504,6,P-GPS,
4700,2022-08-28 20:41:15,0,0,1.968504,,,81.09786840878,3.937008,0,0,0,5,0,8.198,81.09786840878,1.968504,0.8052984,0,0,0,0,279.7, -4.7, -4.4,0,0,1024,1024,1024,1024,0,0,0,0,281.6,0,0,96,4.188,4.185,0,0,0,0,4.61,62.96,81.09786840878,1.968504,6,P-GPS,
4800,2022-08-28 20:41:15,0,0,1.968504,,,81.09786840878,3.937008,0,0,0,5,0,8.198,81.09786840878,1.968504,0.8052984,0,0,0,0,279.4, -4.4, -4.4,0,0,1024,1024,1024,1024,0,0,0,0,281.6,0,0,96,4.188,4.185,0,0,0,0,4.61,62.96,81.09786840878,1.968504,6,P-GPS,
4900,2022-08-28 20:41:15,0,0,2.296588,,,81.42595240878,3.937008,0,0,0,5,0,8.198,81.42595240878,2.296588,0.8052984,0,0,0,0,279.4, -5.3, -4,0,0,1024,1024,1024,1024,0,0,0,0,281.6,0,0,96,4.188,4.185,0,0,0,0,4.61,62.96,81.42595240878,2.296588,6,P-GPS,
5000,2022-08-28 20:41:15,0,0,2.296588,,,81.42595240878,3.937008,0,0,0,5,0,8.198,81.42595240878,2.296588,0.8052984,0,0,0,0,279.4, -6.2, -3.5,0,0,1024,1024,1024,1024,0,0,0,0,281.6,0,0,96,4.188,4.185,0,0,0,0,4.61,62.96,81.42595240878,2.296588,6,P-GPS,
5100,2022-08-28 20:41:16,0,0,2.296588,,,81.42595240878,3.937008,0,0,0,5,0,8.315,81.42595240878,2.296588,0.8052984,0,0,0,0,279.1, -5.9, -4.2,0,0,1024,1024,1024,1024,0,0,0,0,281.6,0,0,96,4.149,4.152,0,0,0,0,3.522,62.96,81.42595240878,2.296588,6,P-GPS,
5200,2022-08-28 20:41:16,0,0,2.296588,,,81.42595240878,3.937008,0,0,0,5,0,8.315,81.42595240878,2.296588,0.8052984,0,0,0,0,278.8, -5.2, -4.5,0,0,1024,1024,1024,1024,0,0,0,0,281.6,0,0,96,4.149,4.152,0,0,0,0,3.522,62.96,81.42595240878,2.296588,6,P-GPS,
5300,2022-08-28 20:41:16,0,0,2.296588,,,81.42595240878,3.937008,0,0,0,5,0,8.315,81.42595240878,2.296588,0.8052984,0,0,0,0,278.5, -5.1, -4.5,0,0,1024,1024,1024,1024,0,0,0,0,281.6,0,0,96,4.149,4.152,0,0,0,0,3.522,62.96,81.42595240878,2.296588,6,P-GPS,
5400,2022-08-28 20:41:16,0,0,2.296588,,,81.42595240878,3.937008,0,0,0,5,0,8.315,81.42595240878,2.296588,0.8052984,0,0,0,0,278.3, -4.7, -4.3,0,0,1024,1024,1024,1024,0,0,0,0,281.6,0,0,96,4.149,4.152,0,0,0,0,3.522,62.96,81.42595240878,2.296588,6,P-GPS,
5500,2022-08-28 20:41:16,0,0,2.296588,,,81.42595240878,3.937008,0,0,0,5,0,8.315,81.42595240878,2.296588,0.8052984,0,0,0,0,278.2, -4.5, -4.4,0,0,1024,1024,1024,1024,0,0,0,0,281.6,0,0,96,4.149,4.152,0,0,0,0,3.522,62.96,81.42595240878,2.296588,6,P-GPS,
5600,2022-08-28 20:41:16,0,0,2.296588,,,81.42595240878,3.937008,0,0,0,5,0,8.315,81.42595240878,2.296588,0.8052984,0,0,0,0,278.2, -5.2, -4.1,0,0,1024,1024,1024,1024,0,0,0,0,281.6,0,0,96,4.149,4.152,0,0,0,0,3.522,62.96,81.42595240878,2.296588,6,P-GPS,
5700,2022-08-28 20:41:16,0,0,2.296588,,,81.42595240878,3.937008,0,0,0,5,0,8.315,81.42595240878,2.296588,0.8052984,0,0,0,0,277.8, -4.8, -4.3,0,0,1024,1024,1024,1024,0,0,0,0,281.6,0,0,96,4.149,4.152,0,0,0,0,3.522,62.96,81.42595240878,2.296588,6,P-GPS,
5800,2022-08-28 20:41:16,0,0,2.296588,,,81.42595240878,3.937008,0,0,0,5,0,8.315,81.42595240878,2.296588,0.8052984,0,0,0,0,277.8, -4.6, -3.7,0,0,1024,1024,1024,1024,0,0,0,0,281.6,0,0,96,4.149,4.152,0,0,0,0,3.522,62.96,81.42595240878,2.296588,6,P-GPS,
5900,2022-08-28 20:41:16,0,0,2.296588,,,81.42595240878,3.937008,0,0,0,5,0,8.315,81.42595240878,2.296588,0.8052984,0,0,0,0,277.5, -4.6, -4,0,0,1024,1024,1024,1024,0,0,0,0,281.6,0,0,96,4.149,4.152,0,0,0,0,3.522,62.96,81.42595240878,2.296588,6,P-GPS,
6000,2022-08-28 20:41:16,0,0,2.296588,,,81.42595240878,3.937008,0,0,0,5,0,8.315,81.42595240878,2.296588,0.8052984,0,0,0,0,277.4, -4.4, -3.6,0,0,1024,1024,588,1024,0,0,-66,0,281.6,0,0,96,4.149,4.152,0,0,0,0,3.522,62.96,81.42595240878,2.296588,6,P-GPS,
6100,2022-08-28 20:41:16,0,0,2.296588,,,81.42595240878,3.937008,0,0,0,5,0,8.307,81.42595240878,2.296588,0.8052984,0,0,0,0,277.3, -4.7, -3.3,0,0,1024,1024,667,1024,0,0,-54,0,281.6,0,0,96,4.152,4.153,0,0,0,0,3.926,62.96,81.42595240878,2.296588,6,P-GPS,
6200,2022-08-28 20:41:17,0,0,2.296588,,,81.42595240878,3.937008,0,0,0,5,0,8.307,81.42595240878,2.296588,0.8052984,0,0,0,0.223694,277.1, -3.2, -2.9,0,0,1024,1024,1024,1024,0,0,0,0,281.6,0,0,96,4.152,4.153,0,0,0,0,3.926,62.96,81.42595240878,2.296588,6,P-GPS,
6300,2022-08-28 20:41:17,0,0,1.968504,,,81.09786840878,3.937008,0,0,0,5,0,8.307,81.42595240878,2.296588,0.8052984,0,0,0,0.447388,276.5, -2.3, -3.4,0,0,1024,1024,1024,1024,0,0,0,0,281.6,0,0,96,4.152,4.153,0,0,0,0,3.926,62.96,81.09786840878,1.968504,6,P-GPS,
6400,2022-08-28 20:41:17,0,0,1.968504,,,81.09786840878,3.937008,0,0,0,5,0,8.307,81.42595240878,2.296588,0.8052984,0,0,0,0.223694,276.7, -4.1, -1.9,0,0,1024,1024,1024,1024,0,0,0,0,281.6,0,0,96,4.152,4.153,0,0,0,0,3.926,62.96,81.09786840878,1.968504,6,P-GPS,
6500,2022-08-28 20:41:17,0,0,1.64042,,,80.76978440878,3.608924,0,0,0,5,0,8.307,81.42595240878,2.296588,0.8052984,0,0,0,0.223694,276.9, -4.9, -2,0,0,1024,1024,1024,1024,0,0,0,0,281.6,0,0,96,4.152,4.153,0,0,0,0,3.926,62.96,80.76978440878,1.64042,6,P-GPS,"En vuelo"
6600,2022-08-28 20:41:17,0,0,1.64042,,,80.76978440878,3.608924,0,0,0,5,0,8.307,81.42595240878,2.296588,0.8052984,0,0,0,0,276.9, -5.6, -2,0,0,1024,1024,1024,1024,0,0,0,0,281.6,0,0,96,4.152,4.153,0,0,0,0,3.926,62.96,80.76978440878,1.64042,6,P-GPS,
6700,2022-08-28 20:41:17,0,0,1.64042,,,80.76978440878,3.608924,0,0,0,5,0,8.307,81.42595240878,2.296588,0.8052984,0,0,0,0,277.5, -5.5, -1.4,0,0,1024,1024,1024,1024,0,0,0,0,281.6,0,0,96,4.152,4.153,0,0,0,0,3.926,62.96,80.76978440878,1.64042,6,P-GPS,
6800,2022-08-28 20:41:17,0,0,1.64042,,,80.76978440878,3.608924,0,0,0,5,0,8.307,81.42595240878,2.296588,0.8052984,0,0,0,0,277.5, -6.2, -2.5,0,0,1024,1024,1024,1024,0,0,0,0,281.6,0,0,96,4.152,4.153,0,0,0,0,3.926,62.96,80.76978440878,1.64042,6,P-GPS,
6900,2022-08-28 20:41:17,0,0,1.64042,,,80.76978440878,3.608924,0,0,0,5,0,8.307,81.42595240878,2.296588,0.8052984,0,0,0,0,277.4, -5.1, -3.1,0,0,1024,1024,1024,1024,0,0,0,0,281.6,0,0,96,4.152,4.153,0,0,0,0,3.926,62.96,80.76978440878,1.64042,6,P-GPS,
7000,2022-08-28 20:41:17,0,0,1.64042,,,80.76978440878,3.608924,0,0,0,5,0,8.307,81.42595240878,2.296588,0.8052984,0,0,0,0,277.1, -4.1, -3.6,0,0,1024,1024,1024,1024,0,0,0,0,281.6,0,0,96,4.152,4.153,0,0,0,0,3.926,62.96,80.76978440878,1.64042,6,P-GPS,
7100,2022-08-28 20:41:18,0,0,1.64042,,,80.76978440878,3.608924,0,0,0,5,0,8.309,81.42595240878,2.296588,0.8052984,0,0,0,0,276.9, -3.1, -4.4,0,0,1024,1024,1024,1024,0,0,0,0,281.6,0,0,96,4.149,4.147,0,0,0,0,3.806,62.96,80.76978440878,1.64042,6,P-GPS,
7200,2022-08-28 20:41:18,0,0,1.64042,,,80.76978440878,3.608924,0,0,0,5,0,8.309,81.42595240878,2.296588,0.8052984,0,0,0,0,276.8, -2.9, -4.8,0,0,1024,1024,1024,1024,0,0,0,0,281.6,0,0,96,4.149,4.147,0,0,0,0,3.806,62.96,80.76978440878,1.64042,6,P-GPS,
7300,2022-08-28 20:41:18,0,0,1.64042,,,80.76978440878,3.608924,0,0,0,5,0,8.309,81.42595240878,2.296588,0.8052984,0,0,0,0,276.8, -3, -4.4,0,0,1024,1024,1024,1024,0,0,0,0,281.6,0,0,96,4.149,4.147,0,0,0,0,3.806,62.96,80.76978440878,1.64042,6,P-GPS,
7400,2022-08-28 20:41:18,0,0,1.968504,,,81.09786840878,3.608924,0,0,0,5,0,8.309,81.42595240878,2.296588,0.8052984,0,0,0,0,276.8, -2.9, -4.9,0,0,454,1024,1024,1024,-86,0,0,0,281.6,0,0,96,4.149,4.147,0,0,0,0,3.806,62.96,81.09786840878,1.968504,6,P-GPS,
7500,2022-08-28 20:41:18,0,0,1.968504,,,81.09786840878,3.608924,0,0,0,5,0,8.309,81.42595240878,2.296588,0.8052984,0,0,0,0,276.7, -2, -4,0,0,364,1024,1024,1024,-100,0,0,0,281.6,0,0,96,4.149,4.147,0,0,0,0,3.806,62.96,81.09786840878,1.968504,6,P-GPS,
7600,2022-08-28 20:41:18,0,0,1.968504,,,81.09786840878,3.608924,0,0,0,5,0,8.309,81.42595240878,2.296588,0.8052984,0,0,0,0,276.3, 7.3, -3,0,0,364,1024,1024,1024,-100,0,0,0,281.6,0,0,96,4.149,4.147,0,0,0,0,3.806,62.96,81.09786840878,1.968504,6,P-GPS,
7700,2022-08-28 20:41:18,0,0,1.968504,,,81.09786840878,3.608924,0.447388,0,0,5,0,8.309,81.42595240878,2.296588,0.8052984,0,0,0.447388,0,276.1, 13.3, -3.9,0,0,364,1024,1024,1024,-100,0,0,0,281.6,0,0,96,4.149,4.147,0,0,0,0,3.806,62.96,81.09786840878,1.968504,6,P-GPS,
7800,2022-08-28 20:41:18,0,0,2.296588,,,81.42595240878,3.608924,1.11847,0,0,5,0,8.309,81.42595240878,2.296588,1.11847,0,0,1.11847,0,275.8, 14.4, -3.2,0,0,489,1024,1024,1024,-81,0,0,0,281.6,0,0,96,4.149,4.147,0,0,0,0,3.806,62.96,81.42595240878,2.296588,6,P-GPS,
7900,2022-08-28 20:41:18,0,0,2.624672,,,81.75403640878,3.608924,1.789552,0,0,5,0,8.309,81.75403640878,2.624672,1.789552,0,0,1.789552,0,275.5, 15.5, -4.3,0,0,489,1024,1024,1024,-81,0,0,0,281.6,0,0,96,4.149,4.147,0,0,0,0,3.806,62.96,81.75403640878,2.624672,6,P-GPS,
8000,2022-08-28 20:41:18,0,0,2.624672,,,81.75403640878,3.608924,1.789552,0,0,5,0,8.309,81.75403640878,2.624672,1.789552,0,0,2.460634,0,275.6, 14.4, -4.6,0,0,772,1024,1024,1024,-38,0,0,0,281.6,0,0,96,4.149,4.147,0,0,0,0,3.806,62.96,81.75403640878,2.624672,6,P-GPS,
8100,2022-08-28 20:41:19,0,0,2.624672,,,81.75403640878,3.608924,2.908022,0,0,5,0,8.285,81.75403640878,2.624672,2.908022,0,-0.223694,2.908022,0,276, 3.6, -3.5,0,0,412,1024,1024,1024,-93,0,0,0,281.6,0,0,96,4.15,4.144,0,0,0,0,3.841,62.96,81.75403640878,2.624672,6,P-GPS,
8200,2022-08-28 20:41:19,0,0,2.952756,,,82.08212040878,3.608924,2.908022,0,0,7,0,8.285,82.08212040878,2.952756,2.908022,0,-0.223694,3.131716,0,276.3, 2.9, -3.7,0,0,364,1024,1024,1024,-100,0,0,0,281.6,0,0,96,4.15,4.144,0,0,0,0,3.841,62.96,82.08212040878,2.952756,6,P-GPS,
8300,2022-08-28 20:41:19,0,0,2.952756,,,82.08212040878,3.608924,3.579104,0,0,7,0,8.285,82.08212040878,2.952756,3.579104,0,-0.223694,3.579104,0,276, 8.9, -4.2,0,0,713,1024,1024,1024,-47,0,0,0,281.6,0,0,96,4.15,4.144,0,0,0,0,3.841,62.96,82.08212040878,2.952756,6,P-GPS,
8400,2022-08-28 20:41:19,0,0,3.28084,,,82.41020440878,3.608924,4.026492,0,0,7,0,8.285,82.41020440878,3.28084,4.026492,0,-0.223694,4.026492,0,276, 10.3, -3.9,0,0,918,1024,1024,1024,-16,0,0,0,281.6,0,0,96,4.15,4.144,0,0,0,0,3.841,62.96,82.41020440878,3.28084,6,P-GPS,
8500,2022-08-28 20:41:19,0,0,3.28084,,,82.41020440878,3.608924,4.250186,0,0,7,0,8.285,82.41020440878,3.28084,4.250186,0,-0.223694,4.250186,0,276.2, 4.2, -4.3,0,0,1024,1024,1024,1024,0,0,0,0,281.6,0,0,96,4.15,4.144,0,0,0,0,3.841,62.96,82.41020440878,3.28084,6,P-GPS,
8600,2022-08-28 20:41:19,0,0,3.28084,,,82.41020440878,3.608924,4.47388,0,0,7,0,8.285,82.41020440878,3.28084,4.47388,0,-0.223694,4.47388,0,276.4, -2.5, -4.2,0,0,1024,1024,1024,1024,0,0,0,0,281.6,0,0,96,4.15,4.144,0,0,0,0,3.841,62.96,82.41020440878,3.28084,6,P-GPS,
8700,2022-08-28 20:41:19,0,0,2.952756,,,82.08212040878,3.28084,4.026492,0,0,7,0,8.285,82.41020440878,3.28084,4.47388,0,-0.223694,4.026492,0,276.9, -15.4, -3.6,0,0,1024,1024,1024,1024,0,0,0,0,281.6,0,0,96,4.15,4.144,0,0,0,0,3.841,62.96,82.08212040878,2.952756,6,P-GPS,
8800,2022-08-28 20:41:19,0,0,2.952756,,,82.08212040878,3.28084,3.579104,0,0,7,0,8.285,82.41020440878,3.28084,4.47388,0,-0.223694,3.579104,0,276.9, -18.7, -2.7,0,0,1024,1024,1024,1024,0,0,0,0,281.6,0,0,96,4.15,4.144,0,0,0,0,3.841,62.96,82.08212040878,2.952756,6,P-GPS,
8900,2022-08-28 20:41:19,0,0,2.952756,,,82.08212040878,3.28084,2.908022,0,0,7,0,8.285,82.41020440878,3.28084,4.47388,0,-0.223694,2.908022,0,276.7, -17.7, -3,0,0,1006,1024,1024,1024,-3,0,0,0,281.6,0,0,96,4.15,4.144,0,0,0,0,3.841,62.96,82.08212040878,2.952756,6,P-GPS,
9000,2022-08-28 20:41:19,0,0,2.952756,,,82.08212040878,3.28084,2.23694,0,0,7,0,8.271,82.41020440878,3.28084,4.47388,0,0,2.23694,0,276.6, -16.3, -3.1,0,0,520,1024,1024,1024,-76,0,0,0,281.6,0,0,95,4.127,4.128,0,0,0,0,3.996,62.96,82.08212040878,2.952756,6,P-GPS,
9100,2022-08-28 20:41:19,0,0,2.952756,,,82.08212040878,3.28084,1.789552,0,0,7,0,8.271,82.41020440878,3.28084,4.47388,0,0,1.789552,0,276.4, -8.4, -3.2,0,0,504,1024,1024,1024,-79,0,0,0,281.6,0,0,95,4.127,4.128,0,0,0,0,3.996,62.96,82.08212040878,2.952756,6,P-GPS,
9200,2022-08-28 20:41:20,0,0,2.952756,,,82.08212040878,3.28084,1.565858,0,0,7,0,8.271,82.41020440878,3.28084,4.47388,0,0,1.565858,0,276.1, 1.7, -3.3,0,0,1024,1024,1024,1024,0,0,0,0,281.6,0,0,95,4.127,4.128,0,0,0,0,3.996,62.96,82.08212040878,2.952756,6,P-GPS,
9300,2022-08-28 20:41:20,0,0,2.952756,,,82.08212040878,3.28084,1.565858,0,0,7,0,8.271,82.41020440878,3.28084,4.47388,0,0,1.565858,0,276, 1.7, -3.4,0,0,1024,1024,1024,1024,0,0,0,0,281.6,0,0,95,4.127,4.128,0,0,0,0,3.996,62.96,82.08212040878,2.952756,6,P-GPS,
9400,2022-08-28 20:41:20,0,0,2.952756,,,82.08212040878,2.952756,1.565858,0,0,7,0,8.271,82.41020440878,3.28084,4.47388,0,0,1.565858,0,276.4, -9.8, -4.2,0,0,944,1024,1024,1024,-12,0,0,0,281.6,0,0,95,4.127,4.128,0,0,0,0,3.996,62.96,82.08212040878,2.952756,6,P-GPS,
9500,2022-08-28 20:41:20,0,0,2.952756,,,82.08212040878,2.952756,1.342164,0,0,7,0,8.271,82.41020440878,3.28084,4.47388,0,0,1.342164,0,276.5, -10.9, -4,0,0,467,1024,1024,1024,-84,0,0,0,281.6,0,0,95,4.127,4.128,0,0,0,0,3.996,62.96,82.08212040878,2.952756,6,P-GPS,
9600,2022-08-28 20:41:20,0,0,2.952756,,,82.08212040878,2.952756,1.11847,0,0,7,0,8.271,82.41020440878,3.28084,4.47388,0,0,1.11847,0,276.4, -8.2, -3.1,0,0,364,1024,1024,1024,-100,0,0,0,281.6,0,0,95,4.127,4.128,0,0,0,0,3.996,62.96,82.08212040878,2.952756,6,P-GPS,
9700,2022-08-28 20:41:20,0,0,2.952756,,,82.08212040878,2.952756,1.11847,0,0,7,0,8.271,82.41020440878,3.28084,4.47388,0,0,1.11847,0,276, 0.8, -2.9,0,0,364,1024,1024,1024,-100,0,0,0,281.6,0,0,95,4.127,4.128,0,0,0,0,3.996,62.96,82.08212040878,2.952756,6,P-GPS,
9800,2022-08-28 20:41:20,0,0,2.624672,,,81.75403640878,2.952756,1.342164,0,0,7,0,8.271,82.41020440878,3.28084,4.47388,0,0,1.342164,0,275.8, 8.8, -2.6,0,0,364,1024,1024,1024,-100,0,0,0,281.6,0,0,95,4.127,4.128,0,0,0,0,3.996,62.96,81.75403640878,2.624672,6,P-GPS,
9900,2022-08-28 20:41:20,0,0,2.624672,,,81.75403640878,2.952756,1.789552,0,0,7,0,8.271,82.41020440878,3.28084,4.47388,0,0,1.789552,0,275.6, 11.1, -2.2,0,0,364,1024,1024,1024,-100,0,0,0,281.6,0,0,95,4.127,4.128,0,0,0,0,3.996,62.96,81.75403640878,2.624672,6,P-GPS,
10000,2022-08-28 20:41:20,0,0,2.624672,,,81.75403640878,2.952756,2.460634,0,0,7,0,8.264,82.41020440878,3.28084,4.47388,0,0,2.460634,0,275.5, 12, -2.4,0,0,364,1024,1024,1024,-100,0,0,0,281.6,0,0,95,4.116,4.124,0,0,0,0,4.221,62.96,81.75403640878,2.624672,6,P-GPS,
10100,2022-08-28 20:41:21,0,0,2.624672,,,81.75403640878,2.952756,2.908022,0,0,7,0,8.264,82.41020440878,3.28084,4.47388,0,-0.223694,2.908022,0,275.5, 12.3, -2.5,0,0,791,1024,1024,1024,-35,0,0,0,281.6,0,0,95,4.116,4.124,0,0,0,0,4.221,62.96,81.75403640878,2.624672,6,P-GPS,
10200,2022-08-28 20:41:21,0,0,2.952756,,,82.08212040878,2.952756,3.579104,0,0,7,0,8.264,82.41020440878,3.28084,4.47388,0,-0.223694,3.579104,0,275.7, 8.1, -2.8,0,0,1024,1024,1024,1024,0,0,0,0,281.6,0,0,95,4.116,4.124,0,0,0,0,4.221,62.96,82.08212040878,2.952756,6,P-GPS,
10300,2022-08-28 20:41:21,0,0,2.952756,,,82.08212040878,2.952756,3.802798,0,0,7,0,8.264,82.41020440878,3.28084,4.47388,0,-0.223694,3.802798,0,276, 0.2, -3.5,0,0,1024,1024,1024,1024,0,0,0,0,281.6,0,0,95,4.116,4.124,0,0,0,0,4.221,62.96,82.08212040878,2.952756,6,P-GPS,
10400,2022-08-28 20:41:21,0,0,2.952756,,,82.08212040878,2.952756,3.802798,0,0,7,0,8.264,82.41020440878,3.28084,4.47388,0,-0.223694,3.802798,0,276.8, -13.4, -3.8,0,0,911,1024,1024,1024,-17,0,0,0,281.6,0,0,95,4.116,4.124,0,0,0,0,4.221,62.96,82.08212040878,2.952756,6,P-GPS,
10500,2022-08-28 20:41:21,0,0,2.952756,,,82.08212040878,2.952756,3.35541,0,0,7,0,8.264,82.41020440878,3.28084,4.47388,0,-0.223694,3.35541,0,276.9, -18.6, -3.7,0,0,927,1024,1024,1024,-15,0,0,0,281.6,0,0,95,4.116,4.124,0,0,0,0,4.221,62.96,82.08212040878,2.952756,6,P-GPS,
10600,2022-08-28 20:41:21,0,0,2.952756,,,82.08212040878,2.952756,2.908022,0,0,7,0,8.264,82.41020440878,3.28084,4.47388,0,0,2.908022,0,276.7, -15.2, -3.6,0,0,1024,1024,1024,1024,0,0,0,0,281.6,0,0,95,4.116,4.124,0,0,0,0,4.221,62.96,82.08212040878,2.952756,6,P-GPS,
10700,2022-08-28 20:41:21,0,0,2.952756,,,82.08212040878,2.952756,2.460634,0,0,7,0,8.264,82.41020440878,3.28084,4.47388,0,0,2.460634,0,276.4, -9.7, -3.5,0,0,1024,1024,1024,1024,0,0,0,0,281.6,0,0,95,4.116,4.124,0,0,0,0,4.221,62.96,82.08212040878,2.952756,6,P-GPS,
10800,2022-08-28 20:41:21,0,0,2.952756,,,82.08212040878,2.624672,2.013246,0,0,7,0,8.264,82.41020440878,3.28084,4.47388,0,0,2.013246,0,276.6, -12.8, -3.6,0,0,1024,887,1024,1024,0,-21,0,0,281.6,0,0,95,4.116,4.124,0,0,0,0,4.221,62.96,82.08212040878,2.952756,6,P-GPS,
10900,2022-08-28 20:41:21,0,0,2.952756,,,82.08212040878,2.624672,1.565858,0,0,7,0,8.264,82.41020440878,3.28084,4.47388,0,0,1.565858,0,276.6, -12.6, -3.9,0,0,1024,515,1024,1024,0,-77,0,0,281.6,0,0,95,4.116,4.124,0,0,0,0,4.221,62.96,82.08212040878,2.952756,6,P-GPS,
11000,2022-08-28 20:41:21,0,0,2.952756,,,82.08212040878,2.624672,1.11847,0,0,7,0,8.247,82.41020440878,3.28084,4.47388,0,0,1.11847,0,276.6, -9, -7.8,0,0,1024,364,1024,1024,0,-100,0,0,281.6,0,0,95,4.11,4.111,0,0,0,0,4.094,62.96,82.08212040878,2.952756,6,P-GPS,
11100,2022-08-28 20:41:22,0,0,2.952756,,,82.08212040878,2.624672,0.9171454,0,0,7,0,8.247,82.41020440878,3.28084,4.47388,0,-0.223694,0.894776,0,276.5, -7, -14.7,0,0,1024,647,1024,1024,0,-57,0,0,281.6,0,0,95,4.11,4.111,0,0,0,0,4.094,62.96,82.08212040878,2.952756,6,P-GPS,
11200,2022-08-28 20:41:22,0,0,2.952756,,,82.08212040878,2.624672,0.9395148,0,0,7,0,8.247,82.41020440878,3.28084,4.47388,0,-0.671082,0.671082,0,276.6, -5.8, -18.6,0,0,1024,1024,1024,1024,0,0,0,0,281.6,0,0,95,4.11,4.111,0,0,0,0,4.094,62.96,82.08212040878,2.952756,6,P-GPS,
11300,2022-08-28 20:41:22,0,0,2.952756,,,82.08212040878,2.624672,0.9395148,0,0,7,0,8.247,82.41020440878,3.28084,4.47388,0,-1.342164,0.447388,0,276.9, -5.7, -13.9,0,0,1024,1024,1024,1024,0,0,0,0,281.6,0,0,95,4.11,4.111,0,0,0,0,4.094,62.96,82.08212040878,2.952756,6,P-GPS,
11400,2022-08-28 20:41:22,0,0,2.952756,,,82.08212040878,2.624672,1.4092722,0,0,7,0,8.247,82.41020440878,3.28084,4.47388,0,-1.342164,0.447388,0,276.8, -6.4, -0.2,0,0,1024,1024,1024,1024,0,0,0,0,281.6,0,0,95,4.11,4.111,0,0,0,0,4.094,62.96,82.08212040878,2.952756,6,P-GPS,
11500,2022-08-28 20:41:22,0,0,2.952756,,,82.08212040878,2.624672,1.3645334,0,0,7,0,8.247,82.41020440878,3.28084,4.47388,0,-1.342164,0.223694,0,276.3, -6.5, 3.3,0,0,1024,1024,1024,1024,0,0,0,0,281.6,0,0,95,4.11,4.111,0,0,0,0,4.094,62.96,82.08212040878,2.952756,6,P-GPS,
11600,2022-08-28 20:41:22,0,0,3.28084,,,82.41020440878,2.624672,1.1408394,0,0,7,0,8.247,82.41020440878,3.28084,4.47388,0,-1.11847,0.223694,0,276, -6.1, 2.7,0,0,1024,1024,1024,1024,0,0,0,0,281.6,0,0,95,4.11,4.111,0,0,0,0,4.094,62.96,82.41020440878,3.28084,6,P-GPS,
11700,2022-08-28 20:41:22,0,0,3.28084,,,82.41020440878,2.624672,0.894776,0,0,7,0,8.247,82.41020440878,3.28084,4.47388,0,-0.894776,0,0,276, -5.6, 1.9,0,0,1024,1024,1024,1024,0,0,0,0,281.6,0,0,95,4.11,4.111,0,0,0,0,4.094,62.96,82.41020440878,3.28084,6,P-GPS,
11800,2022-08-28 20:41:22,0,0,3.28084,,,82.41020440878,2.624672,0.671082,0,0,7,0,8.247,82.41020440878,3.28084,4.47388,0,-0.671082,0,0,276, -4.8, 0.9,0,0,1024,1024,1024,1024,0,0,0,0,281.6,0,0,95,4.11,4.111,0,0,0,0,4.094,62.96,82.41020440878,3.28084,6,P-GPS,
11900,2022-08-28 20:41:22,0,0,3.28084,,,82.41020440878,2.624672,0.447388,0,0,7,0,8.247,82.41020440878,3.28084,4.47388,0,-0.447388,0,0,276, -4.9, 0.5,0,0,1024,770,1024,1024,0,-38,0,0,281.6,0,0,95,4.11,4.111,0,0,0,0,4.094,62.96,82.41020440878,3.28084,6,P-GPS,
12000,2022-08-28 20:41:22,0,0,3.28084,,,82.41020440878,2.624672,0.223694,0,0,7,0,8.218,82.41020440878,3.28084,4.47388,0,-0.223694,0,0,276.1, -4.6, -1.2,0,0,1024,701,1024,1024,0,-49,0,0,281.6,0,0,95,4.126,4.125,0,0,0,0,4.304,63.14,82.41020440878,3.28084,6,P-GPS,
12100,2022-08-28 20:41:22,0,0,3.28084,,,82.41020440878,2.624672,0,0,0,7,0,8.218,82.41020440878,3.28084,4.47388,0,0,0,0,276.1, -4.5, -5.8,0,0,1024,1024,1024,1024,0,0,0,0,281.6,0,0,95,4.126,4.125,0,0,0,0,4.304,63.14,82.41020440878,3.28084,6,P-GPS,
12200,2022-08-28 20:41:23,0,0,3.28084,,,82.41020440878,2.624672,0.223694,0,0,7,0,8.218,82.41020440878,3.28084,4.47388,0,-0.223694,0,0,276.4, -5.2, -6.1,0,0,1024,1024,1024,1024,0,0,0,0,281.6,0,0,95,4.126,4.125,0,0,0,0,4.304,63.14,82.41020440878,3.28084,6,P-GPS,
12300,2022-08-28 20:41:23,0,0,2.952756,,,82.08212040878,2.624672,0.223694,0,0,7,0,8.218,82.41020440878,3.28084,4.47388,0,-0.223694,0,0,276.4, -4.8, -1.4,0,0,1024,1024,1024,1024,0,0,0,0,281.6,0,0,95,4.126,4.125,0,0,0,0,4.304,63.14,82.08212040878,2.952756,6,P-GPS,
12400,2022-08-28 20:41:23,0,0,2.952756,,,82.08212040878,2.624672,0.223694,0,0,7,0,8.218,82.41020440878,3.28084,4.47388,0,-0.223694,0,0,276.2, -4.2, -1.1,0,0,1024,1024,1024,1024,0,0,0,0,281.6,0,0,95,4.126,4.125,0,0,0,0,4.304,63.14,82.08212040878,2.952756,6,P-GPS,
12500,2022-08-28 20:41:23,0,0,2.952756,,,82.08212040878,2.624672,0,0,0,7,0,8.218,82.41020440878,3.28084,4.47388,0,0,0,0,276, -4.3, -1.6,0,0,1024,975,1024,1024,0,-7,0,0,281.6,0,0,95,4.126,4.125,0,0,0,0,4.304,63.14,82.08212040878,2.952756,6,P-GPS,
12600,2022-08-28 20:41:23,0,0,2.952756,,,82.08212040878,2.624672,0,0,0,7,0,8.218,82.41020440878,3.28084,4.47388,0,0,0,0,276, -3.8, -2,0,0,1024,975,1024,1024,0,-7,0,0,281.6,0,0,95,4.126,4.125,0,0,0,0,4.304,63.14,82.08212040878,2.952756,6,P-GPS,
12700,2022-08-28 20:41:23,0,0,2.952756,,,82.08212040878,2.624672,0,0,0,7,0,8.218,82.41020440878,3.28084,4.47388,0,0,0,0,276, -4, -2,0,0,1024,724,1024,1024,0,-45,0,0,281.6,0,0,95,4.126,4.125,0,0,0,0,4.304,63.14,82.08212040878,2.952756,6,P-GPS,
12800,2022-08-28 20:41:23,0,0,2.624672,,,81.75403640878,2.624672,0,0,0,7,0,8.218,82.41020440878,3.28084,4.47388,0,0,0,0,276, -4.6, -3.3,0,0,1024,615,1024,1024,0,-62,0,0,281.6,0,0,95,4.126,4.125,0,0,0,0,4.304,63.14,81.75403640878,2.624672,6,P-GPS,
12900,2022-08-28 20:41:23,0,0,2.624672,,,81.75403640878,2.624672,0.223694,0,0,7,0,8.218,82.41020440878,3.28084,4.47388,0,-0.223694,0,0,275.9, -4.1, -8.2,0,0,1024,622,1024,1024,0,-61,0,0,281.6,0,0,95,4.126,4.125,0,0,0,0,4.304,63.14,81.75403640878,2.624672,6,P-GPS,
13000,2022-08-28 20:41:23,0,0,2.624672,,,81.75403640878,2.624672,0.447388,0,0,7,0,8.241,82.41020440878,3.28084,4.47388,0,-0.447388,0,0,276.1, -3.9, -10.1,0,0,1024,638,1024,1024,0,-58,0,0,281.6,0,0,95,4.122,4.122,0,0,0,0,3.927,63.14,81.75403640878,2.624672,6,P-GPS,
13100,2022-08-28 20:41:24,0,0,2.624672,,,81.75403640878,2.624672,0.671082,0,0,7,0,8.241,82.41020440878,3.28084,4.47388,0,-0.671082,0,0,276.4, -4.6, -9.8,0,0,1024,782,1024,1024,0,-37,0,0,281.6,0,0,95,4.122,4.122,0,0,0,0,3.927,63.14,81.75403640878,2.624672,6,P-GPS,
13200,2022-08-28 20:41:24,0,0,2.624672,,,81.75403640878,2.624672,0.894776,0,0,7,0,8.241,82.41020440878,3.28084,4.47388,0,-0.894776,0,0,276.2, -3.2, -11.1,0,0,1024,763,1024,1024,0,-40,0,0,281.6,0,0,95,4.122,4.122,0,0,0,0,3.927,63.14,81.75403640878,2.624672,6,P-GPS,
13300,2022-08-28 20:41:24,0,0,2.624672,,,81.75403640878,2.624672,1.342164,0,0,7,0,8.241,82.41020440878,3.28084,4.47388,0,-1.342164,0,0,276.6, -3.6, -8.1,0,0,1024,740,1024,1024,0,-43,0,0,281.6,0,0,95,4.122,4.122,0,0,0,0,3.927,63.14,81.75403640878,2.624672,6,P-GPS,
13400,2022-08-28 20:41:24,0,0,2.624672,,,81.75403640878,2.624672,1.342164,0,0,7,0,8.241,82.41020440878,3.28084,4.47388,0,-1.342164,0,0,276.5, -3.8, -7.5,0,0,1024,740,1024,1024,0,-43,0,0,281.6,0,0,95,4.122,4.122,0,0,0,0,3.927,63.14,81.75403640878,2.624672,6,P-GPS,
13500,2022-08-28 20:41:24,0,0,2.296588,,,81.42595240878,2.624672,1.565858,0,0,7,0,8.241,82.41020440878,3.28084,4.47388,0,-1.565858,0,0,276.7, -4.7, -7.6,0,0,1024,749,1024,1024,0,-42,0,0,281.6,0,0,95,4.122,4.122,0,0,0,0,3.927,63.14,81.42595240878,2.296588,6,P-GPS,
13600,2022-08-28 20:41:24,0,0,2.296588,,,81.42595240878,2.624672,1.789552,0,0,7,0,8.241,82.41020440878,3.28084,4.47388,0,-1.789552,0,0,276.9, -5.4, -7.1,0,0,1024,758,1024,1024,0,-40,0,0,281.6,0,0,95,4.122,4.122,0,0,0,0,3.927,63.14,81.42595240878,2.296588,6,P-GPS,
13700,2022-08-28 20:41:24,0,0,2.296588,,,81.42595240878,2.624672,1.789552,0,0,7,0,8.241,82.41020440878,3.28084,4.47388,0,-1.789552,0,0,276.7, -5.9, -6.2,0,0,1024,776,1024,1024,0,-38,0,0,281.6,0,0,95,4.122,4.122,0,0,0,0,3.927,63.14,81.42595240878,2.296588,6,P-GPS,
13800,2022-08-28 20:41:24,0,0,2.296588,,,81.42595240878,2.624672,1.789552,0,0,7,0,8.241,82.41020440878,3.28084,4.47388,0,-1.789552,0,0,276.4, -5, -6.9,0,0,1024,787,1024,1024,0,-36,0,0,281.6,0,0,95,4.122,4.122,0,0,0,0,3.927,63.14,81.42595240878,2.296588,6,P-GPS,
13900,2022-08-28 20:41:24,0,0,2.296588,,,81.42595240878,2.624672,1.789552,0,0,7,0,8.241,82.41020440878,3.28084,4.47388,0,-1.789552,0,0,276.4, -4.7, -6.9,0,0,1024,940,1024,1024,0,-13,0,0,281.6,0,0,95,4.122,4.122,0,0,0,0,3.927,63.14,81.42595240878,2.296588,6,P-GPS,
14000,2022-08-28 20:41:24,0,0,2.296588,,,81.42595240878,2.624672,1.8119214,0,0,7,0,8.241,82.41020440878,3.28084,4.47388,0,-1.789552,-0.223694,0,276.2, -4.7, -6.5,0,0,1024,1024,1024,1024,0,0,0,0,281.6,0,0,95,4.122,4.122,0,0,0,0,3.927,63.14,81.42595240878,2.296588,6,P-GPS,
14100,2022-08-28 20:41:25,0,0,2.296588,,,81.42595240878,2.624672,1.8119214,0,0,7,0,8.245,82.41020440878,3.28084,4.47388,0,-1.789552,-0.223694,0,276, -3.7, -4.4,0,0,1024,1024,1024,1024,0,0,0,0,281.6,0,0,95,4.117,4.12,0,0,0,0,3.941,63.14,81.42595240878,2.296588,6,P-GPS,
14200,2022-08-28 20:41:25,0,0,2.624672,,,81.75403640878,2.624672,1.8119214,0,0,8,0,8.245,82.41020440878,3.28084,4.47388,0,-1.789552,-0.223694,0,276.1, -3, 3,0,0,1024,1024,1024,1024,0,0,0,0,281.6,0,0,95,4.117,4.12,0,0,0,0,3.941,63.14,81.75403640878,2.624672,6,P-GPS,
14300,2022-08-28 20:41:25,0,0,2.624672,,,81.75403640878,2.624672,1.5882274,0,0,8,0,8.245,82.41020440878,3.28084,4.47388,0,-1.565858,-0.223694,0,276.3, -2.1, 4.4,0,0,1024,1024,1024,1024,0,0,0,0,281.6,0,0,95,4.117,4.12,0,0,0,0,3.941,63.14,81.75403640878,2.624672,6,P-GPS,
14400,2022-08-28 20:41:25,0,0,2.624672,,,81.75403640878,2.624672,1.1408394,0,0,8,0,8.245,82.41020440878,3.28084,4.47388,0,-1.11847,-0.223694,0,276, -3, 4,0,0,1024,1510,1024,1024,0,74,0,0,281.6,0,0,95,4.117,4.12,0,0,0,0,3.941,63.14,81.75403640878,2.624672,6,P-GPS,
14500,2022-08-28 20:41:25,0,0,2.624672,,,81.75403640878,2.624672,1.1408394,0,0,8,0,8.245,82.41020440878,3.28084,4.47388,0,-0.894776,0,0,276, -5, 5,0,0,1024,1684,1024,1024,0,100,0,0,281.6,0,0,95,4.117,4.12,0,0,0,0,3.941,63.14,81.75403640878,2.624672,6,P-GPS,
14600,2022-08-28 20:41:25,0,0,2.624672,,,81.75403640878,2.624672,0.447388,0,0,8,0,8.245,82.41020440878,3.28084,4.47388,0,-0.447388,0,0,276.1, -3.8, 13.1,0,0,1024,1024,1024,1024,0,0,0,0,281.6,0,0,95,4.117,4.12,0,0,0,0,3.941,63.14,81.75403640878,2.624672,6,P-GPS,
14700,2022-08-28 20:41:25,0,0,2.624672,,,81.75403640878,2.624672,0.223694,0,0,8,0,8.245,82.41020440878,3.28084,4.47388,0,0.223694,0,0,276.1, -2.4, 9.4,0,0,1024,1024,1024,1024,0,0,0,0,281.6,0,0,95,4.117,4.12,0,0,0,0,3.941,63.14,81.75403640878,2.624672,6,P-GPS,
14800,2022-08-28 20:41:25,0,0,2.624672,,,81.75403640878,2.624672,0.671082,0,0,8,0,8.245,82.41020440878,3.28084,4.47388,0,0.671082,0,0,275.6, -2.3, -3.7,0,0,1024,1024,1024,1024,0,0,0,0,281.6,0,0,95,4.117,4.12,0,0,0,0,3.941,63.14,81.75403640878,2.624672,6,P-GPS,
14900,2022-08-28 20:41:25,0,0,2.952756,,,82.08212040878,2.624672,0.671082,0,0,8,0,8.245,82.41020440878,3.28084,4.47388,0,0.671082,0,0,275.9, -2.5, -6,0,0,1024,1024,1024,1024,0,0,0,0,281.6,0,0,95,4.117,4.12,0,0,0,0,3.941,63.14,82.08212040878,2.952756,6,P-GPS,
15000,2022-08-28 20:41:25,0,0,2.952756,,,82.08212040878,2.624672,0.447388,0,0,8,0,8.245,82.41020440878,3.28084,4.47388,0,0.447388,0,0,276, -2.6, -6.6,0,0,1024,1024,1024,1024,0,0,0,0,281.6,0,0,95,4.117,4.12,0,0,0,0,3.941,63.14,82.08212040878,2.952756,6,P-GPS,
15100,2022-08-28 20:41:25,0,0,2.624672,,,81.75403640878,2.624672,0.447388,0,0,8,0,8.264,82.41020440878,3.28084,4.47388,0,0.447388,0,0,276.5, -4.5, -5.6,0,0,1024,1342,1024,1024,0,48,0,0,281.6,0,0,95,4.132,4.121,0,0,0,0,3.834,63.14,81.75403640878,2.624672,6,P-GPS,
15200,2022-08-28 20:41:26,0,0,2.624672,,,81.75403640878,2.624672,0.447388,0,0,8,0,8.264,82.41020440878,3.28084,4.47388,0,0.447388,0,0,276.5, -4.9, -5.6,0,0,1024,1342,1024,1024,0,48,0,0,281.6,0,0,95,4.132,4.121,0,0,0,0,3.834,63.14,81.75403640878,2.624672,6,P-GPS,
15300,2022-08-28 20:41:26,0,0,2.624672,,,81.75403640878,2.624672,0.223694,0,0,8,0,8.264,82.41020440878,3.28084,4.47388,0,0.223694,0,0,276.3, -4.4, -2.9,0,0,1024,1051,1024,1024,0,4,0,0,281.6,0,0,95,4.132,4.121,0,0,0,0,3.834,63.14,81.75403640878,2.624672,6,P-GPS,
15400,2022-08-28 20:41:26,0,0,2.624672,,,81.75403640878,2.624672,0.223694,0,0,8,2,8.264,82.41020440878,3.28084,4.47388,0,0.223694,0,0,276.3, -4.6, -0.8,0,0,1024,1024,1024,1024,0,0,0,0,281.6,0,0,95,4.132,4.121,0,0,0,0,3.834,63.14,81.75403640878,2.624672,6,P-GPS,
15500,2022-08-28 20:41:26,0,0,2.624672,,,81.75403640878,2.624672,0.223694,0,0,8,2,8.264,82.41020440878,3.28084,4.47388,0,0.223694,0,0,275.9, -4.4, -4.7,0,0,1024,1024,1024,1024,0,0,0,0,281.6,0,0,95,4.132,4.121,0,0,0,0,3.834,63.14,81.75403640878,2.624672,6,P-GPS,
15600,2022-08-28 20:41:26,0,0,2.296588,,,81.42595240878,2.624672,0,0,0,8,2,8.264,82.41020440878,3.28084,4.47388,0,0,0,0,275.9, -4.9, -4.5,0,0,1024,1024,1024,1024,0,0,0,0,281.6,0,0,95,4.132,4.121,0,0,0,0,3.834,63.14,81.42595240878,2.296588,6,P-GPS,
15700,2022-08-28 20:41:26,0,0,2.296588,,,81.42595240878,2.624672,0,0,0,8,2,8.264,82.41020440878,3.28084,4.47388,0,0,0,0,275.9, -5.1, -4.5,0,0,1024,1024,1024,1024,0,0,0,0,281.6,0,0,95,4.132,4.121,0,0,0,0,3.834,63.14,81.42595240878,2.296588,6,P-GPS,"Setting new Maximum Flight Altitude to 120m (394 ft)"
15800,2022-08-28 20:41:26,0,0,2.296588,,,81.42595240878,2.624672,0,0,0,8,2,8.264,82.41020440878,3.28084,4.47388,0,0,0,0,276.1, -4.9, -3.6,0,0,1024,1024,1024,1024,0,0,0,0,281.6,0,0,95,4.132,4.121,0,0,0,0,3.834,63.14,81.42595240878,2.296588,6,P-GPS,
15900,2022-08-28 20:41:26,0,0,1.968504,,,81.09786840878,2.624672,0,0,0,8,2,8.264,82.41020440878,3.28084,4.47388,0,0,0,0,276.1, -4.9, -3.5,0,0,1024,1024,1024,1030,0,0,0,1,281.6,0,0,95,4.132,4.121,0,0,0,0,3.834,63.14,81.09786840878,1.968504,6,P-GPS,
16000,2022-08-28 20:41:26,0,0,1.968504,,,81.09786840878,2.624672,0,0,0,8,2,8.264,82.41020440878,3.28084,4.47388,0,0,0,0,276, -4.4, -3.9,0,0,1024,1024,1024,1207,0,0,0,28,281.6,0,0,95,4.132,4.121,0,0,0,0,3.834,63.14,81.09786840878,1.968504,6,P-GPS,
16100,2022-08-28 20:41:27,0,0,1.968504,,,81.09786840878,2.624672,0,0,0,8,2,8.239,82.41020440878,3.28084,4.47388,0,0,0,0,276, -5.1, -3.5,0,0,1024,1024,1024,1024,0,0,0,0,281.7,0,0,95,4.123,4.115,0,0,0,0,3.973,63.32,81.09786840878,1.968504,6,P-GPS,
16200,2022-08-28 20:41:27,-34.909721335496,-56.1393456898512,1.64042,1.64042,79.12936440878,80.76978440878,2.624672,0,0,0,8,2,8.239,82.41020440878,3.28084,4.47388,0,0,0,0,276.4, -5.7, -2.6,0,0,1024,1024,1024,1024,0,0,0,0,281.9,0,0,95,4.123,4.115,0,0,0,0,3.973,63.32,80.76978440878,1.64042,6,P-GPS,
16300,2022-08-28 20:41:27,-34.909719511743,-56.1393460674038,1.64042,1.7716536,78.99813080878,80.76978440878,2.624672,0,0.67491471976,0.67491471976,8,2,8.239,82.41020440878,3.28084,4.47388,0.67491471976,0,0,0,276.7, -6.1, -2.6,0,0,1024,1024,1024,1024,0,0,0,0,282.1,0,0,95,4.123,4.115,0,0,0,0,3.973,63.32,80.76978440878,1.64042,6,P-GPS,
16400,2022-08-28 20:41:27,-34.9097176698034,-56.1393464555286,1.64042,2.0013124,78.76847200878,80.76978440878,2.624672,0,1.35690293056,1.3569062114,8,2,8.239,82.41020440878,3.28084,4.47388,1.35690293056,0,0,0,277, -5.7, -2.3,0,0,1024,1226,1024,1024,0,31,0,0,282.2,0,0,95,4.123,4.115,0,0,0,0,3.973,63.32,80.76978440878,1.64042,6,P-GPS,
16500,2022-08-28 20:41:27,-34.9101161110189,-56.1391398131119,1.64042,45.8005264,34.96925800878,80.76978440878,2.624672,0,156.652235984,159.329401424,8,2,8.239,82.41020440878,3.28084,4.47388,156.652235984,0,0,0,276.9, -5.3, -2.2,0,0,1024,1272,1024,1024,0,38,0,0,282.2,0,0,95,4.123,4.115,0,0,0,0,3.973,63.32,80.76978440878,1.64042,6,P-GPS,
16600,2022-08-28 20:41:27,-34.9105354911126,-56.1389223036191,1.64042,114.00919,-33.23940559122,80.76978440878,2.624672,0,322.926847604,325.604013044,8,2,8.239,82.41020440878,3.28084,4.47388,322.926847604,0,0,0,277, -4.8, 0.2,0,0,1024,1062,1024,1024,0,6,0,0,282.2,0,0,95,4.123,4.115,0,0,0,0,3.973,63.32,80.76978440878,1.64042,6,P-GPS,
16700,2022-08-28 20:41:27,-34.9105633686508,-56.1389103798741,1.64042,116.305778,-35.53599359122,80.76978440878,2.624672,0.223694,333.68439388,336.38124436,8,2,8.239,82.41020440878,3.28084,4.47388,333.68439388,0.223694,0,0,277, -5.2, -0.1,0,0,1024,1024,1024,1024,0,0,0,0,282.2,0,0,95,4.123,4.115,0,0,0,0,3.973,63.32,80.76978440878,1.64042,6,P-GPS,
16800,2022-08-28 20:41:27,-34.9105624450959,-56.1389112115969,1.64042,116.3385864,-35.56880199122,80.76978440878,2.624672,0.447388,333.27428888,336.80119188,8,2,8.239,82.41020440878,3.28084,4.47388,333.68439388,0.447388,0,0,276.8, -4.8, -4.1,0,0,1024,1024,1024,1024,0,0,0,0,282.2,0,0,95,4.123,4.115,0,0,0,0,3.973,63.32,80.76978440878,1.64042,6,P-GPS,
16900,2022-08-28 20:41:27,-34.9105620957779,-56.1389113293381,1.64042,116.3385864,-35.56880199122,80.76978440878,2.624672,0.447388,333.14305528,336.93242548,8,2,8.239,82.41020440878,3.28084,4.47388,333.68439388,0.447388,0,0,276.7, -4.3, -5.5,0,0,1024,1024,1024,1024,0,0,0,0,282.2,0,0,95,4.123,4.115,0,0,0,0,3.973,63.32,80.76978440878,1.64042,6,P-GPS,
17000,2022-08-28 20:41:27,-34.9105617833204,-56.1389113995691,1.64042,116.3385864,-35.56880199122,80.76978440878,2.624672,0.447388,333.03150672,337.05053572,8,2,8.239,82.41020440878,3.28084,4.47388,333.68439388,0.447388,0,0,276.9, -4.4, -5.6,0,0,1024,1024,1024,1024,0,0,0,0,282.2,0,0,95,4.123,4.115,0,0,0,0,3.973,63.32,80.76978440878,1.64042,6,P-GPS,
17100,2022-08-28 20:41:28,-34.9105612216252,-56.1389117554916,1.64042,116.3713948,-35.60161039122,80.76978440878,2.624672,0.223694,332.80184792,337.28019452,8,2,8.239,82.41020440878,3.28084,4.47388,333.68439388,0.223694,0,0,276.9, -4.4, -5.6,0,0,1024,1024,1024,1024,0,0,0,0,282.2,0,0,95,4.132,4.128,0,0,0,0,3.973,63.32,80.76978440878,1.64042,6,P-GPS,
17200,2022-08-28 20:41:28,-34.9105609516918,-56.1389118022164,1.64042,116.3713948,-35.60161039122,80.76978440878,2.624672,0.223694,332.70342272,337.37861972,8,2,8.239,82.41020440878,3.28084,4.47388,333.68439388,0.223694,0,0,276.8, -4.4, -5.3,0,0,1024,1024,1024,1024,0,0,0,0,282.2,0,0,95,4.132,4.128,0,0,0,0,3.973,63.32,80.76978440878,1.64042,6,P-GPS,
17300,2022-08-28 20:41:28,-34.9105607673208,-56.138911798234,1.64042,116.3713948,-35.60161039122,80.76978440878,2.624672,0,332.6443676,337.44751736,8,2,8.239,82.41020440878,3.28084,4.47388,333.68439388,0,0,0,276.9, -4.6, -5.3,0,0,1024,1024,1024,1024,0,0,0,0,282.2,0,0,95,4.132,4.128,0,0,0,0,3.973,63.32,80.76978440878,1.64042,6,P-GPS,
17400,2022-08-28 20:41:28,-34.9105606020258,-56.138911799869,1.64042,116.3713948,-35.60161039122,80.76978440878,2.624672,0,332.58859332,337.50657248,8,2,8.239,82.41020440878,3.28084,4.47388,333.68439388,0,0,0,276.7, -4.6, -5.2,0,0,1024,1024,1024,1315,0,0,0,44,282.2,0,0,95,4.132,4.128,0,0,0,0,3.973,63.32,80.76978440878,1.64042,6,P-GPS,
17500,2022-08-28 20:41:28,-34.9105608177012,-56.1389118732697,1.64042,116.3713948,-35.60161039122,80.76978440878,2.624672,0,332.65092928,337.58859348,8,3,8.239,82.41020440878,3.28084,4.47388,333.68439388,0,0,0,276.8, -4.7, -4.2,0,0,1024,1024,1024,1403,0,0,0,57,282.5,0,0,95,4.132,4.128,0,0,0,0,3.973,63.32,80.76978440878,1.64042,6,P-GPS,
17600,2022-08-28 20:41:28,-34.910560834708,-56.1389119106709,1.312336,116.0433108,-35.60161039122,80.44170040878,2.624672,0,332.65421012,337.60171684,8,3,8.239,82.41020440878,3.28084,4.47388,333.68439388,0,0,0,277.3, -4.9, -3.7,0,0,1024,1024,1024,1024,0,0,0,0,283.5,0,0,95,4.132,4.128,0,0,0,0,3.973,63.32,80.44170040878,1.312336,6,P-GPS,
17700,2022-08-28 20:41:28,-34.9105609083279,-56.1389119177019,1.312336,116.0433108,-35.60161039122,80.44170040878,2.624672,0,332.677176,337.62796356,8,3,8.239,82.41020440878,3.28084,4.47388,333.68439388,0,0,0,278.6, -5.5, -3.4,0,0,1024,1024,1024,1024,0,0,0,0,284.8,0,0,95,4.132,4.128,0,0,0,0,3.973,63.32,80.44170040878,1.312336,6,P-GPS,
17800,2022-08-28 20:41:28,-34.9105609777735,-56.1389119309349,1.312336,116.0433108,-35.60161039122,80.44170040878,2.624672,0,332.70014188,337.65421028,8,3,8.239,82.41020440878,3.28084,4.47388,333.68439388,0,0,0,279.5, -4.7, -3,0,0,1024,1024,1024,1024,0,0,0,0,285.4,0,0,95,4.132,4.128,0,0,0,0,3.973,63.32,80.44170040878,1.312336,6,P-GPS,
17900,2022-08-28 20:41:28,-34.9105613203975,-56.1389119109742,1.312336,116.0433108,-35.60161039122,80.44170040878,2.624672,0,332.81497128,337.7788822,8,3,8.239,82.41020440878,3.28084,4.47388,333.68439388,0,0,0,280.1, -5, -3.1,0,0,1024,1024,1024,1030,0,0,0,1,285.6,0,0,95,4.132,4.128,0,0,0,0,3.973,63.32,80.44170040878,1.312336,6,P-GPS,
18000,2022-08-28 20:41:28,-34.9105613469799,-56.1389119379657,1.312336,116.0433108,-35.60161039122,80.44170040878,2.624672,0,332.82153296,337.79200556,8,3,8.239,82.41020440878,3.28084,4.47388,333.68439388,0,0,0,280.1, -4.9, -3,0,0,1024,1024,1024,1150,0,0,0,19,285.6,0,0,95,4.132,4.128,0,0,0,0,3.973,63.32,80.44170040878,1.312336,6,P-GPS,
18100,2022-08-28 20:41:28,-34.9105613362314,-56.1389119590413,1.312336,116.0433108,-35.60161039122,80.44170040878,2.624672,0,332.81497128,337.79856724,8,3,8.258,82.41020440878,3.28084,4.47388,333.68439388,0,0,0,280.1, -4.4, -3.8,0,0,1024,1024,1024,1150,0,0,0,19,285.7,0,0,95,4.116,4.115,0,0,0,0,3.832,63.32,80.44170040878,1.312336,6,P-GPS,
18200,2022-08-28 20:41:29,-34.9105613248309,-56.1389119682014,1.312336,116.0433108,-35.60161039122,80.44170040878,2.624672,0,332.81169044,337.80512892,8,3,8.258,82.41020440878,3.28084,4.47388,333.68439388,0,0,0,280.2, -3.9, -4.1,0,0,1024,1024,1024,1024,0,0,0,0,285.8,0,0,95,4.116,4.115,0,0,0,0,3.832,63.32,80.44170040878,1.312336,6,P-GPS,
18300,2022-08-28 20:41:29,-34.9105612533585,-56.138911973191,1.312336,116.0433108,-35.60161039122,80.44170040878,2.624672,0,332.78544372,337.83137564,8,3,8.258,82.41020440878,3.28084,4.47388,333.68439388,0,0,0,280.3, -4.2, -4.1,0,0,1024,1024,1024,1024,0,0,0,0,285.9,0,0,95,4.116,4.115,0,0,0,0,3.832,63.32,80.44170040878,1.312336,6,P-GPS,
18400,2022-08-28 20:41:29,-34.9105611461044,-56.1389119521186,0.984252,115.7152268,-35.60161039122,80.11361640878,2.624672,0,332.75263532,337.87074572,8,3,8.258,82.41020440878,3.28084,4.47388,333.68439388,0,0,0,280.3, -4.6, -3.6,0,0,1099,1024,1024,1024,11,0,0,0,285.9,0,0,95,4.116,4.115,0,0,0,0,3.832,63.32,80.11361640878,0.984252,6,P-GPS,
18500,2022-08-28 20:41:29,-34.9105610821812,-56.1389119881249,0.984252,115.7152268,-35.60161039122,80.11361640878,2.624672,0,332.7263886,337.89699244,8,3,8.258,82.41020440878,3.28084,4.47388,333.68439388,0,0,0,280.2, -4.5, -3.3,0,0,1314,1024,1024,1024,44,0,0,0,285.9,0,0,95,4.116,4.115,0,0,0,0,3.832,63.32,80.11361640878,0.984252,6,P-GPS,
18600,2022-08-28 20:41:29,-34.9105610237655,-56.1389120267149,0.984252,115.7152268,-35.60161039122,80.11361640878,2.624672,0,332.70342272,337.91995832,8,3,8.258,82.41020440878,3.28084,4.47388,333.68439388,0,0,0,280.2, -6.2, -2.8,0,0,1224,1024,1024,1024,30,0,0,0,285.9,0,0,95,4.116,4.115,0,0,0,0,3.832,63.32,80.11361640878,0.984252,6,P-GPS,
18700,2022-08-28 20:41:29,-34.9105609438663,-56.1389120926211,0.984252,115.7152268,-35.60161039122,80.11361640878,2.624672,0,332.66733348,337.95604756,8,3,8.258,82.41020440878,3.28084,4.47388,333.68439388,0,0,0,280.4, -8.5, -2.7,0,0,1206,1024,1024,1024,28,0,0,0,285.9,0,0,95,4.116,4.115,0,0,0,0,3.832,63.32,80.11361640878,0.984252,6,P-GPS,
18800,2022-08-28 20:41:29,-34.9105607099702,-56.1389122990952,0.984252,115.7152268,-35.60161039122,80.11361640878,2.624672,0.223694,332.56562744,338.06103444,8,3,8.258,82.41020440878,3.28084,4.47388,333.68439388,0,-0.223694,0,280.5, -8.2, -2.7,0,0,1058,1024,1024,1024,5,0,0,0,285.9,0,0,95,4.116,4.115,0,0,0,0,3.832,63.32,80.11361640878,0.984252,6,P-GPS,
18900,2022-08-28 20:41:29,-34.9105605830312,-56.1389123930015,0.656168,115.3871428,-35.60161039122,79.78553240878,2.624672,0.223694,332.513134,338.11680872,8,3,8.258,82.41020440878,3.28084,4.47388,333.68439388,0,-0.223694,0,280.4, -7.6, -3.1,0,0,1058,1024,1024,1024,5,0,0,0,285.9,0,0,95,4.116,4.115,0,0,0,0,3.832,63.32,79.78553240878,0.656168,6,P-GPS,
19000,2022-08-28 20:41:29,-34.9105604404548,-56.1389125237705,0.656168,115.3871428,-35.60161039122,79.78553240878,2.624672,0.223694,332.4475172,338.17914468,8,3,8.258,82.41020440878,3.28084,4.47388,333.68439388,0,-0.223694,0,280.4, -6.3, -3.2,0,0,1024,1024,1024,1024,0,0,0,0,285.9,0,0,95,4.116,4.115,0,0,0,0,3.832,63.32,79.78553240878,0.656168,6,P-GPS,
19100,2022-08-28 20:41:29,-34.9105602858656,-56.1389126781865,0.656168,115.3871428,-35.60161039122,79.78553240878,2.624672,0.223694,332.37861956,338.254604,8,3,8.254,82.41020440878,3.28084,4.47388,333.68439388,0,-0.223694,0,280.3, -4, -3,0,0,1024,1024,1024,1024,0,0,0,0,285.9,0,0,95,4.118,4.115,0,0,0,0,3.73,63.32,79.78553240878,0.656168,6,P-GPS,
19200,2022-08-28 20:41:30,-34.9105599751827,-56.1389126891272,0.656168,115.3871428,-35.60161039122,79.78553240878,2.624672,0.223694,332.27363268,338.36615256,8,4,8.254,82.41020440878,3.28084,4.47388,333.68439388,0,-0.223694,0,280.1, -2.6, -3,0,0,1024,1024,812,1024,0,0,-32,0,285.9,0,0,95,4.118,4.115,0,0,0,0,3.73,63.32,79.78553240878,0.656168,6,P-GPS,
19300,2022-08-28 20:41:30,-34.9105598299813,-56.1389129155137,0.656168,115.3871428,-35.60161039122,79.78553240878,2.624672,0.223694,332.19817336,338.4514544,8,4,8.254,82.41020440878,3.28084,4.47388,333.68439388,0,-0.223694,0,280.2, -3.1, -3.4,0,0,1024,1024,750,1024,0,0,-42,0,285.9,0,0,95,4.118,4.115,0,0,0,0,3.73,63.32,79.78553240878,0.656168,6,P-GPS,
19400,2022-08-28 20:41:30,-34.9105596878765,-56.1389131346247,0.656168,115.3871428,-35.60161039122,79.78553240878,2.624672,0.223694,332.12599488,338.53675624,8,4,8.254,82.41020440878,3.28084,4.47388,333.68439388,0,-0.223694,0.223694,280.4, -3.9, -2.8,0,0,1024,1024,745,1024,0,0,-42,0,285.9,0,0,95,4.118,4.115,0,0,0,0,3.73,63.32,79.78553240878,0.656168,6,P-GPS,
19500,2022-08-28 20:41:30,-34.9105596397747,-56.1389133318377,0.656168,115.3871428,-35.60161039122,79.78553240878,2.624672,0.223694,332.0866248,338.5990922,8,4,8.254,82.41020440878,3.28084,4.47388,333.68439388,0,-0.223694,0.223694,280.4, -3.3, -2.9,0,0,1024,1024,863,1024,0,0,-24,0,285.9,0,0,95,4.118,4.115,0,0,0,0,3.73,63.32,79.78553240878,0.656168,6,P-GPS,
19600,2022-08-28 20:41:30,-34.910559659669,-56.1389137486178,0.656168,115.4527596,-35.66722719122,79.78553240878,2.624672,0,332.04397388,338.72376412,8,4,8.254,82.41020440878,3.28084,4.47388,333.68439388,0,0,0.223694,280.5, -2.9, -3,0,0,1024,1024,840,1024,0,0,-28,0,285.9,0,0,95,4.118,4.115,0,0,0,0,3.73,63.32,79.78553240878,0.656168,6,P-GPS,
19700,2022-08-28 20:41:30,-34.9105596357307,-56.1389137713314,0.984252,115.7808436,-35.66722719122,80.11361640878,2.624672,0,332.03413136,338.73360664,8,4,8.254,82.41020440878,3.28084,4.47388,333.68439388,0,0,0.447388,280.4, -2.6, -2.3,0,0,1024,1024,700,1024,0,0,-49,0,285.9,0,0,95,4.118,4.115,0,0,0,0,3.73,63.32,80.11361640878,0.984252,6,P-GPS,
19800,2022-08-28 20:41:30,-34.9105595948775,-56.1389137679179,0.984252,115.7808436,-35.66722719122,80.11361640878,2.296588,0,332.021008,338.75001084,8,4,8.254,82.41020440878,3.28084,4.47388,333.68439388,0,0,0.447388,280.3, -3, -2.9,0,0,1024,1024,816,1024,0,0,-32,0,285.9,0,0,95,4.118,4.115,0,0,0,0,3.73,63.32,80.11361640878,0.984252,6,P-GPS,
19900,2022-08-28 20:41:30,-34.9105595945671,-56.138913733776,0.984252,115.7808436,-35.66722719122,80.11361640878,2.296588,0,332.02428884,338.75985336,8,4,8.254,82.41020440878,3.28084,4.47388,333.68439388,0,0,0.447388,280.4, -3.5, -2.7,0,0,1024,1024,816,1024,0,0,-32,0,285.9,0,0,95,4.118,4.115,0,0,0,0,3.73,63.32,80.11361640878,0.984252,6,P-GPS,
20000,2022-08-28 20:41:30,-34.9105595772854,-56.1389136915775,0.984252,115.7808436,-35.66722719122,80.11361640878,2.296588,0,332.02428884,338.77297672,8,4,8.254,82.41020440878,3.28084,4.47388,333.68439388,0,0,0.447388,280.3, -3.7, -2.4,0,0,1024,1024,860,1024,0,0,-25,0,285.9,0,0,95,4.118,4.115,0,0,0,0,3.73,63.32,80.11361640878,0.984252,6,P-GPS,
20100,2022-08-28 20:41:31,-34.9105597864391,-56.1389131388882,0.984252,115.7152268,-35.60161039122,80.11361640878,2.296588,0,332.15880328,338.95670376,8,4,8.245,82.41020440878,3.28084,4.47388,333.68439388,0,0,0.223694,280.2, -2.7, -3.6,0,0,1024,1024,1024,1024,0,0,0,0,285.9,0,0,95,4.124,4.129,0,0,0,0,3.839,63.32,80.11361640878,0.984252,6,P-GPS,
20200,2022-08-28 20:41:31,-34.9105596910862,-56.1389130283365,0.984252,115.7152268,-35.60161039122,80.11361640878,1.968504,0,332.13911824,339.00263552,11,4,8.245,82.41020440878,3.28084,4.47388,333.68439388,0,0,0.223694,280.2, -3, -3.7,0,0,1024,1024,1024,1024,0,0,0,0,285.9,0,0,95,4.124,4.129,0,0,0,0,3.839,63.32,80.11361640878,0.984252,6,P-GPS,
20300,2022-08-28 20:41:31,-34.910559594341,-56.1389130303439,0.984252,115.7152268,-35.60161039122,80.11361640878,1.968504,0,332.10630984,339.03872476,11,4,8.245,82.41020440878,3.28084,4.47388,333.68439388,0,0,0,280.1, -1.7, -4.4,0,0,1168,1024,1024,1024,22,0,0,0,285.9,0,0,95,4.124,4.129,0,0,0,0,3.839,63.32,80.11361640878,0.984252,6,P-GPS,
20400,2022-08-28 20:41:31,-34.910559520112,-56.1389130144334,0.984252,115.7152268,-35.60161039122,80.11361640878,1.968504,0,332.08334396,339.06497148,11,4,8.245,82.41020440878,3.28084,4.47388,333.68439388,0,0,0,280.1, -2.9, -4,0,0,1292,1024,1024,1024,41,0,0,0,285.9,0,0,95,4.124,4.129,0,0,0,0,3.839,63.32,80.11361640878,0.984252,6,P-GPS,
20500,2022-08-28 20:41:31,-34.9105590459134,-56.1389129776183,0.656168,115.3871428,-35.60161039122,79.78553240878,1.968504,0,331.92914448,339.238856,11,4,8.245,82.41020440878,3.28084,4.47388,333.68439388,0,0,0,280.2, -4.8, -3.5,0,0,1369,1024,1024,1024,52,0,0,0,285.9,0,0,95,4.124,4.129,0,0,0,0,3.839,63.32,79.78553240878,0.656168,6,P-GPS,
20600,2022-08-28 20:41:31,-34.9105588302113,-56.138912919566,0.656168,115.3871428,-35.60161039122,79.78553240878,1.968504,0,331.86352768,339.320877,11,4,8.245,82.41020440878,3.28084,4.47388,333.68439388,0,0,0,280.3, -7, -2.5,0,0,1364,1024,1024,1024,52,0,0,0,285.9,0,0,95,4.124,4.129,0,0,0,0,3.839,63.32,79.78553240878,0.656168,6,P-GPS,
20700,2022-08-28 20:41:31,-34.9105587227027,-56.1389129986373,0.656168,115.3871428,-35.60161039122,79.78553240878,1.968504,0,331.81759592,339.36680876,11,4,8.245,82.41020440878,3.28084,4.47388,333.68439388,0,-0.223694,0,280.4, -9.8, -1.7,0,0,1364,1024,1024,1024,52,0,0,0,285.9,0,0,95,4.124,4.129,0,0,0,0,3.839,63.32,79.78553240878,0.656168,6,P-GPS,"Punto de origen actualizado. Altitud de RPO establecida en 100m (Code: 3000001)"
20800,2022-08-28 20:41:31,-34.9105585996652,-56.1389131691611,0.656168,115.3871428,-35.60161039122,79.78553240878,1.968504,0.447388,331.75525996,339.43242556,11,4,8.245,82.41020440878,3.28084,4.47388,333.68439388,0,-0.447388,0,280.5, -10.2, -2.3,0,0,1364,1024,1024,1024,52,0,0,0,285.9,0,0,95,4.124,4.129,0,0,0,0,3.839,63.32,79.78553240878,0.656168,6,P-GPS,"En vuelo"
20900,2022-08-28 20:41:31,-34.9105587176655,-56.1389137139997,0.328084,115.0918672,-35.63441879122,79.45744840878,1.968504,0.671082,331.73229408,339.60302924,11,4,8.245,82.41020440878,3.28084,4.47388,333.68439388,0,-0.671082,0,280.4, -10.5, -2.4,0,0,1354,1024,1024,1024,50,0,0,0,285.9,0,0,95,4.124,4.129,0,0,0,0,3.839,63.32,79.45744840878,0.328084,6,P-GPS,
